rmax,name,lon,lat
276,San Vicente de Alcantara,-7.136,39.361
331,Llerena,-6.016,38.238
822,Azuaga,-5.677,38.26
1419,Zafra,-6.411,38.423
55,Los Santos de Maimona,-6.381,38.449
55,Fuente del Maestre,-6.447,38.527
331,Villafranca de los Barros,-6.336,38.561
571,Almendralejo,-6.405,38.683
55,Villanueva de la Serena,-5.795,38.976
476,Don Benito,-5.861,38.957
230,Guarena,-6.098,38.86
685,Merida,-6.342,38.919
160,Jerez de los Caballeros,-6.769,38.323
397,Olivenza,-7.098,38.684
79,Las Vaguadas,-6.971,38.844
112,Arroyo de la Luz,-6.582,39.485
230,Montehermoso,-6.348,40.088
276,Moraleja,-6.654,40.069
571,Coria,-6.538,39.986
1183,Caceres,-6.371,39.475
276,Jaraiz de la Vera,-5.756,40.058
276,Navalmoral de la Mata,-5.539,39.894
1183,Plasencia,-6.085,40.036
276,Gibraleon,-6.967,37.376
112,Trigueros,-6.833,37.383
192,Punta Umbria,-6.968,37.183
94,San Juan del Puerto,-6.84,37.316
79,Ayamonte,-7.401,37.215
55,Rociana del Condado,-6.595,37.307
685,Aracena,-6.564,37.892
94,Cartaya,-7.149,37.284
685,Valverde del Camino,-6.752,37.573
112,La Palma del Condado,-6.553,37.388
476,Almonte,-6.516,37.261
192,Bollullos Par del Condado,-6.539,37.34
134,Villa del Rio,-4.288,37.981
822,Lucena,-4.486,37.409
94,La Rambla,-4.737,37.607
94,Nueva Carteya,-4.466,37.586
230,Rute,-4.368,37.326
134,Cabra,-4.429,37.473
192,Puente Genil,-4.766,37.388
476,Montilla,-4.638,37.585
276,Baena,-4.323,37.617
134,Aguilar de la Frontera,-4.656,37.514
112,Fuente Palmera,-5.1,37.704
276,Bujalance,-4.379,37.893
331,Palma del Rio,-5.278,37.699
112,Vejer de la Frontera,-5.966,36.251
94,Medina-Sidonia,-5.928,36.462
46,Bonanza,-6.335,36.801
94,Trebujena,-6.174,36.869
134,Paterna de Rivera,-5.864,36.523
94,Los Barrios,-5.489,36.183
112,Puerto Serrano,-5.541,36.922
331,Ubrique,-5.446,36.675
112,Bornos,-5.743,36.816
134,Benalup-Casas Viejas,-5.813,36.346
112,Puerto Real,-6.192,36.53
276,Rota,-6.367,36.627
276,Conil de la Frontera,-6.086,36.279
230,Tarifa,-5.606,36.016
986,Algeciras,-5.448,36.133
397,Olvera,-5.258,36.934
160,Archidona,-4.39,37.095
230,Alameda,-4.656,37.208
397,Velez-Malaga,-4.101,36.777
55,Campanillas,-4.543,36.725
160,Estacion,-4.609,36.737
24,Torre de Benagalbon,-4.245,36.714
112,Pizarra,-4.707,36.764
55,Cartama,-4.631,36.712
2450,Malaga,-4.43,36.724
66,Alhaurin el Grande,-4.686,36.642
24,Arroyo de la Miel-Benalmadena Costa,-4.524,36.596
112,San Luis de Sabinillas,-5.229,36.366
476,Marbella,-4.886,36.513
160,Sitio de Calahonda,-4.711,36.491
46,Torremolinos,-4.496,36.629
160,Nerja,-3.872,36.754
476,Guadix,-3.136,37.299
160,Huetor Tajar,-4.046,37.198
476,Baza,-2.773,37.488
397,Motril,-3.517,36.749
112,Padul,-3.625,37.024
55,Alhendin,-3.643,37.108
46,Cullar Vega,-3.672,37.156
46,Armilla,-3.623,37.142
24,Gojar,-3.601,37.106
24,Ogijares,-3.61,37.119
55,Huetor Vega,-3.567,37.148
276,Pinos Puente,-3.75,37.253
79,Santa Fe,-3.716,37.189
66,Atarfe,-3.687,37.223
112,Maracena,-3.634,37.206
39,Albolote,-3.655,37.23
39,Granada,-3.602,37.181
24,Cenes de la Vega,-3.542,37.163
24,Peligros,-3.627,37.232
55,Salobrena,-3.586,36.743
112,La Zubia,-3.584,37.118
46,Otura,-3.635,37.092
33,Barrio de la Vega,-3.562,37.135
397,La Carolina,-3.616,38.274
331,Alcaudete,-4.081,37.59
112,Torreperogil,-3.289,38.035
134,Arjona,-4.056,37.936
33,Torredonjimeno,-3.953,37.765
55,Torre del Campo,-3.898,37.77
192,Martos,-3.97,37.718
160,Los Villares,-3.817,37.689
276,Mengibar,-3.806,37.969
134,Baeza,-3.469,37.994
192,Mancha Real,-3.608,37.785
685,Jodar,-3.353,37.84
160,Bailen,-3.777,38.095
571,Villacarrillo,-3.082,38.116
79,Ceuti,-1.273,38.08
33,Alguazas,-1.24,38.053
476,Mula,-1.491,38.04
192,Bullas,-1.667,38.047
66,Santomera,-1.048,38.062
160,Molina de Segura,-1.206,38.057
28,Lorqui,-1.25,38.084
46,Espinardo,-1.155,38.011
28,Cabezo de Torres,-1.127,38.025
28,Altorreal,-1.169,38.074
331,Fortuna,-1.126,38.181
230,Caravaca de la Cruz,-1.863,38.106
160,Alhama de Murcia,-1.424,37.85
160,Torre-Pacheco,-0.954,37.744
94,Puerto de Mazarron,-1.266,37.564
94,Fuente Alamo de Murcia,-1.17,37.723
33,Los Gabatos,-1.006,37.64
79,Poligono de Santa Ana,-1.011,37.652
66,El Algar,-0.865,37.647
94,La Union,-0.877,37.62
276,Totana,-1.499,37.77
685,Aguilas,-1.582,37.409
276,Mazarron,-1.314,37.599
230,Puerto Lumbreras,-1.806,37.565
160,Moratalla,-1.89,38.188
276,Jumilla,-1.324,38.476
685,Hellin,-1.698,38.511
192,Tobarra,-1.688,38.591
276,La Roda,-2.157,39.206
1419,Albacete,-1.858,38.993
571,Almansa,-1.095,38.868
192,Caudete,-0.985,38.705
46,Argamasilla de Alba,-3.093,39.128
685,Alcazar de San Juan,-3.211,39.39
79,Membrilla,-3.343,38.972
276,Manzanares,-3.371,38.998
276,Villarrubia de los Ojos,-3.607,39.22
230,Daimiel,-3.611,39.069
192,La Solana,-3.234,38.942
39,Campo de Criptana,-3.125,39.403
685,Tomelloso,-3.017,39.157
55,Miguelturra,-3.892,38.967
1419,Ciudad Real,-3.928,38.983
230,Malagon,-3.851,39.167
55,Almagro,-3.71,38.889
134,Bolanos de Calatrava,-3.663,38.906
112,Pedro Munoz,-2.947,39.402
134,Socuellamos,-2.792,39.284
822,Tarancon,-3.01,40.011
1702,Cuenca,-2.136,40.066
276,San Clemente,-2.427,39.402
160,Mota del Cuervo,-2.87,39.501
192,Las Pedroneras,-2.673,39.449
276,Quintanar del Rey,-1.926,39.344
28,Cabanillas del Campo,-3.231,40.638
66,Alovera,-3.246,40.596
94,Marchamalo,-3.202,40.668
134,Azuqueca de Henares,-3.259,40.57
24,Villanueva de la Torre,-3.298,40.58
276,Guadalajara,-3.164,40.636
94,Villaviciosa de Odon,-3.907,40.358
46,Alcorcon,-3.826,40.343
39,El Bosque,-3.927,40.384
66,Boadilla del Monte,-3.894,40.406
134,San Martin de Valdeiglesias,-4.399,40.364
66,Sevilla la Nueva,-4.026,40.348
112,Navalcarnero,-4.012,40.287
192,Brunete,-3.998,40.405
39,Fortuna,-3.781,40.358
28,El Bercial,-3.736,40.323
55,Getafe,-3.722,40.313
39,Parque Coimbra,-3.928,40.308
79,Casas del Cura,-3.658,40.322
160,Mostoles,-3.858,40.319
33,Humera-Somosaguas-Prado del Rey,-3.795,40.418
46,Leganes,-3.768,40.332
46,Madrid,-3.676,40.427
66,Humanes de Madrid,-3.825,40.253
192,Villa del Prado,-4.304,40.277
160,El Alamo,-3.991,40.23
24,Arroyomolinos,-3.905,40.27
55,Torrejon de la Calzada,-3.801,40.201
112,Ciempozuelos,-3.621,40.158
66,Parla,-3.764,40.233
66,Pinto,-3.697,40.247
476,Valdemoro,-3.682,40.195
55,Grinon,-3.851,40.214
397,Aranjuez,-3.601,40.031
94,San Martin de la Vega,-3.577,40.211
55,Morata de Tajuna,-3.436,40.23
331,Villarejo de Salvanes,-3.276,40.169
28,Villanueva del Pardillo,-3.963,40.492
112,Valdemorillo,-4.066,40.501
79,Villanueva de la Canada,-4.002,40.449
24,El Escorial,-4.125,40.582
46,Colmenarejo,-4.008,40.555
46,Alpedrete,-4.04,40.658
46,Collado Mediano,-4.032,40.693
66,Hoyo de Manzanares,-3.908,40.617
66,Colmenar Viejo,-3.77,40.665
66,Tres Cantos,-3.712,40.606
192,Alcobendas,-3.638,40.542
192,San Agustin del Guadalix,-3.616,40.681
134,Guadarrama,-4.085,40.672
33,Urbanizaciones Noroeste,-3.895,40.435
94,Moralzarzal,-3.968,40.679
79,Galapagar,-4.001,40.576
39,Majadahonda,-3.856,40.454
112,Las Matas-Pinar-Monte Rozas,-3.894,40.558
160,Miraflores de la Sierra,-3.764,40.811
134,Cercedilla,-4.055,40.741
192,Manzanares el Real,-3.86,40.732
39,Soto del Real,-3.772,40.749
46,Loeches,-3.412,40.382
55,Torres de la Alameda,-3.36,40.404
79,Vaciamadrid,-3.514,40.332
160,La Partija-Santa Monica,-3.537,40.362
33,Los Villares,-3.448,40.311
66,Mejorada del Campo,-3.484,40.395
55,Torrejon de Ardoz,-3.474,40.461
230,Arganda del Rey,-3.44,40.299
79,Paracuellos de Jarama,-3.517,40.502
79,Guadalix de la Sierra,-3.704,40.782
66,Cobena,-3.505,40.568
112,Algete,-3.497,40.597
66,Daganzo de Arriba,-3.456,40.547
94,Fuente el Saz de Jarama,-3.513,40.633
112,El Molar,-3.582,40.735
79,Meco,-3.329,40.551
24,San Sebastian de los Reyes,-3.622,40.554
685,Arenas de San Pedro,-5.082,40.211
1183,Avila,-4.697,40.65
571,Arevalo,-4.714,41.054
331,Cuellar,-4.312,41.401
822,Segovia,-4.112,40.944
571,Ciudad Rodrigo,-6.529,40.6
685,Bejar,-5.764,40.386
397,Guijuelo,-5.671,40.556
46,Santa Marta de Tormes,-5.625,40.95
66,Armunia,-5.59,42.575
476,Astorga,-6.054,42.455
476,La Baneza,-5.899,42.298
276,Valencia de Don Juan,-5.517,42.293
39,Villaobispo de las Regueras,-5.549,42.614
39,Navatejera,-5.563,42.628
331,Briviesca,-3.323,42.549
331,Medina de Pomar,-3.487,42.932
685,Aranda de Duero,-3.687,41.673
230,Segorbe,-0.487,39.849
230,Onda,-0.263,39.965
276,L'Alcora,-0.213,40.075
331,La Vall d'Uixo,-0.228,39.824
94,Vila-real,-0.101,39.94
55,Nules,-0.157,39.854
112,Mas dels Frares,0.047,40.037
192,Binefar,0.295,41.85
331,Fraga,0.342,41.522
822,Jaca,-0.546,42.573
230,Sabinanigo,-0.367,42.521
986,Huesca,-0.407,42.137
685,Monzon,0.191,41.913
331,Barbastro,0.125,42.036
331,Haro,-2.849,42.573
160,Arnedo,-2.102,42.226
134,Santo Domingo de la Calzada,-2.953,42.44
331,Alfaro,-1.749,42.178
331,Najera,-2.728,42.419
79,Lardero,-2.461,42.427
39,Villamediana de Iregua,-2.417,42.425
571,Calahorra,-1.968,42.307
230,Estella/Lizarra,-2.031,42.672
134,Cintruenigo,-1.803,42.079
1183,Tudela,-1.606,42.058
79,Corella,-1.792,42.114
134,Peralta/Azkoien,-1.8,42.339
55,San Adrian,-1.934,42.335
33,Baranain,-1.685,42.804
33,Berriozar,-1.675,42.844
28,Sarriguren,-1.594,42.811
24,Mutilva/Mutiloa,-1.617,42.794
33,Noain/Noain,-1.632,42.759
276,Altsasu/Alsasua,-2.169,42.895
46,Zizur Mayor/Zizur Nagusia,-1.692,42.789
46,Ansoain,-1.643,42.834
66,El Prat de Llobregat,2.095,41.325
134,Vilafranca del Penedes,1.7,41.345
79,Sant Pere de Ribes,1.775,41.26
66,Castelldefels,1.98,41.285
33,Sitges,1.812,41.239
46,Piera,1.75,41.523
134,Abrera,1.903,41.52
33,Rubi,2.036,41.49
33,Vilassar de Dalt,2.359,41.518
55,La Llagosta,2.192,41.513
28,Premia de Mar,2.359,41.493
28,Cerdanyola del Valles,2.139,41.491
79,Sant Andreu de la Barca,1.972,41.447
24,Valldoreix,2.047,41.456
28,Mira-Sol,2.051,41.466
79,Martorell,1.918,41.477
33,Castellbisbal,1.982,41.475
112,Badalona,2.237,41.451
46,Can Sant Joan,2.184,41.47
33,Tiana,2.268,41.48
66,Canet de Mar,2.582,41.592
55,Cardedeu,2.36,41.641
33,Llinars del Valles,2.399,41.641
55,Arenys de Munt,2.54,41.612
28,Palafolls,2.75,41.67
24,Malgrat de Mar,2.739,41.646
55,La Roca del Valles,2.327,41.585
33,Sant Andreu de Llavaneres,2.482,41.571
39,Mollet del Valles,2.213,41.541
39,Parets del Valles,2.231,41.574
28,Montornes del Valles,2.269,41.541
33,Argentona,2.4,41.554
39,Corro d'Avall,2.298,41.632
160,La Garriga,2.283,41.686
276,Mataro,2.438,41.544
134,Centelles,2.221,41.797
192,Tona,2.226,41.849
476,Vic,2.255,41.929
134,Terrassa,2.017,41.565
66,Sabadell,2.1,41.549
24,Torre-Romeu,2.127,41.548
79,Castellar del Valles,2.088,41.613
24,Sentmenat,2.137,41.607
33,Caldes de Montbui,2.167,41.631
46,Sant Feliu de Codines,2.163,41.688
55,Polinya,2.16,41.555
79,Sant Sadurni d'Anoia,1.785,41.427
33,Gelida,1.867,41.441
39,Sant Feliu de Llobregat,2.049,41.385
55,Sant Adria de Besos,2.22,41.424
66,L'Hospitalet de Llobregat,2.111,41.365
28,Sant Vicenc dels Horts,2.009,41.394
24,Esplugues de Llobregat,2.082,41.372
192,Manlleu,2.283,42.002
55,Roda de Ter,2.309,41.983
112,Torello,2.264,42.049
160,Sant Vicenc de Castellet,1.863,41.668
94,Sallent,1.894,41.825
79,Artes,1.952,41.797
476,Berga,1.846,42.101
33,Sant Joan de Vilatorrada,1.803,41.743
134,Santpedor,1.837,41.783
66,Platja d'Aro,3.063,41.817
331,Sant Feliu de Guixols,3.03,41.784
134,La Bisbal D'emporda,3.038,41.961
66,Lloret de Mar,2.84,41.701
112,Blanes,2.785,41.676
79,Cassa de la Selva,2.875,41.888
28,Salt,2.792,41.973
55,Tossa de Mar,2.928,41.724
192,Santa Coloma de Farners,2.667,41.861
331,Ripoll,2.194,42.195
331,L'Escala,3.142,42.108
160,Torroella de Montgri,3.128,42.042
33,Roses,3.185,42.253
685,Figueres,2.961,42.265
112,Alcarras,0.523,41.565
1419,Lleida,0.629,41.62
276,Almacelles,0.439,41.729
331,Guissona,1.29,41.784
571,Tarrega,1.14,41.648
134,Cervera,1.273,41.672
192,Mollerussa,0.892,41.627
397,Balaguer,0.807,41.789
276,Les Borges Blanques,0.87,41.518
331,Solsona,1.519,41.994
192,Amurrio,-2.999,43.053
571,Vitoria-Gasteiz,-2.679,42.85
397,Laudio/Llodio,-2.965,43.141
55,Akartegi,-1.798,43.371
112,Andoain,-2.021,43.218
55,Elgoibar,-2.412,43.217
24,Irun,-1.799,43.339
94,Zumaia,-2.256,43.294
46,Urnieta,-1.991,43.247
112,Hernani,-1.975,43.268
192,Zarautz,-2.168,43.284
33,Azkoitia,-2.307,43.177
134,Azpeitia,-2.266,43.181
134,Arrasate/Mondragon,-2.49,43.065
79,Legazpi,-2.334,43.053
94,Bergara,-2.413,43.116
46,Lazkao,-2.185,43.032
55,Aretxabaleta,-2.505,43.033
94,Onati,-2.413,43.033
192,Los Corrales de Buelna,-4.066,43.262
28,Tanos,-4.041,43.334
1183,Reinosa,-4.137,43
230,Santona,-3.454,43.443
39,El Astillero,-3.816,43.398
28,Muriedas,-3.852,43.42
33,Penacastillo,-3.856,43.443
46,Cueto,-3.802,43.481
94,Laredo,-3.428,43.409
28,San Roman,-3.861,43.468
276,Castro-Urdiales,-3.216,43.376
24,Colindres,-3.451,43.396
160,Pola de Laviana,-5.562,43.245
822,La Pola,-5.827,43.158
39,Corredoria,-5.82,43.386
160,Grau/Grado,-6.072,43.385
46,Las Vegas/Les Vegues,-5.899,43.536
1702,Gijon/Xixon,-5.67,43.53
230,Llangreu/Langreo,-5.677,43.293
397,Ordes,-8.403,43.079
33,Perillo,-8.374,43.335
112,A Baiuca,-8.509,43.304
230,Betanzos,-8.207,43.277
397,As Pontes de Garcia Rodriguez,-7.86,43.452
55,A Coruna,-8.409,43.365
39,Boiro de Arriba,-8.884,42.647
94,Santa Uxia de Ribeira,-8.993,42.558
397,Santiago de Compostela,-8.539,42.879
66,O Milladoiro,-8.578,42.845
79,Bertamirans,-8.649,42.863
230,Burela,-7.362,43.661
230,Ribadeo,-7.044,43.536
1183,Lugo,-7.556,43.011
397,Monforte de Lemos,-7.511,42.522
685,Sarria,-7.411,42.779
276,Lalin,-8.11,42.66
94,O Porrino,-8.616,42.16
230,Tui,-8.644,42.049
331,O Carballino,-8.076,42.432
39,A Valenza,-7.881,42.317
1183,Verin,-7.434,41.941
112,Can Picafort,3.147,39.767
160,Sa Pobla,3.023,39.769
112,Pollenca,3.017,39.877
28,Alcudia,3.121,39.853
28,Platja d'Alcudia,3.113,39.83
822,Mao,4.263,39.887
66,Puerto de Pollenca,3.081,39.908
94,Campos,3.017,39.432
276,Manacor,3.208,39.57
134,Porto Cristo,3.341,39.545
134,Felanitx,3.148,39.47
276,Inca,2.911,39.719
66,Binissalem,2.844,39.688
160,Santa Ponca,2.473,39.503
55,Sant Agusti,2.598,39.552
33,Son Ferriol,2.715,39.574
39,Lloseta,2.868,39.719
160,Santa Maria del Cami,2.775,39.649
39,Sa Vileta-Son Rapinya,2.616,39.592
66,Es Coll De'n Rabassa,2.696,39.552
24,S' Arenal,2.754,39.499
230,Andratx,2.419,39.573
24,Sant Antoni de Portmany,1.302,38.982
331,San Sebastian de la Gomera,-17.114,28.089
28,Anaza,-16.298,28.424
39,Puerto de la Cruz,-16.554,28.414
79,Guimar,-16.41,28.317
24,Realejo Alto,-16.586,28.379
79,San Isidro,-16.557,28.078
24,Valle de San Lorenzo,-16.656,28.09
230,Tejina,-16.361,28.533
39,Gracia,-16.304,28.472
94,San Cristobal de la Laguna,-16.318,28.49
24,Taco,-16.296,28.449
28,Playa del Ingles,-15.573,27.758
24,Los Llanos,-15.439,27.86
24,Playa de Arinaga,-15.39,27.858
55,Cruce de Arinaga,-15.43,27.878
476,Gran Tarajal,-14.021,28.214
986,Puerto del Rosario,-13.861,28.499
112,San Bartolome,-13.61,29.001
33,Playa Honda,-13.59,28.954
28,Argana Alta,-13.568,28.98
331,Corralejo,-13.868,28.74
66,Puerto del Carmen,-13.666,28.923
66,Tias,-13.653,28.953
66,Costa Teguise,-13.493,28.999
24,Montana Roja,-13.859,28.862
79,Valle de Jinamar,-15.419,28.033
24,Tamaraceite,-15.474,28.1
28,Las Palmas de Gran Canaria,-15.43,28.119
39,Navalquejigo,-4.055,40.602
28,La Perdoma,-16.55,28.378
33,La Matanza de Acentejo,-16.449,28.451
39,Chauchina,-3.773,37.197
94,O Temple,-8.354,43.316
39,Orio,-2.125,43.281
79,Campo Real,-3.377,40.34
66,La Montana,-3.598,40.06
33,Carbajosa de la Sagrada,-5.649,40.933
55,Benejuzar,-0.837,38.077
55,Bigastro,-0.898,38.061
55,Dolores,-0.767,38.137
46,Cox,-0.891,38.142
66,Callosa de Segura,-0.876,38.125
33,Redovan,-0.907,38.115
79,Almoradi,-0.791,38.11
192,Albatera,-0.871,38.18
94,Aspe,-0.768,38.343
94,Crevillent,-0.808,38.249
160,El Pinos/Pinoso,-1.04,38.401
192,Villena,-0.863,38.636
94,Cocentaina,-0.438,38.74
94,Muro de Alcoy,-0.437,38.781
33,Alacant/Alicante,-0.49,38.358
28,Guardamar del Segura,-0.653,38.086
28,Torrevieja,-0.676,37.985
397,Santa Pola,-0.552,38.195
39,Monforte del Cid,-0.726,38.38
230,Jijona/Xixona,-0.506,38.538
66,San Vicente del Raspeig/Sant Vicent del Raspeig,-0.522,38.396
192,Ibi,-0.574,38.623
94,Castalla,-0.671,38.596
66,Gran Alacant,-0.518,38.223
94,Torrellano,-0.587,38.293
24,Ciudad Quesada,-0.713,38.065
39,Villajoyosa/La Vila Joiosa,-0.227,38.51
94,Ondara,0.021,38.825
79,Callosa d'en Sarria,-0.121,38.651
24,L'Alfas del Pi,-0.097,38.579
24,Benidorm,-0.119,38.541
79,Pedreguer,0.035,38.794
79,Benissa,0.053,38.716
66,Coloma,-0.134,38.58
160,La Nucia,-0.126,38.615
276,Adra,-3.016,36.749
230,Berja,-2.945,36.846
397,Albox,-2.141,37.385
276,Velez-Rubio,-2.075,37.649
230,Huercal-Overa,-1.945,37.395
476,Vera,-1.866,37.247
192,Garrucha,-1.822,37.18
160,Almerimar,-2.805,36.708
33,Santa Maria del Aguila,-2.774,36.784
55,Las Norias de Daza,-2.741,36.757
28,La Mojonera,-2.682,36.753
66,Roquetas de Mar,-2.611,36.762
55,Aguadulce,-2.57,36.816
33,La Fuensanta-Villa Ines,-2.442,36.871
79,Huercal de Almeria,-2.441,36.884
39,La Canada de San Urbano,-2.407,36.84
134,Retamar,-2.308,36.835
55,San Isidro de Nijar,-2.173,36.909
331,Carboneras,-1.895,36.998
230,Lebrija,-6.076,36.919
160,Las Cabezas de San Juan,-5.937,36.983
276,Dos Hermanas,-5.926,37.281
94,Quinto,-5.93,37.335
79,Valdezorras,-5.925,37.43
276,Utrera,-5.777,37.185
46,Mairena del Alcor,-5.75,37.373
28,El Viso del Alcor,-5.72,37.389
24,La Rinconada,-5.98,37.486
230,San Jose de la Rinconada,-5.943,37.485
66,Alcala del Rio,-5.983,37.516
94,Burguillos,-5.965,37.583
134,Brenes,-5.87,37.549
39,Villaverde del Rio,-5.868,37.587
134,Montellano,-5.573,36.995
476,Moron de la Frontera,-5.452,37.122
160,Arahal,-5.544,37.261
160,Lora del Rio,-5.527,37.657
397,Cantillana,-5.823,37.611
160,Carmona,-5.646,37.47
112,Alcala de Guadaira,-5.84,37.341
6094,Sevilla,-5.972,37.388
230,Pilas,-6.304,37.304
46,Almensilla,-6.112,37.31
46,La Puebla del Rio,-6.062,37.266
79,Coria del Rio,-6.053,37.288
33,Benacazon,-6.196,37.354
28,Bollullos de la Mitacion,-6.138,37.341
66,Palomares del Rio,-6.058,37.321
39,Mairena del Aljarafe,-6.062,37.345
28,Bormujos,-6.073,37.371
28,Villanueva del Ariscal,-6.147,37.397
33,Valencina de la Concepcion,-6.075,37.415
28,Gelves,-6.025,37.338
24,Tomares,-6.044,37.374
55,Santiponce,-6.042,37.434
66,La Algaba,-6.011,37.462
79,Aznalcollar,-6.268,37.52
112,Gerena,-6.155,37.531
66,Umbrete,-6.158,37.368
24,Gines,-6.074,37.385
79,Camas,-6.035,37.401
28,Castilleja de la Cuesta,-6.056,37.386
39,Espartinas,-6.119,37.378
112,Sanlucar la Mayor,-6.2,37.386
134,Fuentes de Andalucia,-5.346,37.464
160,Osuna,-5.104,37.237
160,Pedrera,-4.894,37.225
276,Estepa,-4.878,37.292
79,Herrera,-4.847,37.363
66,Consuegra,-3.608,39.462
160,Illescas,-3.849,40.127
55,Esquivias,-3.764,40.105
79,Yuncos,-3.873,40.09
112,Sesena,-3.694,40.105
55,Arges,-4.055,39.805
94,Poligono Sta M de Benquerencia,-3.946,39.869
192,Mora,-3.774,39.684
134,Bargas,-4.019,39.94
134,Fuensalida,-4.209,40.051
476,Quintanar de la Orden,-3.038,39.594
476,Sonseca,-3.977,39.677
230,Torrijos,-4.28,39.982
230,Villacanas,-3.339,39.62
571,Toledo,-4.026,39.867
94,Yepes,-3.625,39.904
230,Ocana,-3.496,39.958
1183,Zamora,-5.741,41.507
397,Toro,-5.394,41.524
55,Zaratan,-4.781,41.657
230,Tordesillas,-4.999,41.503
55,Arroyo de la Encomienda,-4.788,41.611
39,Cisterniga,-4.685,41.611
134,Laguna de Duero,-4.722,41.584
79,Tudela de Duero,-4.579,41.584
685,Medina del Campo,-4.914,41.307
24,Valladolid,-4.731,41.65
1183,Soria,-2.472,41.764
79,Grau I Platja,-0.169,39.008
230,Tavernes de la Valldigna,-0.264,39.073
230,Utiel,-1.204,39.569
276,Bunol,-0.789,39.421
24,Alaquas,-0.457,39.455
66,Aldaia,-0.462,39.464
55,Betera,-0.459,39.591
79,Burjassot,-0.413,39.509
24,Xirivella,-0.429,39.465
33,San Francisco,-0.477,39.506
79,La Canada,-0.483,39.532
33,La Coma,-0.433,39.524
39,La Pobla de Vallbona,-0.549,39.593
94,Torrent,-0.47,39.433
66,Moncada,-0.395,39.546
55,Manises,-0.463,39.494
28,Benaguasil,-0.587,39.594
46,Chiva,-0.715,39.472
66,Vilamarxant,-0.626,39.569
33,Riba-roja de Turia,-0.566,39.545
55,Meliana,-0.347,39.528
39,Rafelbunol/Rafelbunyol,-0.336,39.589
24,Foios,-0.353,39.538
46,Alboraya,-0.35,39.498
39,Sagunto/Sagunt,-0.269,39.68
24,Tavernes Blanques,-0.363,39.507
94,Pucol,-0.301,39.617
46,Castellar-Oliveral,-0.362,39.428
55,L'Alcudia,-0.504,39.196
24,Alfafar,-0.389,39.422
79,Carcaixent,-0.447,39.121
94,Catarroja,-0.403,39.404
28,Guadassuar,-0.476,39.187
24,Silla,-0.41,39.363
28,Monte Vedat,-0.485,39.419
46,Paiporta,-0.416,39.427
55,Alginet,-0.469,39.264
79,Alberic,-0.521,39.117
134,Carlet,-0.521,39.227
24,Valencia,-0.37,39.47
1183,Teruel,-1.105,40.342
1183,Alcaniz,-0.131,41.05
331,Tarazona,-1.724,41.904
230,La Almunia de Dona Godina,-1.374,41.477
685,Calatayud,-1.642,41.351
112,Maria de Huerva,-0.994,41.54
192,Utebo,-0.998,41.71
94,La Puebla de Alfinden,-0.749,41.632
476,Zuera,-0.788,41.867
2450,Zaragoza,-0.894,41.65
134,Cuarte de Huerva,-0.929,41.59
192,Alagon,-1.119,41.771
476,Tauste,-1.253,41.919
276,Ejea de los Caballeros,-1.133,42.127
276,Amposta,0.577,40.709
230,Sant Carles de la Rapita,0.587,40.616
276,La Senia,0.283,40.635
160,Alcanar,0.48,40.543
134,Deltebre,0.727,40.718
66,La Selva del Camp,1.139,41.213
397,Valls,1.249,41.288
66,Vila-seca,1.146,41.109
28,Campclar,1.202,41.116
39,Sant Pere I Sant Pau,1.253,41.139
134,Torredembarra,1.401,41.147
24,Constanti,1.216,41.152
160,Reus,1.108,41.152
134,Salou,1.127,41.082
112,L'Arboc,1.6,41.267
134,El Vendrell,1.532,41.218
230,Montblanc,1.16,41.374
55,Andra Mari,-3.028,43.369
134,Lekeitio,-2.504,43.364
79,Algorta,-3.007,43.349
134,Mungia,-2.841,43.353
33,Kukullaga,-2.883,43.251
66,Arizgoiti,-2.883,43.238
134,Amorebieta,-2.734,43.221
24,Santurtzi,-3.035,43.327
192,Ondarroa,-2.431,43.321
24,Leioa,-2.987,43.325
28,Sestao,-3.007,43.309
79,Portugalete,-3.021,43.318
28,Altzaga,-2.974,43.305
24,Astrabudua,-2.98,43.316
28,Ortuella,-3.055,43.311
94,Bilbao,-2.933,43.261
66,Balmaseda,-3.196,43.192
24,Ermua,-2.505,43.188
66,Arrigorriaga,-2.887,43.209
112,Elorrio,-2.541,43.129
6094,Melilla,-2.947,35.283
33,Salteras,-6.11,37.419
46,Urbanizacion El Quinon,-3.666,40.128
66,El Senorio de Illescas,-3.832,40.154
24,Los Garres,-1.091,37.956
192,Moia,2.096,41.81
46,Las Chafiras,-16.617,28.059
33,L'Hospitalet de L'infant,0.918,40.992
94,Palazuelo,-5.739,39.111
46,Vegas Altas,-5.562,39.13
134,Villarta de los Montes,-4.79,39.214
79,Peloche,-5.134,39.189
276,Valdecaballeros,-5.188,39.242
66,Castilblanco,-5.089,39.286
94,Helechosa de los Montes,-4.907,39.311
134,Fuenlabrada de los Montes,-4.934,39.133
192,Herrera del Duque,-5.049,39.168
66,Obando,-5.495,39.117
134,La Codosera,-7.172,39.208
276,Villar del Rey,-6.847,39.132
94,Cordobilla de Lacara,-6.435,39.148
134,Puebla de Obando,-6.625,39.176
134,La Roca de la Sierra,-6.69,39.108
230,Maguilla,-5.836,38.365
331,Campillo de Llerena,-5.831,38.501
192,Retamal de Llerena,-5.839,38.577
39,Higuera de la Serena,-5.741,38.645
160,Peraleda del Zaucejo,-5.564,38.474
33,La Nava,-5.398,38.678
66,Valle de la Serena,-5.797,38.702
79,Benquerencia de la Serena,-5.495,38.7
46,Malpartida de la Serena,-5.64,38.675
28,Esparragosa de la Serena,-5.605,38.649
79,Zalamea de la Serena,-5.658,38.652
134,Helechal,-5.362,38.674
134,Monterrubio de la Serena,-5.444,38.589
79,Quintana de la Serena,-5.668,38.739
39,Ahillones,-5.864,38.259
24,Valverde de Burguillos,-6.535,38.327
112,Valencia del Ventoso,-6.473,38.266
112,Medina de las Torres,-6.411,38.344
79,Bienvenida,-6.208,38.298
112,La Lapa,-6.518,38.453
192,Llera,-6.056,38.446
66,Ribera del Fresno,-6.238,38.551
134,Hornachos,-6.068,38.553
79,Palomas,-6.134,38.693
24,Casas de Reina,-5.969,38.202
66,Valverde de Llerena,-5.82,38.213
134,Berlanga,-5.828,38.282
66,Higuera de Llerena,-5.998,38.376
39,La Cardenchosa,-5.553,38.236
94,Granja de Torrehermosa,-5.598,38.309
66,Atalaya,-6.475,38.334
55,Alconera,-6.475,38.399
46,Calzadilla de los Barros,-6.312,38.299
94,Villagarcia de la Torre,-6.079,38.293
134,Valencia de las Torres,-6.003,38.404
230,Usagre,-6.167,38.354
134,Hinojosa del Valle,-6.184,38.483
160,Puebla de la Reina,-6.101,38.664
28,Puebla del Prior,-6.195,38.569
66,Puebla de Sancho Perez,-6.4,38.395
79,Villalba de los Barros,-6.509,38.613
94,Solana de los Barros,-6.538,38.725
66,San Marcos,-6.449,38.701
55,Manchita,-6.02,38.814
66,Mengabril,-5.932,38.936
66,Yelbes,-6.025,38.97
28,Entrerrios,-5.72,38.995
55,Valdehornillos,-5.976,39.058
39,Ruecas,-5.874,39.04
134,Vivares,-5.895,39.087
112,Rena,-5.808,39.054
134,Valdivia,-5.709,39.033
55,Gargaligas,-5.651,39.053
79,Los Guadalperales,-5.625,39.084
39,Acedera,-5.571,39.076
160,Orellana la Vieja,-5.535,39.007
33,Villar de Rena,-5.811,39.077
79,Zurbaran,-5.723,39.065
33,El Torviscal,-5.755,39.073
160,La Coronada,-5.669,38.919
112,La Haba,-5.802,38.919
66,Magacela,-5.733,38.896
46,Torremayor,-6.537,38.901
55,Lacara,-6.547,38.934
230,Torremejia,-6.376,38.789
39,Esparragalejo,-6.434,38.943
66,Alange,-6.245,38.785
55,Cristina,-6.098,38.837
33,El Vivero,-6.3,38.935
66,Valverde de Merida,-6.219,38.912
55,El Carrascalejo,-6.336,39.023
55,San Pedro de Merida,-6.186,38.95
66,Torrefresneda,-6.11,38.988
55,Aljucen,-6.33,39.045
39,Carmonita,-6.338,39.154
28,Zarza-Capilla,-5.156,38.807
192,Penalsordo,-5.113,38.819
24,Capilla,-5.084,38.82
66,Tamurejo,-4.946,38.991
46,Baterno,-4.91,38.956
66,Casas de Don Pedro,-5.331,39.105
160,Garbayuela,-4.998,39.05
160,Siruela,-5.048,38.978
94,Puebla de Alcocer,-5.256,38.986
230,Talarrubias,-5.233,39.036
112,Garlitos,-5.046,38.879
94,Sancti-Spiritus,-5.146,38.922
39,Risco,-5.122,38.911
331,Navalvillar de Pela,-5.467,39.091
39,Orellana de la Sierra,-5.497,39.031
24,Esparragosa de Lares,-5.269,38.975
160,Oliva de Merida,-6.122,38.791
55,Hernan Cortes,-5.931,39.027
79,Medellin,-5.957,38.963
192,Santa Amalia,-6.009,39.011
33,Conquista del Guadiana,-6.036,39.075
134,Valdetorres,-6.069,38.915
160,La Nava de Santiago,-6.504,39.063
112,La Zarza,-6.217,38.818
94,Don Alvaro,-6.273,38.848
66,Villagonzalo,-6.197,38.863
94,Trujillanos,-6.26,38.951
192,Mirandilla,-6.289,39.001
55,Proserpina,-6.357,38.966
112,Arroyo de San Servan,-6.452,38.855
79,La Garrovilla,-6.479,38.919
192,Zahinos,-6.955,38.331
55,La Bazana,-6.744,38.276
66,Valuengo,-6.712,38.304
33,Brovales,-6.683,38.349
331,Cheles,-7.281,38.511
94,Higuera de Vargas,-6.973,38.445
33,San Jorge de Alor,-7.055,38.645
94,Valverde de Leganes,-6.979,38.67
66,San Rafael de Olivenza,-7.053,38.72
160,San Francisco de Olivenza,-7.104,38.747
94,Rio Caya,-7.036,38.914
66,Dehesilla de Calamon,-6.95,38.821
28,Urbanizacion Tres Arroyos,-6.887,38.843
79,Corte de Peleas,-6.671,38.726
112,Alvarado,-6.79,38.809
46,Guadajira,-6.68,38.852
28,Urbanizacion los Montitos,-6.943,38.861
94,Gevora,-6.94,38.92
39,Sagrajas,-6.901,38.922
33,Balboa,-6.816,38.905
94,Novelda del Guadiana,-6.833,38.938
192,Valdebotoa,-6.923,38.967
39,Valdelacalzada,-6.7,38.889
24,Retamal,-6.629,38.737
39,Cortegana,-6.62,38.75
134,Lobon,-6.624,38.848
55,Barbano,-6.586,38.875
24,Pueblonuevo del Guadiana,-6.756,38.924
112,Valle de Santa Ana,-6.792,38.368
28,Valle de Matamoros,-6.805,38.378
134,Valencia del Mombuey,-7.119,38.243
134,Salvatierra de los Barros,-6.683,38.491
192,Villanueva del Fresno,-7.165,38.376
192,Alconchel,-7.07,38.516
46,Taliga,-7.013,38.528
66,San Benito de la Contienda,-7.157,38.632
397,Barcarrota,-6.847,38.515
46,Salvaleon,-6.785,38.51
79,Burguillos del Cerro,-6.59,38.379
46,Feria,-6.563,38.512
46,La Parra,-6.621,38.522
112,La Morera,-6.652,38.547
160,Santa Marta,-6.625,38.614
134,Nogales,-6.748,38.587
79,Torre de Miguel Sesmero,-6.796,38.618
79,La Albuera,-6.823,38.717
33,Villafranco del Guadiana,-6.858,38.883
39,Alcazaba,-6.738,38.954
94,Guadiana del Caudillo,-6.69,38.928
24,La Pilara,-6.931,38.88
160,Fuentes de Leon,-6.539,38.068
134,Santa Maria de Nava,-6.082,38.016
94,Fuente del Arco,-5.896,38.152
276,Monesterio,-6.271,38.088
55,Calera de Leon,-6.335,38.106
134,Segura de Leon,-6.53,38.121
46,Higuera la Real,-6.688,38.141
66,Cabeza la Vaca,-6.421,38.086
134,Montemolin,-6.212,38.154
134,Puebla del Maestre,-6.078,38.084
94,Pallares,-6.15,38.112
134,Trasierra,-5.995,38.191
39,Reina,-5.949,38.188
94,Malcocinado,-5.691,38.123
79,Bodonal de la Sierra,-6.557,38.146
28,Cortijo de Merino,-7.109,38.699
134,Albala,-7.119,38.804
33,Cortijo de los Cuartos de Valhondo,-7.079,38.815
33,Cortijo de Santa Engracia,-7.012,38.941
46,Cantillana de Molano,-6.941,38.984
94,Cortijo del Guarda de la Peralta,-6.808,39.045
39,Los Fresnos,-6.682,38.908
66,Cortijo del Prado,-6.413,39.053
55,Cortijo del Barbancillo,-6.537,39.007
112,Cortijo de Castilrubio,-5.904,38.796
55,Casa de la Barca,-5.805,39.019
276,Alcuescar,-6.23,39.182
55,Arroyomolinos,-6.162,39.184
79,Albala,-6.187,39.256
79,Montanchez,-6.148,39.225
39,Torre de Santa Maria,-6.115,39.253
66,Alonso de Ojeda,-5.955,39.103
79,Valdemorales,-6.066,39.206
79,Zarza de Montanchez,-6.031,39.257
24,Robledillo de Trujillo,-5.98,39.269
192,Valdefuentes,-6.123,39.275
112,Torremocha,-6.172,39.346
55,Torrequemada,-6.22,39.366
276,Torreorgaz,-6.247,39.383
39,Benquerencia,-6.084,39.31
46,Salvatierra de Santiago,-6.031,39.303
79,Botija,-6.074,39.345
66,Ruanes,-6.012,39.328
55,Plasenzuela,-6.048,39.381
112,La Cumbre,-5.975,39.405
33,Escurial,-5.884,39.168
55,Casar de Miajadas,-5.837,39.122
94,Pizarro,-5.791,39.152
39,Villamesias,-5.873,39.245
112,Abertura,-5.813,39.244
134,Campo Lugar,-5.771,39.195
66,Alcollarin,-5.738,39.244
134,Ibahernando,-5.917,39.326
46,Puerto de Santa Cruz,-5.858,39.315
55,Santa Cruz de la Sierra,-5.845,39.336
46,Conquista de la Sierra,-5.734,39.35
230,Zorita,-5.698,39.286
94,Herguijuela,-5.759,39.373
160,Madronera,-5.756,39.424
94,Garciaz,-5.627,39.413
79,Santa Marta de Magasca,-6.098,39.511
331,Monroy,-6.209,39.637
192,Torrejon el Rubio,-6.011,39.77
33,Belen,-5.844,39.481
79,La Aldea del Obispo,-5.91,39.564
112,Aldeacentenera,-5.63,39.527
112,Berzocana,-5.461,39.437
192,Torrecillas de la Tiesa,-5.742,39.567
134,Jaraicejo,-5.813,39.665
160,Deleitosa,-5.645,39.644
24,Casas de Miravete,-5.743,39.727
55,Higuera,-5.666,39.726
134,Romangordo,-5.699,39.742
192,Madrigalejo,-5.626,39.138
230,Logrosan,-5.49,39.336
94,Canamero,-5.388,39.379
66,Roturas,-5.476,39.556
66,Robledollano,-5.506,39.609
192,Navezuelas,-5.438,39.51
986,Guadalupe,-5.325,39.452
112,Navalvillar de Ibor,-5.412,39.584
112,Fresnedoso de Ibor,-5.508,39.684
66,Campillo de Deleitosa,-5.573,39.703
39,Valdecanas de Tajo,-5.619,39.759
46,Mesas de Ibor,-5.545,39.755
276,Bohonal de Ibor,-5.484,39.784
134,Castanar de Ibor,-5.416,39.629
79,Peraleda de San Roman,-5.386,39.741
66,Garvin,-5.345,39.72
94,Alia,-5.217,39.448
66,Navatrasierra,-5.242,39.604
94,Carrascalejo,-5.216,39.648
79,Valdelacasa de Tajo,-5.281,39.725
160,Villar del Pedroso,-5.194,39.706
134,Mirabel,-6.23,39.864
160,Serradilla,-6.14,39.828
112,Serrejon,-5.801,39.817
79,Saucedilla,-5.677,39.853
66,Belvis de Monroy,-5.608,39.819
66,Millanes,-5.58,39.849
46,Valdehuncar,-5.523,39.837
134,Peraleda de la Mata,-5.46,39.853
79,Berrocalejo,-5.349,39.82
55,El Gordo,-5.343,39.865
160,Almaraz,-5.675,39.815
112,Almoharin,-6.043,39.176
79,Torrecilla de los Angeles,-6.415,40.248
79,Villanueva de la Sierra,-6.406,40.202
55,Santa Cruz de Paniagua,-6.339,40.192
134,Aceituna,-6.33,40.149
55,Palomero,-6.276,40.247
55,Marchagaz,-6.274,40.268
46,Casar de Palomero,-6.255,40.293
94,Descargamaria,-6.485,40.305
39,Robledillo de Gata,-6.47,40.322
230,Pinofranqueado,-6.33,40.303
28,Azabal,-6.298,40.298
39,Caminomorisco,-6.289,40.325
55,Fragosa,-6.298,40.398
55,La Moheda de Gata,-6.622,40.097
55,Puebla de Argeme,-6.453,39.983
55,Las Huertas de Cansa,-7.274,39.35
160,Santiago de Alcantara,-7.243,39.605
24,Carbajo,-7.194,39.604
94,Piedras Albas,-6.925,39.784
986,Cedillo,-7.498,39.651
79,Herrera de Alcantara,-7.404,39.638
276,Membrio,-7.053,39.527
94,Salorino,-7.007,39.478
79,Herreruela,-6.906,39.462
230,Alcantara,-6.884,39.713
79,Hinojal,-6.356,39.709
112,Aliseda,-6.692,39.423
94,Rincon de Ballesteros,-6.392,39.196
46,Casas de Don Antonio,-6.289,39.236
94,Aldea del Cano,-6.319,39.289
79,Valdesalor,-6.348,39.378
134,Sierra de Fuentes,-6.272,39.439
134,Villa del Rey,-6.82,39.659
79,Casas de Don Gomez,-6.6,40.009
276,Brozas,-6.778,39.612
55,Mata de Alcantara,-6.817,39.717
55,Malpartida de Caceres,-6.508,39.445
112,Casar de Caceres,-6.417,39.559
160,Cilleros,-6.788,40.112
571,Garrovillas de Alconetar,-6.548,39.711
79,Santiago del Campo,-6.363,39.629
79,Talavan,-6.281,39.715
331,Ceclavin,-6.771,39.822
160,Zarza la Mayor,-6.861,39.877
112,Acehuche,-6.632,39.803
79,Pescueza,-6.644,39.918
46,Casillas de Coria,-6.635,39.965
46,Huelaga,-6.616,40.057
79,Portezuelo,-6.474,39.812
46,Pedroso de Acim,-6.411,39.825
94,Portaje,-6.56,39.918
134,Canaveral,-6.391,39.791
55,Casas de Millan,-6.327,39.816
46,Holguera,-6.349,39.899
39,Valdencin,-6.408,39.915
79,Casares de las Hurdes,-6.286,40.44
94,Riolobos,-6.303,39.92
28,Rincon del Obispo,-6.491,39.965
112,Calzadilla,-6.531,40.059
66,Guijo de Coria,-6.463,40.101
94,El Batan,-6.377,39.972
160,Morcillo,-6.396,40.018
28,Valrio,-6.37,40.011
134,Galisteo,-6.265,39.976
39,Guijo de Galisteo,-6.409,40.094
55,Villamiel,-6.784,40.187
55,San Martin de Trevejo,-6.795,40.211
476,Valverde del Fresno,-6.877,40.221
33,Eljas,-6.843,40.212
112,Perales del Puerto,-6.681,40.156
55,Hoyos,-6.719,40.171
55,Acebo,-6.716,40.202
33,Villasbuenas de Gata,-6.626,40.178
39,Torre de Don Miguel,-6.576,40.225
39,Santibanez el Alto,-6.546,40.185
55,Villa del Campo,-6.427,40.141
55,Hernan-Perez,-6.463,40.213
55,Vegaviana,-6.717,40.041
230,Torrejoncillo,-6.466,39.897
134,Gata,-6.595,40.238
28,Alagon del Rio,-6.316,39.974
134,Navas del Madrono,-6.653,39.621
79,Aldehuela de Jerte,-6.238,40.012
24,Pradochano,-6.215,40.007
66,Valdeobispo,-6.247,40.083
94,Carcaboso,-6.214,40.05
112,Malpartida de Plasencia,-6.044,39.979
66,Oliva de Plasencia,-6.085,40.112
94,Toril,-5.779,39.897
134,Majadas,-5.746,39.943
112,Casatejada,-5.681,39.887
66,Tejeda de Tietar,-5.868,40.019
94,Valdeinigos,-5.856,39.962
46,Garguera,-5.927,40.061
28,Casas del Castanar,-5.904,40.108
66,Barrado,-5.88,40.085
28,Pasaron de la Vera,-5.82,40.051
160,Piornal,-5.847,40.116
55,Robledillo de la Vera,-5.587,40.101
66,Garganta la Olla,-5.776,40.11
39,Cuacos de Yuste,-5.723,40.104
192,Ahigal,-6.187,40.19
28,Guijo de Granadilla,-6.163,40.193
46,Cerezo,-6.227,40.236
94,La Pesga,-6.176,40.327
134,Mohedas de Granadilla,-6.202,40.269
33,Cabezabellosa,-6.002,40.137
79,El Torno,-5.944,40.136
55,Jarilla,-6.002,40.172
94,Casas del Monte,-5.961,40.203
94,Zarza de Granadilla,-6.048,40.235
24,La Granja,-5.995,40.238
46,Segura de Toro,-5.947,40.224
33,Abadia,-5.976,40.259
33,Cambroncino,-6.237,40.342
134,Nunomoral,-6.245,40.407
79,Vegas de Coria,-6.184,40.384
39,Ladrillar,-6.223,40.466
55,Valdastillas,-5.878,40.133
46,Rebollar,-5.898,40.154
24,Navaconcejo,-5.828,40.178
276,Cabezuela del Valle,-5.805,40.192
46,Gargantilla,-5.919,40.248
28,Aldeanueva del Camino,-5.93,40.259
230,Hervas,-5.861,40.272
134,Jarandilla de la Vera,-5.657,40.127
66,Guijo de Santa Barbara,-5.654,40.153
55,Jerte,-5.75,40.222
112,Tornavacas,-5.688,40.255
112,Banos de Montemayor,-5.857,40.318
33,Santa Maria de las Lomas,-5.57,40.011
94,Tietar,-5.483,40.03
33,Losar de la Vera,-5.603,40.121
134,Rosalejo,-5.457,39.995
28,Barquilla de Pinares,-5.438,40.052
28,La Barquilla,-5.446,40.063
94,Pueblonuevo de Miramontes,-5.377,40.06
79,Villanueva de la Vera,-5.462,40.13
39,Madrigal de la Vera,-5.367,40.148
33,Casa de la Pradera,-6.528,40.001
46,Valdeolivos,-6.057,40.021
79,Cardenilla,-5.757,39.989
94,Caserio de Robledo del Tejar,-5.534,40.075
66,Caserio de Mesa Llana,-5.446,40.16
39,Casas del Guarda,-5.389,40.186
39,Finca de Pedro Fernandez,-5.421,40.083
39,Torreon de los Mogollones,-6.448,39.376
46,Casa de Traballa,-6.488,39.488
39,Playa Isla de Canela,-7.371,37.174
66,La Antilla,-7.212,37.208
39,Pinares de Lepe,-7.214,37.226
94,Sanlucar de Guadiana,-7.465,37.473
94,El Granado,-7.416,37.521
160,Villanueva de los Castillejos,-7.271,37.499
160,San Bartolome de la Torre,-7.104,37.445
33,Dehesa Golf,-7.011,37.284
685,Paymogo,-7.344,37.741
331,Puebla de Guzman,-7.247,37.613
55,Villanueva de las Cruces,-7.023,37.628
192,Calanas,-6.878,37.653
28,Lucena del Puerto,-6.728,37.304
79,Niebla,-6.679,37.363
79,La Zarza,-6.855,37.714
55,Cueva de la Mora,-6.801,37.78
66,Zalamea la Real,-6.658,37.679
24,El Campillo,-6.628,37.694
55,La Dehesa,-6.582,37.713
160,Campofrio,-6.573,37.767
94,Almonaster la Real,-6.787,37.873
33,Los Romeros,-6.748,37.894
24,Linares de la Sierra,-6.62,37.88
24,Los Marines,-6.621,37.903
39,La Redondela,-7.27,37.222
66,Alajar,-6.66,37.876
66,Fuenteheridos,-6.66,37.904
24,Minas de Riotinto,-6.594,37.693
46,Nuevo Portil,-7.062,37.217
66,El Rompido,-7.124,37.222
33,El Rincon,-7.049,37.248
28,Las Herrerias,-7.293,37.61
28,Pozo del Camino,-7.316,37.225
160,Santa Barbara de Casa,-7.188,37.797
94,San Silvestre de Guzman,-7.348,37.388
55,Alosno,-7.115,37.548
55,El Pintado,-6.901,37.379
66,Montes de San Benito,-7.071,37.681
94,Cabezas Rubias,-7.086,37.727
192,El Cerro de Andevalo,-6.937,37.734
66,San Telmo,-6.966,37.795
79,Candon,-6.739,37.391
94,Beas,-6.792,37.427
192,Cortegana,-6.82,37.911
112,Valdelamusa,-6.879,37.787
79,Tharsis,-7.121,37.602
112,Sotiel Coronada,-6.85,37.602
192,Villablanca,-7.342,37.303
39,Villarrasa,-6.606,37.388
55,Patras,-6.703,37.802
79,Concepcion,-6.675,37.776
46,Veredas,-6.829,37.884
33,Santa Ana la Real,-6.723,37.864
134,Torre de la Higuera O Matalascanas,-6.556,37.005
33,Villalba del Alcor,-6.475,37.397
46,Manzanilla,-6.432,37.39
55,Chucena,-6.392,37.363
24,Escacena del Campo,-6.388,37.408
55,La Granada de Rio-Tinto,-6.508,37.769
55,Zufre,-6.341,37.833
94,Valdezufre,-6.493,37.866
192,Santa Olalla del Cala,-6.228,37.907
331,El Rocio,-6.481,37.134
94,Higuera de la Sierra,-6.446,37.836
28,La Umbria,-6.458,37.861
66,Corteconcepcion,-6.503,37.895
79,Hinojos,-6.38,37.291
94,Berrocal,-6.541,37.608
79,Cumbres de San Bartolome,-6.741,38.078
55,Cumbres Mayores,-6.644,38.062
33,Cumbres de Enmedio,-6.692,38.073
55,Canaveral de Leon,-6.527,38.015
55,Hinojales,-6.588,38.008
94,Arroyomolinos de Leon,-6.421,38.024
476,Rosal de la Frontera,-7.22,37.967
134,Aroche,-6.952,37.944
46,La Corte,-6.831,37.953
39,El Repilado,-6.769,37.927
94,Galaroza,-6.711,37.926
79,Cortelazor,-6.624,37.935
55,Carboneras,-6.543,37.918
33,Castanuelos,-6.58,37.937
192,Cala,-6.315,37.971
79,Las Cefinas,-6.858,37.968
94,La Nava,-6.743,37.962
46,Valdelarco,-6.682,37.95
160,Encinasola,-6.871,38.137
55,Casa del Mellizo,-7.287,37.29
24,Casas de Fotea,-7.358,37.223
33,Mirador del Guadiana,-7.407,37.227
55,Malpica,-7.132,37.265
55,La Ribera,-6.904,37.316
46,Casa del Chorrillo,-6.788,37.232
24,Marzagalejo,-6.745,37.23
24,Los Espinos,-6.679,37.302
28,El Gimon,-6.97,37.386
112,Casas de la Bomba,-7.039,37.408
28,Casa de la Rehoya,-6.597,37.335
46,Cortijo de la Parrilla,-6.489,37.309
112,La Palmosa,-6.462,37.183
55,Cortijo de Arroyo Sequillo,-6.556,37.963
230,Argallon,-5.483,38.202
94,El Hoyo,-5.292,38.246
55,La Coronada,-5.491,38.254
192,Los Blazquez,-5.438,38.407
55,Porvenir de la Industria,-5.331,38.316
134,La Granjuela,-5.351,38.371
55,Valsequillo,-5.352,38.406
79,Villanueva del Rey,-5.151,38.198
55,Fuente la Lancha,-5.047,38.422
46,Villanueva del Duque,-4.998,38.394
192,Belalcazar,-5.166,38.575
24,Alcaracejos,-4.967,38.388
79,Anora,-4.897,38.411
55,Villaralto,-4.983,38.455
112,El Viso,-4.954,38.484
134,Santa Eufemia,-4.903,38.597
112,Dos Torres,-4.895,38.445
94,Pedroche,-4.762,38.428
94,El Guijo,-4.782,38.496
79,Torrecampo,-4.677,38.474
160,Conquista,-4.5,38.409
192,Venta del Charco,-4.278,38.204
230,Cardena,-4.325,38.273
134,Azuel,-4.327,38.326
94,Fuente Obejuna,-5.419,38.267
112,Belmez,-5.207,38.271
397,Villaviciosa de Cordoba,-5.015,38.075
160,Adamuz,-4.521,38.027
55,Santa Maria de Trassierra,-4.899,37.928
55,Dona Manuela,-4.756,37.934
160,Cerro Muriano,-4.768,38.004
33,Barriada del Angel,-4.656,37.926
79,Villafranca de Cordoba,-4.545,37.963
66,El Carpio,-4.495,37.941
24,Maruanas,-4.469,37.936
39,Pedro Abad,-4.456,37.966
55,Algallarin,-4.455,38
66,Las Jaras,-4.842,37.97
28,Penatejada,-4.756,37.923
24,Monton de Tierra,-4.7,37.923
28,Encinares de Alcolea,-4.678,37.946
46,Encinas Reales,-4.488,37.274
46,Navas del Selpillar,-4.587,37.42
112,Moriles,-4.608,37.436
79,Monturque,-4.58,37.472
33,El Fontanar,-4.802,37.559
46,Montalban de Cordoba,-4.748,37.581
39,Fuente del Conde,-4.302,37.207
66,Montemayor,-4.698,37.648
39,Llano del Espinar,-4.523,37.562
134,Iznajar,-4.308,37.257
55,La Celada,-4.306,37.278
66,La Montiela,-4.918,37.524
55,La Mina,-4.782,37.342
94,Cordobilla,-4.728,37.359
46,Ribera Baja,-4.799,37.404
24,Palomar,-4.758,37.38
39,Palenciana,-4.581,37.248
39,El Tejar,-4.543,37.238
134,Benameji,-4.54,37.269
79,El Higueral,-4.256,37.317
112,Las Lagunillas,-4.248,37.355
24,Llanos de Don Juan,-4.412,37.406
112,Zambra,-4.384,37.385
33,El Nacimiento,-4.383,37.399
66,Carcabuey,-4.274,37.443
39,Zuheros,-4.314,37.543
24,La Concepcion,-4.154,37.452
39,El Esparragal,-4.214,37.502
46,Zamoranos,-4.163,37.526
79,La Fuente Grande,-4.093,37.41
46,Sileras,-4.065,37.462
46,Castil de Campos,-4.141,37.491
160,Fuente-Tojar,-4.145,37.51
39,Luque,-4.278,37.558
66,Zagrilla Baja,-4.234,37.479
134,Dona Mencia,-4.356,37.554
55,Almedinilla,-4.093,37.44
28,La Guijarrosa,-4.863,37.637
94,Santaella,-4.843,37.562
55,Campo de Aras,-4.476,37.363
112,Santa Cruz,-4.633,37.734
79,Espejo,-4.553,37.679
66,Estacion de Obejo,-4.79,38.027
94,Ochavillo del Rio,-5.131,37.756
24,La Herreria,-5.112,37.738
24,El Negrete,-4.83,37.928
79,Chalets Baldio,-5.292,37.729
33,Cespedes,-5.255,37.756
66,Mesas del Guadalora,-5.238,37.773
55,Bembezar del Caudillo,-5.236,37.795
39,Veredon El Mohino,-5.219,37.732
46,Villalon,-5.137,37.733
46,Canada del Rabadan,-5.081,37.662
66,Fuente Carreteros,-5.155,37.671
28,Silillos,-5.127,37.694
66,Pueblo Calonge,-5.375,37.672
66,Penalosa,-5.084,37.732
28,El Garabato,-4.977,37.682
46,Fuencubierta,-4.988,37.709
55,Chica-Carlota,-4.949,37.697
39,La Paz,-4.923,37.657
66,Quintana,-4.865,37.711
55,La Victoria,-4.852,37.681
28,San Sebastian de los Ballesteros,-4.823,37.653
94,Guadalcazar,-4.942,37.758
24,Fontanar de Quintos,-4.854,37.843
39,Campinuela Baja,-4.738,37.909
24,Majaneque,-4.882,37.838
112,Albendin,-4.238,37.669
160,Valenzuela,-4.219,37.775
55,Canete de las Torres,-4.318,37.867
134,Hornachuelos,-5.245,37.835
24,Urbanizacion Las Lomas del Rey,-4.942,37.683
28,La Golondrina,-4.864,37.85
24,El Arrecife,-4.895,37.7
55,El Higueron,-4.849,37.867
39,Las Quemadillas,-4.721,37.896
33,El Alcaide,-4.819,37.859
192,La Cardenchosa,-5.348,38.146
94,Ojuelos Altos,-5.356,38.181
46,Posadilla,-5.277,38.189
276,Espiel,-5.019,38.189
112,Villaharta,-4.903,38.14
79,Obejo,-4.798,38.132
46,Venta de Armijo,-4.329,38.012
112,Madronal,-4.364,38.08
134,La Parrilla,-4.526,38.085
79,Casas del Membrillar,-5.117,37.838
39,Cierzos y Cabreras,-4.262,37.282
24,Corona Algaida y Gata,-4.333,37.232
55,El Adelantado,-4.345,37.22
79,Navas de Mingo Rubio,-4.559,37.329
46,Cortijo del Contadero,-4.529,37.381
66,Arroyuelos,-4.426,37.413
55,La Retamosa,-4.507,37.463
55,Jarata,-4.685,37.556
55,La Salud,-4.678,37.61
39,Riofrio,-4.562,37.517
46,Dos Hermanas,-4.614,37.655
39,El Privilegio,-4.763,37.639
33,Monte Alto,-4.895,37.657
28,Casa de los Cortijillos,-4.948,37.712
33,El Temple,-4.972,37.806
66,Cortijo de la Veguilla,-4.901,37.822
55,Cortijo de Las Pitas,-4.745,37.96
79,Adalid,-4.358,37.711
94,La Sierra,-4.258,37.706
39,Las Puertas,-4.23,37.757
28,La Armada,-4.446,37.602
46,Las Navas,-4.104,37.39
46,Campo Real,-4.703,37.4
55,Cantarranas,-5.884,36.314
46,Los Canos de Meca,-6.009,36.187
24,Roche,-6.146,36.316
28,Melilla,-6.153,36.363
33,La Coquina,-6.188,36.416
55,La Muela,-5.985,36.27
66,San Andres Golf,-6.11,36.353
46,Barriada El Marquesado,-6.117,36.471
66,Los Naveros,-5.977,36.358
33,Malcocinado,-5.867,36.359
55,Poblado Naval,-6.288,36.616
33,Los Gallos-Cerromolino,-6.172,36.4
28,Pago del Humo,-6.108,36.399
66,Valdelagrana,-6.22,36.578
28,Barriada Torre Alta,-6.152,36.524
79,Barrio de Jarana,-6.142,36.502
24,Barriada El Almendral,-6.158,36.535
28,Las Vinas,-6.22,36.59
46,Vallealto,-6.208,36.625
24,Dona Blanca-Poblado,-6.165,36.616
39,El Portal,-6.132,36.637
24,Andalucia (Barriada),-6.335,36.791
112,La Algaida,-6.318,36.831
24,Las Tablas,-6.217,36.707
46,Mesas de Asta,-6.173,36.79
79,La Barrosa,-6.184,36.376
28,Las Veguetas,-6.149,36.376
39,Pastrana,-6.34,36.762
28,Rajamancera,-6.004,36.629
33,El Mojo,-6.016,36.579
55,Lomopardo,-6.082,36.654
28,Estella del Marques,-6.076,36.685
39,La Ina,-6.029,36.636
39,El Torno,-5.969,36.62
79,Cuartillos,-6.02,36.676
94,Torrecera,-5.941,36.609
112,La Barca de la Florida,-5.934,36.647
46,Jose Antonio,-5.905,36.671
24,Junta de los Rios,-5.859,36.697
46,Guadalcacin,-6.086,36.715
39,Torre Melgarejo,-6.031,36.716
134,Nuevajarilla,-6.031,36.759
112,Gibalbin,-5.924,36.828
39,Residencial Cerro Mulera,-5.454,36.659
33,El Lentiscal,-5.763,36.084
230,Facinas,-5.698,36.143
112,El Pelayo,-5.496,36.081
94,Castillo de Castellar,-5.453,36.317
55,Alcornocalejo,-5.803,36.654
33,La Perdiz,-5.707,36.686
79,Algar,-5.655,36.657
66,Las Abiertas,-5.701,36.745
192,Espera,-5.805,36.872
94,Barriada de Fatima,-5.735,36.913
33,Coto de Bornos,-5.692,36.851
94,El Bosque,-5.505,36.758
33,Benamahoma,-5.465,36.764
79,Jedula,-5.93,36.724
192,San Jose del Valle,-5.799,36.605
28,Barriada Meadero de la Reina,-6.137,36.491
39,Puente la Guarena,-5.977,36.668
94,El Palmar,-6.067,36.234
66,Zahara de los Atunes,-5.843,36.135
134,Tahivilla,-5.755,36.184
55,Atlanterra,-5.826,36.113
39,Palmones,-5.434,36.176
55,Base Naval,-6.33,36.637
66,Costa Ballena,-6.414,36.691
55,Los Franceses-La Vega,-6.125,36.452
39,Cortijillos,-5.439,36.19
94,Setenil de las Bodegas,-5.182,36.863
55,Torre Alhaquime,-5.233,36.916
46,Puente Mayorga,-5.384,36.182
112,Castellar de la Frontera,-5.418,36.287
46,Guadiaro,-5.303,36.3
39,San Martin del Tesorillo,-5.32,36.341
55,Benaocaz,-5.421,36.701
33,Villaluenga del Rosario,-5.384,36.697
160,Grazalema,-5.368,36.759
79,La Muela,-5.41,36.928
79,Zahara,-5.391,36.841
94,El Gastor,-5.322,36.855
28,Montenegral,-5.356,36.326
33,Santa Margarita,-5.344,36.213
55,Sotogrande,-5.302,36.282
24,Torreguadiaro,-5.274,36.295
79,San Pablo de Buceite,-5.412,36.467
55,La Hacienda,-5.322,36.239
46,Anina-Polila,-6.212,36.716
39,Cortijo de la Vina del Telegrafo,-6.127,36.727
46,Cortijo de la Zangarriana,-6.064,36.773
55,Las Quinientas,-6.095,36.622
24,La Greduela,-6.052,36.649
28,Cortijo de San Jose,-6.31,36.717
46,Cortijo de Cabeza Alcaide,-6.237,36.798
66,Cortijo Viejo de Monteagudo,-6.22,36.829
112,Cortijo de la Atalaya,-6.313,36.705
46,Rancho de la Doctora,-6.222,36.657
46,Cortijo de la Dehesa de las Yeguas,-6.129,36.551
39,Casas del Berrueco,-6.035,36.452
28,Los Molinos,-5.922,36.451
94,Cortijo de la Huerta Perdida,-5.884,36.37
66,Casas de Libreros,-5.916,36.285
33,El Varelo,-5.887,36.249
39,Patria,-6.019,36.273
79,San Ambrosio,-5.998,36.215
46,La Florida,-6.075,36.311
112,Cortijo del Torero,-6.127,36.321
66,Cortijo Nuevo de la Mesa,-6.06,36.403
39,Cortijo de la Dehesa de las Yeguas,-5.813,36.366
39,Cortijo de la Cantarera,-5.898,36.739
55,Los Majadales,-5.812,36.705
94,Finca de la Merced,-5.732,36.696
24,El Pinar,-5.783,36.746
46,Caserio de las Anderas,-5.716,36.78
28,Casa de las Villalbas,-5.809,36.717
46,Toronjil,-5.77,36.792
66,Casa de la Zarza,-5.512,36.73
66,Santa Lucia,-5.562,36.874
160,La Cartaga,-5.316,36.992
79,El Jautor,-5.634,36.353
66,Cortijo de Sambana,-5.381,36.399
192,Majadillas,-5.529,36.223
39,Cortijo Grande de Guadarranque,-5.443,36.23
33,El Burgo,-5.33,36.2
28,Casa de los Tormos,-5.676,36.158
79,Canada de la Jara,-5.635,36.119
46,Pedro Valiente,-5.624,36.044
39,Casas del Rancho del Helechar,-5.781,36.1
46,Casas de las Palomas,-5.721,36.065
112,Betis,-5.719,36.093
112,La Pena,-5.659,36.057
28,El Bujeo,-5.522,36.069
55,La Seca,-5.434,36.085
28,Cortijo del Canuelo,-5.497,36.934
55,Villanueva del Rosario,-4.366,36.999
55,Alfarnate,-4.259,36.994
39,Llanos de Antequera,-4.578,37.072
94,Cartaojal,-4.512,37.108
39,La Atalaya,-4.453,37.198
112,Cuevas Bajas,-4.486,37.234
79,Estacion de Salinas,-4.3,37.123
46,Villanueva de Tapia,-4.333,37.183
94,Almargen,-5.021,37.003
66,Navahermosa,-4.841,37.156
112,Bobadilla-Estacion,-4.726,37.037
33,Los Carvajales,-4.694,37.174
46,Cuevas de San Marcos,-4.412,37.267
134,Villanueva de Algaidas,-4.449,37.183
192,Villanueva del Trabuco,-4.334,37.027
33,Humilladero,-4.699,37.113
79,Sierra de Yeguas,-4.867,37.125
55,Fuente de Piedra,-4.73,37.135
192,Mollina,-4.657,37.124
55,Cajiz,-4.185,36.759
55,Jimera de Libar,-5.274,36.652
79,Benaojan,-5.248,36.722
33,Montejaque,-5.249,36.736
24,Parauta,-5.128,36.657
46,Los Pinos,-5.117,36.78
28,Olias,-4.319,36.772
46,Totalan,-4.297,36.765
33,Benagalbon,-4.245,36.737
39,Valdes,-4.24,36.759
79,Moclinejo,-4.254,36.771
24,Chilches,-4.223,36.727
24,Benajarafe,-4.197,36.717
46,Los Puertas,-4.181,36.739
33,Benaque,-4.215,36.77
28,Iznate,-4.183,36.776
55,Benamocarra,-4.161,36.791
33,Almayate Bajo,-4.13,36.732
55,Comares,-4.247,36.849
46,Riogordo,-4.291,36.917
33,Alfarnatejo,-4.272,36.979
66,Guaro,-4.835,36.657
230,Yunquera,-4.919,36.734
160,El Burgo,-4.948,36.79
134,Tolox,-4.906,36.686
55,Alozaina,-4.857,36.727
94,Casarabonela,-4.841,36.786
33,Gibralgalia,-4.765,36.75
39,Cerralba,-4.721,36.746
33,Zalea,-4.745,36.767
24,Villafranco del Guadalhorce,-4.698,36.701
94,Montecorto,-5.297,36.815
28,La Cimada,-5.138,36.812
66,Los Prados,-5.134,36.825
55,Cuevas del Becerro,-5.044,36.875
66,Canete la Real,-5.023,36.953
33,Serrato,-4.98,36.886
192,Ardales,-4.845,36.879
79,Carratraca,-4.817,36.852
397,Teba,-4.918,36.983
66,Vega Santa Maria,-4.702,36.794
28,El Puente,-4.695,36.816
28,La Joya,-4.622,36.932
28,Guadalmar-San Julian,-4.46,36.667
24,Sierra Llana I,-4.61,36.721
28,Dona Ana,-4.582,36.715
39,La Castaneta,-4.548,36.71
79,Cortijuelo,-4.495,36.76
28,Los Nunez,-4.517,36.781
66,Casabermeja,-4.427,36.894
134,Villanueva de la Concepcion,-4.53,36.931
24,El Borge,-4.234,36.815
112,Almachar,-4.216,36.808
46,Cutar,-4.227,36.831
55,Benamargosa,-4.192,36.835
46,Triana,-4.164,36.819
39,Mondron,-4.227,36.939
66,Vinuela,-4.143,36.866
28,Trapiche,-4.124,36.809
79,Arenas,-4.043,36.816
24,Rio Bermuza,-4.12,36.872
134,Periana,-4.19,36.929
55,Sayalonga,-4.012,36.798
28,Corumbela,-4.005,36.822
94,Competa,-3.973,36.834
28,Sedella,-4.032,36.862
33,Los Romanes,-4.191,36.867
66,El Puente,-4.145,36.89
66,Rosalejo,-5.164,36.72
112,Bermejo-Caracuel,-4.73,36.878
33,El Rodeo,-4.741,36.672
79,Valle de Abdalajis,-4.681,36.932
39,Los Gamez,-4.437,36.786
55,Penon-Zapata-Molina,-4.533,36.685
24,Santa Rosalia-Maqueda,-4.571,36.73
39,Algarrobo,-4.038,36.774
397,Colmenar,-4.337,36.905
112,Canillas de Aceituno,-4.081,36.873
28,Alcaucin,-4.116,36.903
39,La Alqueria,-4.607,36.668
112,Arriate,-5.138,36.797
192,Almogia,-4.54,36.827
33,Genalguacil,-5.234,36.545
55,Canada del Real Tesoro,-5.33,36.595
79,Gaucin,-5.315,36.518
79,Casares,-5.272,36.444
55,Benarraba,-5.275,36.551
46,Bel Air,-5.044,36.466
134,Algatocin,-5.275,36.573
33,Benalauria,-5.26,36.594
28,Benadalid,-5.268,36.606
46,Jubrique,-5.215,36.565
39,Atajate,-5.245,36.64
55,Alpandeire,-5.201,36.634
46,Farajan,-5.187,36.616
33,Pujerra,-5.149,36.612
39,Cartajima,-5.154,36.646
94,Igualeja,-5.12,36.631
94,El Colmenar,-5.386,36.54
94,Guadalmina,-5,36.469
33,Manilva,-5.251,36.377
192,Istan,-4.948,36.582
112,Ojen,-4.855,36.564
94,Monda,-4.831,36.63
33,Mijas Golf,-4.669,36.552
24,Valtocado,-4.673,36.595
33,Las Terrazas,-4.619,36.603
55,La Perla-Torremuelle,-4.564,36.578
33,Las Delicias,-4.737,36.631
55,Dona Pilar,-4.637,36.574
24,Salto del Agua,-4.993,36.501
24,Carvajal,-4.587,36.574
134,Artola,-4.996,36.51
66,La Chullera,-5.251,36.319
46,Cortijo de Maza-El Olivar,-4.5,36.648
33,Castillo de la Duquesa,-5.232,36.353
55,Benahavis,-5.045,36.525
192,Cortes de la Frontera,-5.34,36.618
28,La Gaspara,-5.184,36.412
39,El Padron,-5.112,36.434
46,Rio Real,-4.84,36.514
66,Elviria,-4.782,36.504
39,Artola,-4.746,36.492
24,Chaparral,-4.666,36.507
33,Casares Costa,-5.212,36.383
39,Macaca,-3.904,36.746
39,Maro,-3.842,36.759
94,Frigiliana,-3.896,36.792
55,La Indiana,-5.197,36.761
134,Las Huertas,-4.786,36.702
55,Los Lagares,-4.654,36.773
33,Casablanquilla,-4.678,36.843
24,Martina,-4.809,36.793
39,Cortijo de la Linera,-4.948,37.037
55,Cortijo de Arquillos,-4.849,37.015
24,Cortijo de Fuencaliente,-5.026,36.942
66,Majada de Madrid,-5.26,36.485
66,Entrerrios,-4.716,36.558
112,Verdiales,-4.484,36.792
33,Cortijo de Benitez,-4.589,36.884
66,Cortijo Pacheco,-4.533,36.879
55,Arroyo Ancon,-4.622,36.835
28,Casa de Arias,-4.451,36.901
55,Lagar Portales de Arriba,-4.391,36.872
28,Arroyo Cauche,-4.47,36.885
39,Cortijo el Fundio,-4.442,37.001
46,Cortijo de las Animas,-4.569,37
39,Cortijo del Canal,-4.653,37.055
39,Casa del Conde,-4.497,37.206
66,Zarzo,-4.313,36.74
39,Cabrillas,-4.15,36.777
24,Masmullar,-4.273,36.84
46,Rio,-4.261,36.875
55,Las Rozas,-4.221,36.876
24,Casas de la Loma de los Tres Cortijos,-4.218,36.901
28,Marchamona,-4.176,36.959
39,Casas de Collado,-4.092,36.823
66,Pasada de Granadillo,-4.091,36.845
55,Huit,-3.997,36.748
55,Venta del Jaro,-3.916,36.83
55,Camorra,-4.641,37.171
28,Cortijo Casa Nueva,-4.592,36.93
66,Cortijo de Gonzalo,-4.342,36.93
28,Solano,-4.317,36.872
24,Caravaca,-4.345,36.89
24,Cortijo de Manuel Ruiz,-4.39,37.023
79,Cortijos de Perenne,-4.292,37.077
112,Castell de Ferro,-3.359,36.722
66,Gualchos,-3.389,36.744
79,Rubite,-3.347,36.809
33,Bubion,-3.354,36.948
79,Capileira,-3.358,36.961
66,Portugos,-3.31,36.942
24,La Guapa,-3.303,36.745
39,Melicena,-3.236,36.752
55,Diezma,-3.332,37.32
55,Los Castillas,-3.184,36.773
33,Polopos,-3.297,36.795
55,Sorvilan,-3.266,36.795
192,Albunol,-3.202,36.792
94,Albondon,-3.211,36.827
112,La Rabita,-3.173,36.75
134,Torvizcon,-3.298,36.879
55,Almegijar,-3.299,36.902
33,Castaras,-3.253,36.931
39,Lobras,-3.212,36.929
192,Trevelez,-3.265,37.001
46,Juviles,-3.224,36.949
94,Berchules,-3.19,36.974
160,Murtas,-3.108,36.887
79,Jorairatar,-3.107,36.926
94,Valor,-3.081,36.997
79,Cadiar,-3.178,36.94
55,Yator,-3.135,36.957
33,Mecina-Bombaron,-3.155,36.982
66,Turon,-3.056,36.864
192,Ugijar,-3.052,36.964
46,Cherin,-3.012,36.967
33,Mairena,-3.043,37.004
24,Picena,-3.005,37
94,Laroles,-3.012,37.009
39,Lanteira,-3.137,37.169
94,Aldeire,-3.071,37.16
66,Lugros,-3.24,37.23
66,Policar,-3.234,37.258
160,La Peza,-3.284,37.277
39,Beas de Guadix,-3.205,37.28
46,Marchal,-3.202,37.297
24,Graena,-3.22,37.303
94,Lopera,-3.242,37.321
66,Purullena,-3.187,37.317
134,Jerez del Marquesado,-3.159,37.184
66,Cogollos de Guadix,-3.159,37.225
24,Alquife,-3.114,37.18
24,Paulenca,-3.169,37.295
39,Estacion de Guadix,-3.125,37.316
112,Alcudia de Guadix,-3.097,37.258
24,Esfiliana,-3.101,37.267
28,Ferreira,-3.034,37.173
94,Hueneja,-2.949,37.176
39,La Calahorra,-3.062,37.181
55,Dolar,-2.99,37.179
79,Charches,-2.956,37.295
55,Las Cuevas,-2.894,37.186
66,Belerda,-3.215,37.371
66,Huelago,-3.262,37.42
24,El Bejarin,-3.179,37.339
134,Benalua,-3.163,37.351
160,Fonelas,-3.175,37.413
192,Pedro Martinez,-3.229,37.502
192,Alamedilla,-3.243,37.581
66,Villanueva de las Torres,-3.089,37.557
55,Dehesas de Guadix,-3.103,37.589
66,Hernan-Valle,-3.063,37.372
192,Gor,-2.969,37.37
112,Gorafe,-3.041,37.479
134,Baul,-2.928,37.428
28,Bacor-Olivar,-2.951,37.529
79,Freila,-2.907,37.528
160,Zujar,-2.841,37.541
46,La Mamola,-3.279,36.746
39,Fuente Camacho,-4.256,37.099
24,La Palma,-4.277,37.137
39,Venta del Rayo,-4.212,37.135
46,Riofrio,-4.206,37.154
112,Salar,-4.065,37.149
79,Ventorros de la Laguna,-4.227,37.203
39,Ventorros de Balerma,-4.254,37.231
112,Zagra,-4.169,37.256
66,Fuentes de Cesna,-4.228,37.271
28,Ventorros de San Jose,-4.15,37.247
55,La Fabrica,-4.069,37.216
46,La Carrera de la Vina,-4.148,37.285
79,Santa Cruz del Comercio,-3.975,37.062
33,Venta Nueva,-4.037,37.185
28,Villanueva Mesia,-4.012,37.215
39,Loreto,-3.956,37.186
66,Tocon,-3.965,37.238
112,Algarinejo,-4.157,37.325
276,Montefrio,-4.006,37.322
94,Moraleda de Zafayona,-3.964,37.168
24,El Frontil,-4.132,37.178
28,Venta Santa Barbara,-4.196,37.174
94,Alicun de Ortega,-3.137,37.609
66,Campo Camara,-2.859,37.737
112,Los Laneros,-2.796,37.704
46,Fuente Vera,-2.784,37.735
192,Castril,-2.78,37.797
79,Almontaras,-2.757,37.767
55,Fatima,-2.731,37.819
192,Cuevas del Campo,-2.929,37.607
94,Zafarraya,-4.144,36.975
55,Ventas de Zafarraya,-4.119,36.957
39,Almaciles,-2.336,37.98
230,Puebla de Don Fadrique,-2.435,37.956
134,Caniles,-2.723,37.436
39,Los Gallardos,-2.683,37.442
55,Las Cucharetas,-2.783,37.628
94,Cortes de Baza,-2.769,37.654
94,Benamaurel,-2.7,37.608
331,Cullar,-2.572,37.584
134,El Margen,-2.565,37.643
24,Las Vertientes,-2.398,37.595
66,Los Carriones,-2.666,37.687
33,El Olivar,-2.656,37.703
112,Castillejar,-2.641,37.718
66,Galera,-2.55,37.742
230,Orce,-2.477,37.721
28,Puente Arriba,-2.743,37.609
94,Jatar,-3.91,36.935
24,Arenas del Rey,-3.893,36.958
33,Fornes,-3.855,36.954
276,Jayena,-3.823,36.949
28,Fuensanta,-3.902,37.18
112,El Turro,-3.941,37.134
28,Cacin,-3.915,37.059
79,Agron,-3.829,37.03
39,Ventas de Huelma,-3.821,37.069
46,Trasmulas,-3.871,37.198
33,Acula,-3.807,37.084
28,Castillo de Tajarja,-3.877,37.117
192,Chimeneas,-3.821,37.131
46,Penuelas,-3.856,37.174
33,Bracana,-3.944,37.227
94,Obeilar,-3.857,37.25
24,Lachar,-3.828,37.195
33,Cijuela,-3.808,37.198
24,Escoznar,-3.845,37.238
55,Valderrubio,-3.819,37.235
46,Alomartes,-3.912,37.264
94,Puerto Lope,-3.831,37.336
33,La Herradura,-3.739,36.735
66,Lecrin,-3.55,36.948
94,Otivar,-3.681,36.816
46,Lentegi,-3.672,36.836
28,Playa,-3.584,36.732
46,Lobres,-3.564,36.772
46,Jete,-3.667,36.796
46,Itrabo,-3.637,36.799
46,Guajar Alto,-3.624,36.854
94,Molvizar,-3.606,36.786
46,Guajar-Faraguit,-3.584,36.841
112,Albunuelas,-3.626,36.929
39,Pinos del Valle,-3.553,36.911
33,Restabal,-3.581,36.929
46,Conchar,-3.588,36.966
46,Marchena,-3.582,37.005
55,El Varadero,-3.532,36.725
66,Torrenueva Costa,-3.488,36.704
39,Puntalon,-3.479,36.729
24,Carchuna,-3.441,36.702
94,Velez de Benaudalla,-3.514,36.833
39,Calahonda,-3.416,36.7
134,Lujar,-3.403,36.787
66,Izbor,-3.525,36.895
33,Beznar,-3.54,36.927
66,Lanjaron,-3.481,36.918
33,Niguelas,-3.538,36.979
46,Los Tablones,-3.398,36.885
276,Orgiva,-3.422,36.901
28,Canar,-3.427,36.926
66,Soportujar,-3.405,36.928
79,Escuzar,-3.761,37.062
112,La Malaha,-3.721,37.099
24,Los Llanos,-3.682,37.145
33,Casanueva,-3.788,37.256
46,Belicena,-3.689,37.174
39,Urbanizacion Valle del Puntal,-3.635,37.038
94,Dilar,-3.6,37.074
33,Gabia Chica,-3.654,37.125
33,Bobadilla,-3.64,37.191
24,El Jau,-3.74,37.196
33,Sierra Elvira,-3.723,37.231
33,Tiena,-3.787,37.321
46,Olivares,-3.764,37.332
46,Cortijo del Aire,-3.649,37.252
39,Alfacar,-3.566,37.237
66,Parque del Cubillas,-3.667,37.285
39,Calicasas,-3.621,37.273
24,Alqueria del Fargue,-3.562,37.207
39,Jun,-3.593,37.22
24,Guevejar,-3.596,37.257
46,Cogollos de la Vega,-3.571,37.276
134,Deifontes,-3.593,37.326
46,Cumbres Verdes,-3.546,37.097
112,Huetor de Santillan,-3.514,37.222
160,Guejar Sierra,-3.439,37.16
160,Sierra Nevada,-3.396,37.096
24,Dudar,-3.483,37.186
94,Quentar,-3.465,37.192
28,Moclin,-3.785,37.34
66,Tozar,-3.776,37.369
192,Colomera,-3.712,37.371
66,Cauro,-3.734,37.408
134,Campotejar,-3.616,37.483
55,Montillana,-3.672,37.502
39,Dehesas Viejas,-3.55,37.474
79,Domingo Perez de Granada,-3.508,37.497
55,Torre-Cardela,-3.356,37.505
94,Pinar,-3.438,37.443
55,Bogarre,-3.373,37.41
134,Moreda,-3.329,37.44
79,Gobernador,-3.32,37.477
160,Montejicar,-3.502,37.573
79,Guadahortuna,-3.398,37.557
46,Laborcillas,-3.29,37.453
192,Darro,-3.292,37.349
112,Benalua de las Villas,-3.682,37.428
24,Monte Almendros,-3.61,36.749
66,Cueva del Agua,-3.512,37.333
55,Cortijo de la Venta Dona,-4.06,37.015
24,Cortijo de la Rosa,-3.882,37.324
33,Cortijo del Chopo,-4.22,37.304
66,Milanos,-4.074,37.239
79,La Vinuela,-4.026,37.35
24,Cortijo Huerta Milanos,-4.061,37.316
55,Los Molinos,-3.942,37.332
55,Rio Seco,-3.736,36.802
46,Cortijo de Correa,-3.558,36.795
33,Cortijo de los Coscurros,-3.471,36.745
28,Cortijo de Garcia,-3.367,36.759
66,Cortijo el Sillero,-3.353,36.845
55,Cortijo Pilones,-3.454,36.97
94,Cortijo de la Magara,-3.512,37.035
33,Aguadero,-3.595,37.017
39,Cortijo de Frontolin,-3.719,37.067
79,Cortijo de los Mimbres,-3.468,37.124
79,Cortijada Padules,-3.366,37.204
112,Cortijo de Cortezuo,-2.791,37.38
55,Cortijo los Blancos,-3.216,36.877
33,Los Domingos,-3.17,36.869
28,La Haza Mora,-3.179,36.763
24,Montizon,-3.102,38.342
24,Navas de Tolosa,-3.586,38.285
94,El Porrosillo,-3.415,38.223
230,Aldeaquemada,-3.371,38.411
134,Santisteban del Puerto,-3.203,38.252
28,Castellar,-3.13,38.253
331,Aldeahermosa,-3.126,38.329
66,Sorihuela del Guadalimar,-3.053,38.242
66,Chiclana de Segura,-3.041,38.312
66,Venta de los Santos,-3.072,38.362
46,Penolite,-2.797,38.324
79,Hornos,-2.717,38.216
94,Cortijos Nuevos,-2.724,38.247
33,Puente de Genave,-2.802,38.355
55,Segura de la Sierra,-2.651,38.298
39,Benatae,-2.65,38.353
134,Torres de Albanchez,-2.677,38.415
66,Villarrodrigo,-2.636,38.488
134,Santa Elena,-3.538,38.341
94,Carboneros,-3.63,38.23
79,La Puerta de Segura,-2.737,38.351
192,Vilches,-3.513,38.209
79,Siles,-2.58,38.389
55,Genave,-2.732,38.43
134,Arroyo del Ojanco,-2.895,38.321
112,Orcera,-2.661,38.318
66,La Matea,-2.588,38.082
33,Fuente Alamo,-4.033,37.477
46,La Rabita,-4.056,37.505
46,Sabariego,-4.043,37.525
94,Las Casillas,-4.001,37.64
112,La Pedriza,-3.954,37.412
46,Ventas del Carrizal,-3.994,37.54
24,La Ropera,-4.102,38.054
66,Noguerones,-4.16,37.653
46,Bobadilla,-4.105,37.66
192,Donadio,-3.364,37.928
94,Solera,-3.369,37.684
66,Monte Lope-Alvarez,-4.113,37.703
55,Higuera de Calatrava,-4.157,37.799
39,Las Infantas,-3.784,37.914
39,Carchel,-3.636,37.653
24,La Guardia de Jaen,-3.692,37.742
112,Cambil,-3.564,37.678
94,Pegalajar,-3.645,37.741
79,Puente Tablas,-3.744,37.803
134,Torrequebradilla,-3.66,37.91
79,Torres,-3.508,37.785
46,Albanchez de Magina,-3.466,37.792
39,Las Escuelas,-3.512,37.871
66,Bedmar,-3.411,37.822
134,Villanueva de la Reina,-3.913,38.005
33,Los Villares,-3.984,38.026
39,La Quinteria,-3.951,38.016
66,Cazalilla,-3.881,37.984
46,Espeluy,-3.861,38.032
79,Jabalquinto,-3.73,38.02
46,Campillo del Rio,-3.666,37.959
46,Vados de Torralba,-3.639,37.943
66,Puente del Obispo,-3.54,37.952
39,Lupion,-3.545,37.997
66,Begijar,-3.53,37.984
66,Solana de Torralba,-3.171,37.989
55,La Yedra,-3.442,38.03
46,Santa Eulalia,-3.383,38.066
94,Cabra del Santo Cristo,-3.286,37.704
160,Larva,-3.201,37.76
79,Collejares,-3.139,37.792
192,Huesa,-3.077,37.765
55,Belerda,-3.032,37.76
66,Fontanar,-2.971,37.672
55,Hinojares,-2.998,37.716
331,Pozo Alcon,-2.934,37.703
94,Sabiote,-3.31,38.068
28,El Molar,-3.147,37.98
66,Chilluevar,-3.031,38
230,Santo Tome,-3.1,38.027
33,La Caleruela,-3.094,38.043
66,Burunchel,-2.953,37.946
192,Coto-Rios,-2.848,38.047
55,Vegas de Triana,-4.055,38.018
112,Lopera,-4.213,37.946
112,Arjonilla,-4.104,37.973
134,Escanuela,-4.033,37.879
79,Villardompardo,-4.001,37.839
66,Santiago de Calatrava,-4.169,37.754
94,Villargordo,-3.729,37.94
55,Jamilena,-3.912,37.747
192,Fuerte del Rey,-3.882,37.874
66,Garciez,-3.456,37.874
94,Torreblascopedro,-3.636,37.998
46,Guadalimar,-3.612,38.021
55,Ibros,-3.501,38.021
39,El Marmol,-3.432,38.059
79,Estacion Linares-Baeza,-3.589,38.071
94,Jimena,-3.479,37.842
79,Belmez de la Moraleda,-3.381,37.724
94,Mogon,-3.034,38.074
28,Arroyo Frio,-2.92,37.947
33,Estacion de Espeluy,-3.831,38.011
66,Lahiguera,-3.99,37.971
94,Arquillos,-3.426,38.181
134,Navas de San Juan,-3.314,38.184
24,Iznatoraf,-3.032,38.156
112,Pontones,-2.669,38.117
331,Santiago de la Espada,-2.551,38.111
46,Banos de la Encina,-3.773,38.174
94,Guarroman,-3.686,38.183
46,Guadalen,-3.506,38.142
39,Miraelrio,-3.528,38.096
79,Charilla,-3.907,37.495
24,Santa Ana,-3.884,37.462
55,Ribera Alta,-3.837,37.465
55,Frailes,-3.837,37.487
66,Fuensanta de Martos,-3.908,37.647
160,Valdepenas de Jaen,-3.817,37.59
160,Noalejo,-3.652,37.529
55,Campillo de Arenas,-3.635,37.554
79,Carchelejo,-3.64,37.636
79,Arbuniel,-3.537,37.628
112,Mures,-3.821,37.422
112,Castillo de Locubin,-3.941,37.528
46,Hoya del Salobral,-3.768,37.494
33,Ermita Nueva,-3.869,37.406
28,Huertas y Extramuros,-4.074,38.056
24,La Yedra,-3.852,37.652
39,Atalayuela,-2.951,37.721
66,San Martin,-2.991,37.968
94,Casa de Peton,-2.937,38.14
55,Venta Cabrera,-2.93,38.295
79,Fresnedilla,-2.576,38.347
112,Galapagar,-3.692,37.853
46,La Puebla de Mula,-1.445,38.036
33,El Nino,-1.526,38.047
79,Campos del Rio,-1.351,38.04
28,Albudeite,-1.385,38.027
134,Archivel,-2.005,38.072
134,Canada de la Cruz,-2.278,38.031
33,Navares,-1.932,38.035
79,Barranda,-1.964,38.047
55,La Encarnacion,-1.896,38.022
79,La Copa,-1.664,38.08
66,Singla,-1.943,38.021
79,Yechar,-1.44,38.072
24,El Llano,-1.239,38.076
33,El Coto,-1.246,38.011
24,Ribera de Abajo,-1.209,38.019
28,Laderas del Campillo,-1.084,38.046
24,Cobatillas,-1.077,38.056
28,Los Vientos,-1.195,38.043
24,Esparragal,-1.076,38.036
112,Alquerias,-1.034,38.014
28,Zeneta,-1,38.008
28,Huerta de Arriba,-1.242,38.064
24,San Jose Obrero,-1.043,38.032
33,La Almudema,-1.923,38.004
55,Toscas-Chorrico,-1.218,38.147
28,Fenazar,-1.204,38.161
66,Los Valientes,-1.157,38.13
46,Los Torraos,-1.279,38.099
112,Los Conejos,-1.181,38.102
46,La Gineta,-1.05,38.126
28,La Almazara,-1.055,38.112
46,El Reloj,-1.064,38.144
112,Valentin,-1.72,38.184
28,Canara,-1.768,38.14
66,Ricote,-1.365,38.154
24,Ojos,-1.341,38.148
66,Calar de la Santa,-2.169,38.179
39,Chaparral,-1.694,38.094
46,Ulea,-1.33,38.138
66,Blanca,-1.374,38.179
24,Los Dolores,-1.103,37.977
39,Fuente Librilla,-1.411,37.92
112,Pliego,-1.505,37.989
66,Librilla,-1.353,37.887
55,El Mirador,-0.852,37.843
94,Aledo,-1.572,37.794
276,Zarcilla de Ramos,-1.874,37.844
55,La Paca,-1.835,37.872
46,Dona Ines,-1.838,37.926
46,Las Terreras,-1.781,37.845
112,Aviles,-1.797,37.906
94,Zarzadilla de Totana,-1.706,37.878
230,Coy,-1.811,37.948
24,La Charca,-1.524,37.794
79,Casas Nuevas,-1.597,37.924
112,El Berro,-1.489,37.89
192,Barqueros,-1.37,37.94
66,Avileses,-0.942,37.849
55,La Tercia,-1.007,37.882
134,Corvera,-1.156,37.831
66,Pueblo Nuevo,-1.287,37.891
79,Banos y Mendigo,-1.128,37.87
46,San Jose de la Montana,-1.176,37.918
24,Era Alta,-1.167,37.966
46,Los Martinez del Puerto,-1.078,37.818
66,Balsicas,-0.956,37.819
94,San Bartolome,-1.195,37.894
46,Los Ramos,-1.032,37.994
33,Cabezo de la Plata,-0.991,37.98
39,Loma de Abajo,-0.798,37.847
112,Sucina,-0.94,37.891
28,Barrio del Progreso,-1.127,37.964
55,San Cayetano,-0.895,37.815
24,Colonia San Francisco,-0.93,37.736
39,Las Lomas del Rame,-0.877,37.726
55,Dolores,-0.869,37.777
28,Los Narejos,-0.84,37.763
79,Portman,-0.852,37.591
33,Mar de Cristal,-0.761,37.639
24,La Chapineta,-1.168,37.56
46,Urbanizacion San Gines,-1.179,37.568
46,La Pinilla,-1.279,37.685
160,Urbanizacion Castillitos,-1.115,37.539
24,Cuesta Blanca de Arriba,-1.103,37.645
46,Canteras,-1.043,37.613
46,Albujon,-1.047,37.718
33,El Alamillo,-1.247,37.579
33,Santa Ana,-1.006,37.666
33,Las Lomas,-1.049,37.705
66,Pozo Estrecho,-0.992,37.71
24,La Aparecida,-0.953,37.668
79,La Palma,-0.955,37.688
28,Alumbres,-0.914,37.606
33,Los Camachos,-0.918,37.646
24,Playa Honda,-0.743,37.629
46,La Puebla,-0.919,37.718
33,Llano del Beal,-0.835,37.625
33,Beal,-0.84,37.637
24,Urbanizacion Campo de Golf,-0.8,37.597
24,Las Lomas,-0.804,37.615
24,Los Mateos,-0.775,37.61
94,Los Belones,-0.777,37.624
79,Barriada Virgen de la Caridad,-0.831,37.679
39,El Carmoli,-0.845,37.692
33,Cabo de Palos,-0.703,37.632
33,La Manga del Mar Menor,-0.735,37.687
39,Canovas,-1.278,37.736
46,Cuevas de Reyllo,-1.242,37.735
79,Valladolises,-1.123,37.777
24,El Estrecho,-1.114,37.733
55,Balsapintada,-1.104,37.755
39,Lobosillo,-1.082,37.729
46,Jimenado,-1.036,37.761
28,Los Rocas del Jimenado,-1.043,37.774
28,Roche Bajo,-0.923,37.627
66,La Manga del Mar Menor,-0.728,37.665
24,Urbanizacion Bahia Bella,-0.864,37.718
33,Barriada Santiago,-1.021,37.677
33,Los Nietos,-0.786,37.65
94,Las Palas,-1.188,37.662
66,El Garrobo,-1.313,37.638
39,Bolnuevo,-1.306,37.563
79,La Majada,-1.413,37.63
46,Canada de Gallego,-1.379,37.555
24,Collados Zieschang,-1.545,37.426
94,Calabardina,-1.499,37.432
55,Iglesia de Morata,-1.488,37.589
134,La Hoya,-1.596,37.708
55,Los Curas,-1.401,37.511
134,Parroquia de la Fuensanta,-1.894,37.728
160,Las Lomas,-1.412,37.716
134,Almendricos,-1.776,37.473
24,Ermita,-1.752,37.572
28,Estacion,-1.732,37.579
33,La Campana,-1.732,37.466
28,Las Kalendas,-1.126,38.205
46,Canada Manrique,-1.72,38.246
94,Abanilla,-1.04,38.206
55,Otos,-2.022,38.274
134,El Sabinar,-2.154,38.207
39,Carretera Estacion,-1.341,38.186
79,Estacion Ferrea,-1.324,38.225
94,Fuente Ascoy,-1.422,38.275
28,La Estacada,-1.335,38.463
33,Hoya del Campo,-1.335,38.237
33,Mahoya,-1.056,38.218
192,Barinas,-1.057,38.272
39,Macisvenda,-1.016,38.262
79,Las Casicas,-1.142,38.296
66,Casa Calero,-1.158,38.634
79,Venta las Quebradas,-1.07,38.468
39,Casa de Tudela,-1.817,38.128
39,Campillo y Suertes,-1.795,38.076
94,Venta del Cruce,-1.572,38.065
79,La Esperanza,-1.488,37.959
24,Casa del Saltador,-1.625,37.72
28,Baldazos,-1.622,37.686
28,Olmillos,-1.669,37.682
33,El Molinillo,-1.663,37.66
28,Casa El Avi,-1.661,37.672
46,Campillo,-1.697,37.657
28,Casa Palacio,-1.667,37.645
33,Casa de Paratejas,-1.639,37.614
112,Canarejo,-1.664,37.633
24,El Vainazo,-1.71,37.616
46,Ermita Nueva,-1.68,37.577
24,Los Salobrales,-1.687,37.591
24,Casa Castillo y El Vado,-1.678,37.62
94,Los Conventos,-1.579,37.608
39,La Galera y los Jopos,-1.68,37.544
66,La Alcanara y los Butanos,-1.682,37.558
39,El Parador,-1.772,37.489
112,Redon,-1.726,37.529
39,Casas del Tio Domingo,-1.745,37.589
79,La Colonia,-1.768,37.607
28,Venta del Coronel,-1.747,37.621
46,Casa de las Ruzafas,-1.773,37.728
39,Rincon y Las Ramblicas,-1.82,37.451
39,Alporchones,-1.582,37.652
66,La Condomina,-1.606,37.665
33,Orilla y Pinero,-1.586,37.568
28,El Rincon,-1.576,37.726
55,Leiva,-1.385,37.603
79,Las Covaticas,-1.377,37.538
79,Ifre-Pastrana,-1.442,37.574
55,Los Jaboneros,-1.528,37.805
66,La norica,-1.464,37.746
28,Venta de la Roja,-1.495,37.701
39,Los Porches,-1.512,37.722
39,Raiguero Bajo,-1.447,37.696
24,Casa de la Fuente de las Zorras,-1.504,37.842
66,Ganuelas,-1.351,37.819
79,La Carrasca,-1.235,37.761
24,Los Sanchez,-1.256,37.744
112,Los Chales,-1.285,37.799
33,Los Veras,-1.19,37.707
55,Torre del Angel,-1.164,37.687
33,Los Ruices,-1.081,37.801
39,Casa de la Torrica,-1.15,37.801
79,El Puntarron,-1.263,37.929
24,Belchi,-1.143,37.983
24,Huerta de Monteagudo,-1.091,38.018
39,El Salar,-1.073,37.997
39,Tabala,-0.986,37.996
24,La Huerta,-1.006,38.024
39,Casa de Plaza,-1.046,38.101
24,Casa de Cabezo Pernard,-1.085,38.131
66,Las Penas,-1.159,38.205
46,Capres de Arriba,-1.142,38.225
79,Salado,-1.059,38.235
46,Alborda,-1.207,38.13
24,Comala,-1.224,38.16
46,Barrio de los Picolas,-1.059,38.083
192,Venta del Olivo,-1.48,38.318
79,Fuensantilla,-1.359,38.253
33,El Mirador,-0.854,37.856
33,La Grajuela,-0.83,37.824
66,Hortichuela,-0.972,37.773
24,Lo Tenaz,-0.979,37.739
28,Los Meronos,-0.917,37.759
39,Los Camachos,-0.917,37.787
28,Casa la Hoya,-0.91,37.773
39,Los Infiernos,-0.913,37.831
46,La Corona,-1.098,37.624
39,Las Casicas,-1.023,37.691
24,Los Roses,-1.022,37.71
28,Los Sanchez,-1.047,37.634
24,Los Santos,-1.271,37.676
94,Robledo,-2.449,38.758
134,Viveros,-2.574,38.773
33,Povedilla,-2.601,38.699
160,Villapalacios,-2.632,38.576
134,Bienservida,-2.611,38.517
79,Vianos,-2.5,38.633
66,Villaverde de Guadalimar,-2.517,38.456
55,Salobre,-2.549,38.593
331,Riopar,-2.417,38.498
79,Penascosa,-2.41,38.673
66,Cotillas,-2.504,38.431
134,Alcaraz,-2.489,38.667
476,Yeste,-2.319,38.367
79,Paterna del Madera,-2.341,38.599
79,Masegoso,-2.315,38.718
94,Vegallera,-2.324,38.546
79,Reolid,-2.568,38.622
46,Los Chospes,-2.384,38.785
55,Pedro Andres,-2.384,38.138
112,Nerpio,-2.302,38.147
112,Casas de Lazaro,-2.24,38.772
192,Molinicos,-2.237,38.468
160,Elche de la Sierra,-2.046,38.45
134,Ayna,-2.069,38.552
134,Letur,-2.101,38.365
230,Bogarra,-2.211,38.582
94,Albatana,-1.519,38.572
331,Socovos,-1.985,38.333
39,Pozohondo,-1.91,38.72
134,Penas de San Pedro,-1.999,38.725
276,Lietor,-1.953,38.542
66,Ferez,-2.009,38.355
331,Alcadozo,-1.979,38.649
160,Ontur,-1.497,38.615
276,Fuente-Alamo,-1.431,38.692
66,Vicorto,-2.015,38.427
94,La Solana,-2.028,38.757
79,Tazona,-1.908,38.305
39,Mingogil,-1.741,38.461
39,Canada de Agra,-1.697,38.468
28,Nava de Arriba,-1.917,38.674
94,Nava de Abajo,-1.871,38.668
66,Isso,-1.743,38.49
66,Nava Campana,-1.649,38.49
28,Sierra,-1.658,38.561
230,Agramon,-1.637,38.421
79,Cordovilla,-1.632,38.564
28,Santiago de Mora,-1.597,38.57
55,Aljube,-1.638,38.607
160,Las Anorias,-1.539,38.755
476,Munera,-2.479,39.041
192,El Bonillo,-2.539,38.95
192,El Ballestero,-2.454,38.842
112,Ossa de Montiel,-2.745,38.964
276,La Gineta,-1.996,39.114
160,Minaya,-2.32,39.27
134,Lezuza,-2.354,38.949
79,Villalgordo del Jucar,-2.062,39.297
134,Montalvos,-2.026,39.167
94,Fuensanta,-2.069,39.244
192,La Herrera,-2.125,38.962
192,Balazote,-2.152,38.886
66,Pozuelo,-2.1,38.81
134,San Pedro,-2.186,38.826
230,Barrax,-2.2,39.045
94,Argamason,-2.026,38.852
112,El Jardin,-2.322,38.813
112,Tiriez,-2.264,38.896
66,Santa Ana,-1.99,38.902
134,Aguas Nuevas,-1.919,38.918
79,Los Olivos,-1.966,39.086
134,El Salobral,-1.922,38.867
134,Petrola,-1.555,38.827
112,Madrigueras,-1.8,39.236
66,Hoya-Gonzalo,-1.555,38.958
112,Cenizate,-1.66,39.303
112,Casas de Juan Nunez,-1.557,39.101
134,Villamalea,-1.597,39.362
94,Golosalvo,-1.635,39.239
66,Motilleja,-1.79,39.179
79,Jorquera,-1.52,39.175
55,Fuentealbilla,-1.55,39.267
134,Abengibre,-1.54,39.21
476,Pozo Canada,-1.733,38.802
276,Valdeganga,-1.676,39.134
39,Navas de Jorquera,-1.717,39.279
79,Mahora,-1.724,39.212
230,Chinchilla de Monte-Aragon,-1.724,38.92
46,Villavaliente,-1.457,39.126
28,La Recueja,-1.49,39.176
79,Pozo-Lorente,-1.506,39.076
94,Higueruela,-1.442,38.963
94,Villatoya,-1.339,39.333
397,Casas-Ibanez,-1.471,39.287
112,Casas de Ves,-1.332,39.259
46,Alborea,-1.396,39.28
79,Villa de Ves,-1.259,39.223
55,Carcelen,-1.308,39.102
134,Montealegre del Castillo,-1.326,38.788
79,Corral-Rubio,-1.46,38.835
276,Bonete,-1.348,38.871
94,Alatoz,-1.361,39.097
94,Balsa de Ves,-1.193,39.265
160,Alpera,-1.23,38.958
66,Tinajeros,-1.742,39.068
160,La Felipa,-1.7,39.04
112,Villar de Chinchilla,-1.528,38.9
55,Bormate,-1.595,39.19
94,Alcala del Jucar,-1.428,39.193
112,Casa de las Beatas,-2.507,39.199
79,Melegriz,-1.904,38.953
79,Malpelo,-1.793,39.033
79,Molino del Tejar,-1.086,38.839
94,Torre de Juan Abad,-3.06,38.584
160,Castellar de Santiago,-3.276,38.539
79,Villarta de San Juan,-3.421,39.237
112,Las Labores,-3.518,39.275
39,Arenas de San Juan,-3.5,39.219
160,Llanos del Caudillo,-3.351,39.118
46,Almuradiel,-3.496,38.512
55,Villahermosa,-2.871,38.75
24,Fuenllana,-2.957,38.756
160,Albaladejo,-2.809,38.618
24,Terrinches,-2.84,38.61
66,Santa Cruz de los Canamos,-2.864,38.637
46,Puebla del Principe,-2.925,38.567
66,Almedina,-2.953,38.625
94,Pozo de la Serna,-3.232,38.776
79,Alameda de Cervera,-3.126,39.265
79,Alhambra,-3.052,38.899
94,Consolacion,-3.389,38.895
112,San Carlos del Valle,-3.24,38.844
94,Alcubillas,-3.132,38.753
160,Cozar,-3.071,38.66
79,Puerto Lapice,-3.48,39.324
134,Arenales de San Gregorio,-3.026,39.31
94,Cinco Casas,-3.238,39.175
160,Montiel,-2.865,38.697
160,Villanueva de la Fuente,-2.693,38.694
112,Villamanrique,-2.996,38.546
46,Torrenueva,-3.363,38.641
160,Santa Cruz de Mudela,-3.463,38.642
571,Viso del Marques,-3.562,38.522
112,Navas de Estena,-4.519,39.495
112,Arroba de los Montes,-4.541,39.154
55,Navalpino,-4.59,39.225
397,Anchuras,-4.836,39.48
134,Alcoba,-4.477,39.26
112,Retuerta del Bullaque,-4.41,39.462
192,El Robledo,-4.28,39.219
571,Horcajo de los Montes,-4.649,39.328
79,El Torno,-4.256,39.256
112,Mestanza,-4.069,38.576
134,Brazatortas,-4.293,38.659
230,Alamillo,-4.789,38.679
112,Guadalmez,-4.968,38.726
112,Almadenejos,-4.711,38.738
230,Solana del Pino,-4.072,38.466
94,Villanueva de San Carlos,-3.908,38.622
94,San Lorenzo de Calatrava,-3.824,38.476
230,San Benito,-4.675,38.565
28,La Estacion,-4.314,38.667
39,Urbanizacion Ciudad Jardin,-4.125,38.702
192,El Hoyo,-3.92,38.41
55,El Villar,-4.013,38.642
160,Hinojosas de Calatrava,-4.139,38.614
134,Fuencaliente,-4.304,38.406
112,Aldea del Rey,-3.839,38.738
160,Calzada de Calatrava,-3.774,38.702
79,Picon,-4.059,39.051
66,Chillon,-4.864,38.797
66,Ballesteros de Calatrava,-3.944,38.835
94,Valdemanco del Esteras,-4.828,38.939
55,Los Pozuelos de Calatrava,-4.169,38.901
112,Cabezarados,-4.297,38.844
134,Luciana,-4.292,38.985
192,Puebla de Don Rodrigo,-4.615,39.083
476,Porzuna,-4.152,39.148
79,Fontanarejo,-4.516,39.219
39,Villar del Pozo,-3.962,38.85
94,Poblete,-3.981,38.936
39,Caracuel de Calatrava,-4.063,38.845
94,Valenzuela de Calatrava,-3.772,38.852
28,Torralba de Calatrava,-3.747,39.017
66,Granatula de Calatrava,-3.743,38.797
79,El Trincheto,-4.171,39.216
66,Pueblonuevo del Bullaque,-4.258,39.304
112,Valverde,-4.039,38.964
134,Cristo del Espiritu Santo,-4.032,39.195
160,Cortijos de Arriba,-4.064,39.317
276,Saceruela,-4.607,38.944
230,Corral de Calatrava,-4.08,38.857
571,Agudo,-4.869,38.982
160,Villamayor de Calatrava,-4.137,38.788
397,Abenojar,-4.354,38.879
230,Piedrabuena,-4.175,39.034
79,Alcolea de Calatrava,-4.114,38.987
94,Fernan Caballero,-3.897,39.119
66,Las Casas,-3.986,39.033
79,Fuente el Fresno,-3.774,39.229
79,Carrion de Calatrava,-3.815,39.017
79,Pozuelo de Calatrava,-3.835,38.91
79,Tirteafuera,-4.25,38.775
33,La Poblachuela,-3.952,38.962
397,Ruidera,-2.882,38.976
230,Carrizosa,-2.992,38.84
66,Casas de Guerra,-3.28,39.242
66,Casa de Castellanos,-3.442,38.847
79,La Torrecilla,-4.004,38.9
79,Casas de las Peralosas del Sur,-4.15,39.097
39,Leganiel,-2.949,40.165
39,El Ballestar,-3.067,40.131
230,Fuente de Pedro Naharro,-3.009,39.924
46,Zarza de Tajo,-3.13,40.018
79,Torrubia del Campo,-2.96,39.898
46,Villarrubio,-2.893,39.945
33,Tribaldos,-2.897,39.973
33,El Acebron,-2.983,39.909
112,Belinchon,-3.058,40.048
46,Abia de la Obispalia,-2.394,40.019
66,Huerta de la Obispalia,-2.479,39.989
112,La Ventosa,-2.431,40.206
46,Valdecolmenas de Abajo,-2.496,40.119
134,Cuevas de Velasco,-2.417,40.149
55,Villarejo de la Penuela,-2.409,40.087
160,Garcinarro,-2.759,40.225
276,Huete,-2.689,40.144
46,Paredes,-2.854,40.066
192,Carrascosa del Campo,-2.736,40.037
94,Pineda de Giguela,-2.542,40.085
39,Villanueva de Guadamejud,-2.505,40.225
192,La Peraleja,-2.554,40.236
112,Barajas de Melo,-2.916,40.123
55,Vellisca,-2.813,40.13
55,Saceda-Trasierra,-2.852,40.155
66,Rozalen del Monte,-2.804,39.991
55,Jabaga,-2.263,40.086
79,Villar de Domingo Garcia,-2.292,40.238
331,Sotos,-2.162,40.195
55,Bascunana de San Pedro,-2.227,40.213
94,Villar de Olalla,-2.193,40.015
94,Villalba de la Sierra,-2.089,40.234
192,Arcas,-2.112,39.989
79,Palomera,-2.048,40.067
79,Mariana,-2.145,40.167
112,Chillaron de Cuenca,-2.219,40.103
39,Huerguina,-1.608,40.041
39,Campillos-Sierra,-1.696,40.101
28,Tejadillos,-1.633,40.14
160,Boniches,-1.623,39.986
24,Laguna del Marquesado,-1.671,40.178
160,Huerta del Marquesado,-1.687,40.145
160,Canete,-1.646,40.042
79,Valdemoro-Sierra,-1.766,40.102
46,Valdemorillo de la Sierra,-1.779,40.038
192,Valdemeca,-1.742,40.224
79,Beamud,-1.828,40.186
160,La Cierva,-1.85,40.056
94,Buenache de la Sierra,-2,40.135
46,Valparaiso de Abajo,-2.638,40.053
33,Canada Molina,-2.084,39.983
55,Nohales,-2.178,40.085
94,Alcazar del Rey,-2.807,40.063
66,Una,-1.976,40.223
112,Torrejoncillo del Rey,-2.571,40.009
55,La Melgosa,-2.095,40.026
94,Ucles,-2.861,39.98
46,Huelves,-2.883,40.043
94,Zafrilla,-1.617,40.195
112,La Almarcha,-2.379,39.687
276,San Lorenzo de la Parrilla,-2.36,39.851
55,Villarejo-Periesteban,-2.44,39.872
66,La Hinojosa,-2.413,39.728
79,Cervera del Llano,-2.418,39.782
112,La Alberca de Zancara,-2.492,39.515
79,Santa Maria del Campo Rus,-2.422,39.559
79,El Pedernoso,-2.746,39.485
94,Tresjuncos,-2.753,39.7
112,Osa de la Vega,-2.759,39.66
46,Monreal del Llano,-2.76,39.568
112,Almonacid del Marquesado,-2.766,39.823
46,El Hito,-2.717,39.859
94,Belmonte,-2.705,39.557
55,Rada de Haro,-2.62,39.57
55,Fuentelespino de Haro,-2.668,39.689
46,Villalgordo del Marquesado,-2.507,39.682
79,Villar de la Encina,-2.521,39.637
94,Zafra de Zancara,-2.557,39.891
66,Villar de Canas,-2.563,39.777
55,Montalbanejo,-2.498,39.733
94,El Provencio,-2.574,39.377
28,Alconchel de la Estrella,-2.573,39.719
160,Villamayor de Santiago,-2.924,39.73
79,Pozorrubio,-2.948,39.816
33,Santa Maria de los Llanos,-2.809,39.49
55,Puebla de Almenara,-2.814,39.784
66,Hontanaya,-2.834,39.716
94,Los Hinojosos,-2.825,39.605
55,Mota de Altarejos,-2.308,39.882
33,Fresneda de Altarejos,-2.315,39.926
79,Belmontejo,-2.344,39.822
160,Altarejos,-2.356,39.912
24,Casas de los Pinos,-2.369,39.333
66,Casas de Haro,-2.27,39.327
79,Vara de Rey,-2.293,39.425
28,Torrubia del Castillo,-2.31,39.658
39,El Canavate,-2.302,39.543
79,Atalaya del Canavate,-2.251,39.518
112,Valverde de Jucar,-2.22,39.719
55,Olmeda del Rey,-2.082,39.807
66,Chumillas,-2.031,39.771
39,Villaverde y Pasaconsol,-2.265,39.77
66,Piqueras del Castillo,-2.082,39.721
79,Albaladejo del Cuende,-2.228,39.807
79,Valdeganga de Cuenca,-2.185,39.92
55,La Parra de las Vegas,-2.204,39.868
134,Fuentes,-2.02,39.95
39,Valhermoso de la Fuente,-2.015,39.552
33,Valverdejo,-2.023,39.615
39,Rubielos Bajos,-2.038,39.446
39,Barchin del Hoyo,-2.067,39.664
46,Casas de Benitez,-2.127,39.361
112,El Picazo,-2.089,39.447
79,Alarcon,-2.086,39.547
66,Olmedilla de Alarcon,-2.103,39.614
112,Buenache de Alarcon,-2.158,39.657
46,Pozoamargo,-2.195,39.365
79,Hontecillas,-2.185,39.692
24,Casas de Guijarro,-2.163,39.346
192,Gabaldon,-1.942,39.626
160,El Peral,-1.896,39.499
46,Solera de Gabaldon,-1.976,39.749
46,Monteagudo de las Salinas,-1.9,39.804
94,Almodovar del Pinar,-1.899,39.725
112,Canada del Hoyo,-1.899,39.969
39,Almendros,-2.883,39.92
46,Villaescusa de Haro,-2.671,39.599
160,Montalbo,-2.67,39.88
160,Casasimarro,-2.039,39.392
160,Sisante,-2.201,39.407
331,Honrubia,-2.281,39.613
397,Valera de Abajo,-2.157,39.769
79,Canada Juncosa,-2.25,39.549
79,Saelices,-2.804,39.92
134,Palomares del Campo,-2.596,39.945
112,Las Mesas,-2.764,39.388
160,Horcajo de Santiago,-2.998,39.843
55,Carrascosa de Haro,-2.541,39.598
112,Casas de Fernando Alonso,-2.325,39.349
66,Castillo de Garcimunoz,-2.38,39.66
94,Olivares de Jucar,-2.355,39.76
134,Pinarejo,-2.425,39.616
192,Tebar,-2.164,39.498
79,Villanueva de la Jara,-1.953,39.441
94,Villarejo de Fuentes,-2.695,39.789
79,Villares del Saz,-2.503,39.841
33,San Martin de Boniches,-1.572,39.887
79,Villora,-1.586,39.753
94,La Pesquera,-1.585,39.573
94,Enguidanos,-1.606,39.674
134,Villalpardo,-1.624,39.472
112,El Herrumblar,-1.622,39.401
192,Cardenete,-1.684,39.768
160,Arguisuelas,-1.819,39.832
94,Campillo de Altobuey,-1.795,39.611
55,Villagarcia del Llano,-1.846,39.326
112,Ledana,-1.717,39.355
39,Graja de Iniesta,-1.671,39.517
66,Castillejo de Iniesta,-1.761,39.525
39,Yemeda,-1.722,39.762
55,Paracuellos,-1.787,39.717
66,Pajaron,-1.781,39.957
46,Pajaroncillo,-1.733,39.947
160,Carboneras de Guadazaon,-1.807,39.896
66,Reillo,-1.871,39.904
94,Narboneta,-1.474,39.751
79,Henarejos,-1.486,39.865
66,Graja de Campalbo,-1.27,39.899
79,Garaballa,-1.375,39.815
66,Aliaguilla,-1.325,39.741
134,Casillas de Ranera,-1.271,39.78
192,Mira,-1.438,39.72
112,Villar del Humo,-1.627,39.87
160,Talayuelas,-1.284,39.85
160,Minglanilla,-1.594,39.536
822,Landete,-1.368,39.907
39,Puebla del Salvador,-1.675,39.565
66,Villarta,-1.649,39.442
192,Iniesta,-1.747,39.445
46,Arandilla del Arroyo,-2.384,40.511
66,Buciegas,-2.462,40.336
79,Canaveras,-2.395,40.358
39,San Pedro Palmiches,-2.404,40.43
66,Villar del Infantado,-2.479,40.455
39,Olmeda de la Cuesta,-2.475,40.311
46,Albendea,-2.415,40.488
94,Villalba del Rey,-2.639,40.345
39,Portalrubio de Guadamejud,-2.603,40.272
112,Canaveruelas,-2.636,40.4
33,Alcohujate,-2.614,40.417
66,Tinajas,-2.579,40.325
66,Gascuena,-2.518,40.299
39,Castejon,-2.52,40.382
39,Castillejo-Sierra,-2.14,40.376
28,Salmeroncillos de Abajo,-2.52,40.505
192,Valdeolivas,-2.445,40.506
46,Arrancacepas,-2.358,40.303
822,Priego,-2.313,40.449
39,La Frontera,-2.216,40.402
79,Canamares,-2.238,40.451
94,Albalate de las Nogueras,-2.277,40.365
397,Torralba,-2.284,40.303
55,Zarzuela,-2.129,40.256
55,Fresneda de la Sierra,-2.141,40.391
55,Fuertescusa,-2.176,40.477
94,Arcos de la Sierra,-2.112,40.347
94,Poyatos,-2.049,40.423
134,Las Majadas,-2.02,40.296
55,Portilla,-2.081,40.289
55,Santa Maria del Val,-2.04,40.504
230,Vega del Codorno,-1.928,40.433
134,Huelamo,-1.808,40.276
476,Tragacete,-1.85,40.349
55,Canalejas del Arroyo,-2.492,40.37
112,Villaconejos de Trabaque,-2.318,40.4
112,Buendia,-2.755,40.367
55,Vindel,-2.38,40.587
46,El Pozuelo,-2.275,40.62
55,Valsalobre,-2.092,40.618
46,Cueva del Hierro,-2.035,40.583
94,Beteta,-2.075,40.572
55,Carrascosa,-2.162,40.591
134,Canizares,-2.191,40.519
39,Masegosa,-2.025,40.547
192,Lagunaseca,-2.018,40.531
33,Puente de Vadillos,-2.151,40.529
79,Alcantud,-2.331,40.549
66,Campillos-Paravientos,-1.545,39.973
94,Alcala de la Vega,-1.524,40.027
55,Fuentelespino de Moya,-1.469,39.919
55,Casas de Garcimolina,-1.416,39.997
160,Salvacanete,-1.501,40.099
112,Santa Cruz de Moya,-1.255,39.956
24,Salinas del Manzano,-1.554,40.089
55,Santo Domingo de Moya,-1.368,39.965
33,Casa de la Estrella,-2.134,40.036
46,Driebes,-3.04,40.245
112,Illana,-2.907,40.184
39,El Soto,-3.052,40.181
79,Campisabalos,-3.144,41.267
276,Cantalojas,-3.245,41.235
79,Somolinos,-3.057,41.245
33,Ujados,-3.004,41.235
55,Galve de Sorbe,-3.183,41.222
39,Condemios de Arriba,-3.126,41.214
33,Albendiego,-3.051,41.227
112,Miedes de Atienza,-2.963,41.267
33,Banuelos,-2.914,41.286
46,Hijes,-2.998,41.251
33,Paredes de Siguenza,-2.732,41.243
66,Valdelcubo,-2.674,41.226
55,Tordelrabano,-2.757,41.218
46,Cincovillas,-2.817,41.206
33,Romanillos de Atienza,-2.895,41.275
112,Albalate de Zorita,-2.843,40.308
134,Yebra,-2.965,40.357
112,Almoguera,-2.98,40.296
79,Millana,-2.57,40.507
24,Moratilla de los Meleros,-2.941,40.501
33,Aunon,-2.791,40.517
33,Mazuecos,-3.009,40.262
33,Pozo de Almoguera,-3.028,40.342
66,Escariche,-3.054,40.408
28,Hontoba,-3.041,40.455
39,Escopete,-3.007,40.415
39,Albares,-3.011,40.308
39,Valdarachas,-3.125,40.517
24,Pioz,-3.174,40.464
46,Aranzueque,-3.077,40.493
112,Alcocer,-2.608,40.47
331,Sacedon,-2.733,40.482
134,Pastrana,-2.921,40.418
55,Valdeconcha,-2.876,40.456
94,Sayaton,-2.851,40.376
55,Almonacid de Zorita,-2.849,40.329
33,Urbanizacion Montejaral,-3.143,40.442
39,Valcastillo,-3.159,40.471
46,Pozo de Guadalajara,-3.18,40.495
46,Renera,-3.016,40.492
192,Mondejar,-3.108,40.324
46,Huermeces del Cerro,-2.796,41.053
134,Valverde de los Arroyos,-3.232,41.129
33,El Ordial,-3.114,41.128
160,Tamajon,-3.248,41
46,Monasterio,-3.096,40.985
112,Semillas,-3.118,41.059
33,Villares de Jadraque,-3.024,41.101
24,Zarzuela de Jadraque,-3.043,41.069
28,Las Navas de Jadraque,-3.087,41.105
192,Hiendelaencina,-3.003,41.084
39,La Huerce,-3.169,41.153
46,Gascuena de Bornova,-3.02,41.142
55,Bustares,-3.071,41.136
66,Pradena de Atienza,-3.006,41.172
55,Majaelrayo,-3.302,41.112
79,Campillo de Ranas,-3.313,41.086
66,El Cardoso de la Sierra,-3.464,41.097
66,Robledo de Corpes,-2.949,41.118
55,Torremocha del Campo,-2.618,40.978
33,La Bodera,-2.887,41.134
46,Santiuste,-2.81,41.085
94,Riofrio del Llano,-2.823,41.137
24,Rebollosa de Jadraque,-2.841,41.09
55,La Olmeda de Jadraque,-2.74,41.127
79,Sauca,-2.528,41.031
46,Viana de Jadraque,-2.769,41.025
39,Pinilla de Jadraque,-2.942,41.02
55,Congostrina,-2.984,41.038
112,La Toba,-2.982,41.004
33,Cendejas de Enmedio,-2.871,40.982
134,Baides,-2.774,41.006
66,Medranda,-2.936,40.985
94,Palmaces de Jadraque,-2.91,41.056
24,Angon,-2.853,41.067
33,La Minosa,-2.931,41.179
192,Sienes,-2.651,41.201
276,Atienza,-2.87,41.198
66,Estriegana,-2.523,41.058
1183,Siguenza,-2.643,41.068
28,Montarron,-3.114,40.91
66,Castilnuevo,-1.857,40.815
55,Mohernando,-3.174,40.803
112,La Yunta,-1.683,40.915
55,Campillo de Duenas,-1.684,40.884
39,El Pedregal,-1.569,40.779
66,Torre del Burgo,-3.079,40.794
39,Malaga del Fresno,-3.247,40.789
28,Taragudo,-3.079,40.824
55,Fuencemillan,-3.1,40.923
46,Canizar,-3.066,40.77
39,Yunquera de Henares,-3.166,40.753
39,Torija,-3.03,40.745
24,Ciruelas,-3.088,40.752
134,Cogolludo,-3.088,40.947
55,Arbancon,-3.114,40.964
55,Alarilla,-3.104,40.85
66,Hita,-3.047,40.824
55,Espinosa de Henares,-3.071,40.904
46,Copernal,-3.056,40.867
79,Malaguilla,-3.257,40.822
55,Robledillo de Mohernando,-3.234,40.853
66,Retiendas,-3.274,40.971
55,Puebla de Belena,-3.218,40.89
33,La Mierla,-3.234,40.938
192,Humanes,-3.155,40.827
33,Puebla de Valles,-3.302,40.928
134,Matarrubia,-3.291,40.867
39,Valdesotos,-3.328,40.958
112,Valdepenas de la Sierra,-3.386,40.908
55,Tortuero,-3.352,40.936
66,El Cubillo de Uceda,-3.405,40.824
39,Casa de Uceda,-3.371,40.843
39,Vinuelas,-3.343,40.795
28,Villaseca de Uceda,-3.351,40.82
79,Torrecuadradilla,-2.531,40.854
134,Caraquiz,-3.485,40.791
28,Penarrubia,-3.456,40.797
46,Mesones,-3.414,40.765
79,Miralrio,-2.942,40.888
79,Gajanejos,-2.891,40.842
66,Muduex,-2.958,40.83
39,Utande,-2.927,40.849
28,Villanueva de Argecilla,-2.913,40.902
33,Casas de San Galindo,-2.957,40.872
276,Jadraque,-2.925,40.925
685,Cifuentes,-2.622,40.784
24,Valderrebollo,-2.728,40.81
79,Masegoso de Tajuna,-2.698,40.825
24,El Sotillo,-2.633,40.88
24,Solanillos del Extremo,-2.697,40.751
55,Jirueque,-2.902,40.965
28,Villaseca de Henares,-2.797,40.961
39,Bujalaro,-2.883,40.937
66,Algora,-2.666,40.963
39,Almadrones,-2.773,40.901
33,Mirabueno,-2.722,40.945
28,Castejon de Henares,-2.786,40.938
134,Argecilla,-2.817,40.884
55,Las Inviernas,-2.669,40.872
66,Barriopedro,-2.751,40.79
28,Cogollor,-2.743,40.848
79,Alaminos,-2.725,40.863
94,Brihuega,-2.869,40.762
28,Ledanca,-2.842,40.868
39,Valdearenas,-2.991,40.809
33,Trijueque,-2.994,40.776
55,Membrillera,-2.979,40.948
33,Torremochuela,-1.841,40.766
94,Huertahernando,-2.286,40.823
46,Esplegares,-2.369,40.857
160,Ocentejo,-2.397,40.772
192,Zaorejas,-2.2,40.762
160,Sacecorbo,-2.416,40.833
55,Canredondo,-2.492,40.813
79,Sotodosos,-2.392,40.921
160,Riba de Saelices,-2.296,40.912
55,Ablanque,-2.228,40.898
79,Abanades,-2.484,40.892
276,Cobeta,-2.141,40.866
112,Torremocha del Pinar,-2.044,40.889
55,Anquela del Pedregal,-1.736,40.743
39,Torrecuadrada de Molina,-1.806,40.75
46,Prados Redondos,-1.792,40.785
94,Castellar de la Muela,-1.759,40.819
79,Rueda de la Sierra,-1.854,40.919
46,Fuembellida,-1.998,40.756
134,Tierzo,-1.93,40.749
46,Rillo de Gallo,-1.937,40.866
79,Corduente,-1.977,40.843
94,Valhermoso,-1.96,40.786
33,Herreria,-1.959,40.888
79,El Pobo de Duenas,-1.648,40.777
46,Morenilla,-1.706,40.786
33,Hombrados,-1.684,40.802
66,La Beltraneja,-2.955,40.791
28,Carrascosa de Henares,-3.01,40.908
79,Gargoles de Arriba,-2.633,40.75
160,Mandayona,-2.749,40.956
79,Matillas,-2.84,40.951
331,Molina de Aragon,-1.883,40.842
79,Romanones,-2.99,40.571
134,Arbeteta,-2.402,40.669
55,Escamilla,-2.562,40.55
28,Fuentelviejo,-2.984,40.526
79,Salmeron,-2.492,40.545
79,Peralveche,-2.448,40.611
55,Castilforte,-2.431,40.557
55,Yelamos de Arriba,-2.842,40.639
39,Valfermoso de Tajuna,-2.953,40.62
55,Irueste,-2.891,40.612
66,Chillaron del Rey,-2.688,40.597
39,El Olivar,-2.749,40.607
46,Mantiel,-2.662,40.619
39,Duron,-2.724,40.627
39,Alique,-2.643,40.586
28,Atanzon,-2.997,40.667
55,Valdeavellano,-2.969,40.665
39,Alhondiga,-2.823,40.527
134,Fuentelencina,-2.881,40.517
160,Pareja,-2.648,40.557
28,Chequilla,-1.827,40.606
55,Yebes,-3.112,40.537
39,Quer,-3.275,40.606
46,Lupiana,-3.054,40.608
79,Centenera,-3.054,40.652
39,Armuna de Tajuna,-3.028,40.531
79,Horche,-3.064,40.566
39,Chiloeches,-3.164,40.572
66,Tortola de Henares,-3.124,40.706
55,Valdegrudas,-3.014,40.714
28,Aldeanueva de Guadalajara,-3.045,40.681
33,Torrejon del Rey,-3.334,40.645
94,Tendilla,-2.956,40.544
66,Penalver,-2.887,40.582
39,Berninches,-2.8,40.571
94,Alocen,-2.749,40.574
134,El Recuenco,-2.339,40.615
160,Poveda de la Sierra,-2.028,40.643
66,Penalen,-2.069,40.666
230,Trillo,-2.591,40.7
46,Valtablado del Rio,-2.402,40.715
276,Villanueva de Alcoron,-2.252,40.679
28,Valdelosllanos,-3.401,40.702
28,Las Colinas,-3.434,40.716
24,Montecalderon,-3.413,40.683
39,Usanos,-3.269,40.714
79,Valdenoches,-3.089,40.684
192,Romancos,-2.883,40.688
79,Armallones,-2.302,40.736
112,Henche,-2.707,40.715
24,Caspuenas,-2.978,40.693
112,Piqueras,-1.721,40.663
66,Alcoroches,-1.746,40.627
94,Traid,-1.808,40.668
571,Checa,-1.788,40.588
55,Terzaga,-1.903,40.695
46,Pinilla de Molina,-1.879,40.68
66,Megina,-1.869,40.639
46,Peralejos de las Truchas,-1.908,40.593
112,Taravilla,-1.968,40.697
55,Banos de Tajo,-1.97,40.718
112,Tordesilos,-1.592,40.671
55,Setiles,-1.616,40.733
94,Orea,-1.726,40.557
39,Tordellego,-1.67,40.721
160,Alustante,-1.657,40.614
39,Adobes,-1.677,40.676
33,Monte de los Santos,-3.21,40.523
28,El Mapa,-3.165,40.583
24,El Clavin,-3.152,40.594
66,Valdeluz,-3.108,40.591
33,Iriepal,-3.12,40.638
33,Taracena,-3.126,40.654
276,Budia,-2.756,40.628
79,Parque de las Castillas,-3.375,40.685
79,Embid,-1.711,40.972
134,Maranchon,-2.205,41.048
39,Ciruelos del Pinar,-2.219,41.008
94,Luzon,-2.276,41.026
55,Anguita,-2.366,41.027
160,Alcolea del Pinar,-2.465,41.036
276,Luzaga,-2.444,40.973
79,Iniestola,-2.37,40.994
66,Hortezuela de Ocen,-2.414,40.952
134,Mazarete,-2.159,41.001
55,Anquela del Ducado,-2.129,40.971
55,Estables,-2.023,41.008
112,Selas,-2.101,40.951
66,Mochales,-2.014,41.096
230,Tortuera,-1.796,40.972
55,Fuentelsaz,-1.83,41.073
46,Milmarcos,-1.875,41.086
192,Villel de Mesa,-1.99,41.125
33,Torrubia,-1.899,40.965
94,Tartanedo,-1.923,40.993
134,Pardos,-1.924,40.948
28,Madre Vieja,-3.109,40.424
33,Residencia de Ancianos,-3.938,40.37
24,El Morro,-4.275,40.361
28,Caravan Garden,-4.247,40.309
39,Rozas de Puerto Real,-4.492,40.309
39,Cadalso de los Vidrios,-4.439,40.302
66,Aldea del Fresno,-4.198,40.321
46,Navas del Rey,-4.25,40.387
55,Costa de Madrid,-4.369,40.39
39,Pelayos de la Presa,-4.332,40.359
33,Chapineria,-4.21,40.379
66,Colmenar del Arroyo,-4.197,40.418
79,Villamanta,-4.111,40.298
28,Villanueva de Perales,-4.101,40.346
33,Rio Guadarrama,-3.94,40.287
24,Urbanizaciones Este,-3.845,40.407
28,Los Angeles,-3.78,40.407
28,Huertos Familiares,-3.493,40.38
33,Las Nieves,-3.876,40.35
33,Moraleja de Enmedio,-3.857,40.262
112,Cenicientos,-4.465,40.263
46,Batres,-3.919,40.209
39,El Soto,-3.849,40.197
33,Casarrubuelos,-3.831,40.17
46,Cotorredondo,-3.94,40.247
39,Torrejon de Velasco,-3.776,40.187
39,Titulcia,-3.569,40.138
66,Balcon de Tajo-Urtajo,-3.495,40.072
66,Villaconejos,-3.484,40.103
28,Cortijo de San Isidro,-3.561,40.055
46,Perales de Tajuna,-3.35,40.234
33,Urbanizacion Valdeperales,-3.343,40.22
55,Vallequillas Norte,-3.532,40.239
66,Chinchon,-3.419,40.14
55,Valdelaguna,-3.366,40.162
33,Belmonte de Tajo,-3.336,40.133
94,Villamanrique de Tajo,-3.239,40.069
79,Valdaracete,-3.193,40.21
46,Alarilla,-3.131,40.082
160,Fuentiduena de Tajo,-3.16,40.118
66,Estremera,-3.106,40.184
66,Brea de Tajo,-3.108,40.23
24,Villafranca del Castillo-la Mocha Chica,-3.948,40.466
46,Valdemaqueda,-4.296,40.511
33,Valle del Sol,-4.173,40.434
79,Robledo de Chavela,-4.232,40.501
39,Fresnedillas de la Oliva,-4.169,40.488
24,Navalagamella,-4.122,40.469
66,Cerro Alarcon,-4.082,40.466
46,Quijorna,-4.053,40.428
33,El Valle de los Rosales,-3.98,40.427
33,Entrealamos,-3.931,40.483
24,Pino Alto,-4.045,40.513
55,Las Cuestas,-3.982,40.521
24,La Chopera,-3.905,40.509
39,Santa Maria de la Alameda,-4.26,40.597
46,Robledondo,-4.206,40.578
33,La Estacion y Pajares,-4.164,40.54
28,Zarzalejo,-4.181,40.549
24,Pinosol,-4.121,40.557
66,Dehesa,-4.103,40.536
33,La Pizarrera,-4.075,40.546
66,La Pizarra,-4.116,40.62
39,El Paraiso,-4.061,40.525
39,La Navata,-3.985,40.595
33,Espana,-4.029,40.624
24,Bellavista,-4.007,40.606
28,El Pocillo,-4.011,40.615
55,Tablada,-4.128,40.704
33,Parque de las Colinas,-3.9,40.605
66,Los Robles,-3.921,40.585
28,Berzosa,-3.938,40.61
39,La Granjilla,-3.602,40.574
79,Valdelagua,-3.616,40.65
112,La Estacion,-4.266,40.566
28,Los Penascales,-3.898,40.57
33,Navarredonda,-4.032,40.481
55,Cerceda,-3.94,40.705
79,Rascafria,-3.879,40.904
33,Valdemanco,-3.661,40.872
79,La Cabrera,-3.613,40.866
46,Navacerrada,-4.013,40.729
28,Mataelpino,-3.946,40.734
28,El Boalo,-3.918,40.719
55,Los Rancajales,-3.746,40.73
24,Los Endrinales,-3.74,40.787
24,Montenebro,-3.632,40.736
66,Los Molinos,-4.073,40.712
33,Alameda del Valle,-3.843,40.919
112,Canencia,-3.739,40.908
160,Lozoya,-3.794,40.955
46,Pozuelo del Rey,-3.316,40.367
79,Valdilecha,-3.3,40.295
28,Prado Concejil,-3.41,40.4
94,Zulema-Penas Albas,-3.37,40.45
55,Valdelaguila-El Robledal,-3.279,40.438
46,Anchuelo,-3.267,40.466
134,Carabana,-3.236,40.258
55,Orusco de Tajuna,-3.209,40.286
55,Villar del Olmo,-3.235,40.336
79,El Castillo,-3.472,40.437
46,Los Berrocales del Jarama,-3.511,40.475
28,Monte Acevedo,-3.264,40.384
39,Ambite,-3.181,40.328
24,El Mirador de Baztan,-3.247,40.377
39,Corpa,-3.263,40.425
33,Santorcaz,-3.232,40.472
55,Los Santos de la Humosa,-3.251,40.504
112,Pezuela de las Torres,-3.176,40.418
33,La Hiruela,-3.454,41.078
46,Villavieja del Lozoya,-3.67,41.006
39,Navarredonda,-3.725,40.991
476,Buitrago del Lozoya,-3.636,40.992
112,Braojos,-3.642,41.04
94,La Acebeda,-3.624,41.087
55,Berzosa del Lozoya,-3.52,40.975
39,Pinuecar,-3.599,41.033
28,Madarcos,-3.581,41.048
33,Pradena del Rincon,-3.539,41.044
39,Horcajo de la Sierra,-3.584,41.067
33,Robregordo,-3.593,41.106
94,Somosierra,-3.581,41.133
79,Puebla de la Sierra,-3.444,41.012
134,Montejo de la Sierra,-3.528,41.06
28,El Atazar,-3.47,40.934
24,Atalaya Real,-3.615,40.763
33,Pedrezuela,-3.6,40.745
79,El Vellon,-3.58,40.767
46,Cotos de Monterrey,-3.598,40.797
