rs,name,lon,lat,r1
276,San Vicente de Alcantara,-7.136,39.361,134
331,Llerena,-6.016,38.238,230
822,Azuaga,-5.677,38.26,276
822,Zafra,-6.411,38.423,192
39,Los Santos de Maimona,-6.381,38.449,24
55,Fuente del Maestre,-6.447,38.527,55
276,Villafranca de los Barros,-6.336,38.561,94
476,Almendralejo,-6.405,38.683,192
46,Villanueva de la Serena,-5.795,38.976,46
397,Don Benito,-5.861,38.957,331
230,Guarena,-6.098,38.86,134
571,Merida,-6.342,38.919,397
134,Jerez de los Caballeros,-6.769,38.323,134
331,Olivenza,-7.098,38.684,134
66,Las Vaguadas,-6.971,38.844,28
94,Arroyo de la Luz,-6.582,39.485,94
192,Montehermoso,-6.348,40.088,134
192,Moraleja,-6.654,40.069,79
476,Coria,-6.538,39.986,276
986,Caceres,-6.371,39.475,476
230,Jaraiz de la Vera,-5.756,40.058,160
276,Navalmoral de la Mata,-5.539,39.894,276
986,Plasencia,-6.085,40.036,397
230,Gibraleon,-6.967,37.376,94
112,Trigueros,-6.833,37.383,55
160,Punta Umbria,-6.968,37.183,66
79,San Juan del Puerto,-6.84,37.316,28
66,Ayamonte,-7.401,37.215,46
46,Rociana del Condado,-6.595,37.307,39
571,Aracena,-6.564,37.892,230
79,Cartaya,-7.149,37.284,39
571,Valverde del Camino,-6.752,37.573,230
94,La Palma del Condado,-6.553,37.388,39
397,Almonte,-6.516,37.261,276
160,Bollullos Par del Condado,-6.539,37.34,66
112,Villa del Rio,-4.288,37.981,55
822,Lucena,-4.486,37.409,397
79,La Rambla,-4.737,37.607,46
79,Nueva Carteya,-4.466,37.586,79
192,Rute,-4.368,37.326,79
112,Cabra,-4.429,37.473,46
192,Puente Genil,-4.766,37.388,192
397,Montilla,-4.638,37.585,134
276,Baena,-4.323,37.617,94
134,Aguilar de la Frontera,-4.656,37.514,55
112,Fuente Palmera,-5.1,37.704,79
276,Bujalance,-4.379,37.893,94
331,Palma del Rio,-5.278,37.699,160
94,Vejer de la Frontera,-5.966,36.251,55
79,Medina-Sidonia,-5.928,36.462,79
39,Bonanza,-6.335,36.801,20
79,Trebujena,-6.174,36.869,66
112,Paterna de Rivera,-5.864,36.523,46
112,Los Barrios,-5.489,36.183,46
94,Puerto Serrano,-5.541,36.922,66
276,Ubrique,-5.446,36.675,192
112,Bornos,-5.743,36.816,55
134,Benalup-Casas Viejas,-5.813,36.346,112
112,Puerto Real,-6.192,36.53,55
230,Rota,-6.367,36.627,79
230,Conil de la Frontera,-6.086,36.279,94
192,Tarifa,-5.606,36.016,112
822,Algeciras,-5.448,36.133,476
397,Olvera,-5.258,36.934,160
134,Archidona,-4.39,37.095,112
331,Alameda,-4.656,37.208,134
331,Velez-Malaga,-4.101,36.777,230
55,Campanillas,-4.543,36.725,39
160,Estacion,-4.609,36.737,66
94,Pizarra,-4.707,36.764,46
46,Cartama,-4.631,36.712,20
1702,Malaga,-4.43,36.724,822
66,Alhaurin el Grande,-4.686,36.642,66
94,San Luis de Sabinillas,-5.229,36.366,55
397,Marbella,-4.886,36.513,160
134,Sitio de Calahonda,-4.711,36.491,66
39,Torremolinos,-4.496,36.629,20
134,Nerja,-3.872,36.754,134
397,Guadix,-3.136,37.299,276
134,Huetor Tajar,-4.046,37.198,66
822,Baza,-2.773,37.488,476
822,Motril,-3.517,36.749,331
94,Padul,-3.625,37.024,33
55,Alhendin,-3.643,37.108,24
39,Cullar Vega,-3.672,37.156,28
39,Armilla,-3.623,37.142,20
39,Huetor Vega,-3.567,37.148,24
230,Pinos Puente,-3.75,37.253,28
66,Santa Fe,-3.716,37.189,24
46,Atarfe,-3.687,37.223,33
94,Maracena,-3.634,37.206,24
33,Albolote,-3.655,37.23,20
33,Granada,-3.602,37.181,20
24,Peligros,-3.627,37.232,20
55,Salobrena,-3.586,36.743,46
94,La Zubia,-3.584,37.118,24
33,Otura,-3.635,37.092,20
28,Barrio de la Vega,-3.562,37.135,20
331,La Carolina,-3.616,38.274,134
276,Alcaudete,-4.081,37.59,94
94,Torreperogil,-3.289,38.035,55
230,Arjona,-4.056,37.936,79
33,Torredonjimeno,-3.953,37.765,33
55,Torre del Campo,-3.898,37.77,55
192,Martos,-3.97,37.718,112
134,Los Villares,-3.817,37.689,66
230,Mengibar,-3.806,37.969,94
112,Baeza,-3.469,37.994,66
192,Mancha Real,-3.608,37.785,112
571,Jodar,-3.353,37.84,134
134,Bailen,-3.777,38.095,94
476,Villacarrillo,-3.082,38.116,192
66,Ceuti,-1.273,38.08,28
28,Alguazas,-1.24,38.053,20
397,Mula,-1.491,38.04,134
160,Bullas,-1.667,38.047,79
55,Santomera,-1.048,38.062,55
134,Molina de Segura,-1.206,38.057,55
24,Lorqui,-1.25,38.084,20
39,Espinardo,-1.155,38.011,20
24,Cabezo de Torres,-1.127,38.025,20
24,Altorreal,-1.169,38.074,24
331,Fortuna,-1.126,38.181,79
192,Caravaca de la Cruz,-1.863,38.106,192
134,Alhama de Murcia,-1.424,37.85,55
134,Torre-Pacheco,-0.954,37.744,94
79,Puerto de Mazarron,-1.266,37.564,33
79,Fuente Alamo de Murcia,-1.17,37.723,79
66,Poligono de Santa Ana,-1.011,37.652,24
55,El Algar,-0.865,37.647,20
94,La Union,-0.877,37.62,79
230,Totana,-1.499,37.77,134
571,Aguilas,-1.582,37.409,230
276,Mazarron,-1.314,37.599,160
192,Puerto Lumbreras,-1.806,37.565,79
160,Moratalla,-1.89,38.188,66
230,Jumilla,-1.324,38.476,160
986,Hellin,-1.698,38.511,230
160,Tobarra,-1.688,38.591,66
230,La Roda,-2.157,39.206,192
1183,Albacete,-1.858,38.993,685
571,Almansa,-1.095,38.868,192
160,Caudete,-0.985,38.705,66
39,Argamasilla de Alba,-3.093,39.128,39
571,Alcazar de San Juan,-3.211,39.39,192
66,Membrilla,-3.343,38.972,24
276,Manzanares,-3.371,38.998,192
230,Villarrubia de los Ojos,-3.607,39.22,112
230,Daimiel,-3.611,39.069,134
160,La Solana,-3.234,38.942,79
39,Campo de Criptana,-3.125,39.403,39
571,Tomelloso,-3.017,39.157,571
46,Miguelturra,-3.892,38.967,20
2042,Ciudad Real,-3.928,38.983,822
331,Malagon,-3.851,39.167,134
46,Almagro,-3.71,38.889,33
134,Bolanos de Calatrava,-3.663,38.906,134
112,Pedro Munoz,-2.947,39.402,112
112,Socuellamos,-2.792,39.284,112
476,Tarancon,-3.01,40.011,276
1419,Cuenca,-2.136,40.066,571
230,San Clemente,-2.427,39.402,134
160,Mota del Cuervo,-2.87,39.501,66
160,Las Pedroneras,-2.673,39.449,112
230,Quintanar del Rey,-1.926,39.344,160
28,Cabanillas del Campo,-3.231,40.638,28
55,Alovera,-3.246,40.596,20
79,Marchamalo,-3.202,40.668,20
112,Azuqueca de Henares,-3.259,40.57,66
230,Guadalajara,-3.164,40.636,134
94,Villaviciosa de Odon,-3.907,40.358,39
39,Alcorcon,-3.826,40.343,24
33,El Bosque,-3.927,40.384,24
55,Boadilla del Monte,-3.894,40.406,33
134,San Martin de Valdeiglesias,-4.399,40.364,134
55,Sevilla la Nueva,-4.026,40.348,46
192,Navalcarnero,-4.012,40.287,94
160,Brunete,-3.998,40.405,33
39,Fortuna,-3.781,40.358,20
24,El Bercial,-3.736,40.323,20
55,Getafe,-3.722,40.313,24
39,Parque Coimbra,-3.928,40.308,24
66,Casas del Cura,-3.658,40.322,39
94,Mostoles,-3.858,40.319,94
33,Humera-Somosaguas-Prado del Rey,-3.795,40.418,24
79,Leganes,-3.768,40.332,55
33,Madrid,-3.676,40.427,20
55,Humanes de Madrid,-3.825,40.253,24
160,Villa del Prado,-4.304,40.277,79
112,El Alamo,-3.991,40.23,46
46,Torrejon de la Calzada,-3.801,40.201,28
94,Ciempozuelos,-3.621,40.158,33
192,Parla,-3.764,40.233,46
55,Pinto,-3.697,40.247,46
94,Valdemoro,-3.682,40.195,46
46,Grinon,-3.851,40.214,28
476,Aranjuez,-3.601,40.031,134
79,San Martin de la Vega,-3.577,40.211,39
55,Morata de Tajuna,-3.436,40.23,55
276,Villarejo de Salvanes,-3.276,40.169,112
28,Villanueva del Pardillo,-3.963,40.492,28
112,Valdemorillo,-4.066,40.501,46
66,Villanueva de la Canada,-4.002,40.449,55
39,Colmenarejo,-4.008,40.555,20
39,Alpedrete,-4.04,40.658,24
55,Hoyo de Manzanares,-3.908,40.617,46
112,Colmenar Viejo,-3.77,40.665,112
55,Tres Cantos,-3.712,40.606,55
160,Alcobendas,-3.638,40.542,94
79,San Agustin del Guadalix,-3.616,40.681,66
112,Guadarrama,-4.085,40.672,46
28,Urbanizaciones Noroeste,-3.895,40.435,24
79,Moralzarzal,-3.968,40.679,33
66,Galapagar,-4.001,40.576,46
39,Majadahonda,-3.856,40.454,39
112,Las Matas-Pinar-Monte Rozas,-3.894,40.558,46
79,Miraflores de la Sierra,-3.764,40.811,33
134,Cercedilla,-4.055,40.741,55
160,Manzanares el Real,-3.86,40.732,66
39,Soto del Real,-3.772,40.749,39
46,Loeches,-3.412,40.382,39
46,Torres de la Alameda,-3.36,40.404,33
66,Vaciamadrid,-3.514,40.332,28
134,La Partija-Santa Monica,-3.537,40.362,46
46,Mejorada del Campo,-3.484,40.395,33
55,Torrejon de Ardoz,-3.474,40.461,55
276,Arganda del Rey,-3.44,40.299,66
66,Paracuellos de Jarama,-3.517,40.502,39
79,Guadalix de la Sierra,-3.704,40.782,46
55,Cobena,-3.505,40.568,20
112,Algete,-3.497,40.597,79
55,Daganzo de Arriba,-3.456,40.547,46
79,Fuente el Saz de Jarama,-3.513,40.633,28
112,El Molar,-3.582,40.735,39
94,Meco,-3.329,40.551,46
571,Arenas de San Pedro,-5.082,40.211,230
986,Avila,-4.697,40.65,476
476,Arevalo,-4.714,41.054,230
276,Cuellar,-4.312,41.401,230
685,Segovia,-4.112,40.944,276
476,Ciudad Rodrigo,-6.529,40.6,397
571,Bejar,-5.764,40.386,230
331,Guijuelo,-5.671,40.556,134
39,Santa Marta de Tormes,-5.625,40.95,24
55,Armunia,-5.59,42.575,20
397,Astorga,-6.054,42.455,331
397,La Baneza,-5.899,42.298,134
276,Valencia de Don Juan,-5.517,42.293,230
33,Villaobispo de las Regueras,-5.549,42.614,20
33,Navatejera,-5.563,42.628,20
276,Briviesca,-3.323,42.549,230
276,Medina de Pomar,-3.487,42.932,192
571,Aranda de Duero,-3.687,41.673,476
230,Segorbe,-0.487,39.849,160
230,Onda,-0.263,39.965,94
230,L'Alcora,-0.213,40.075,79
276,La Vall d'Uixo,-0.228,39.824,94
94,Borriana/Burriana,-0.083,39.887,46
79,Vila-real,-0.101,39.94,39
46,Nules,-0.157,39.854,46
94,Mas dels Frares,0.047,40.037,46
160,Binefar,0.295,41.85,55
331,Fraga,0.342,41.522,192
685,Jaca,-0.546,42.573,331
192,Sabinanigo,-0.367,42.521,94
822,Huesca,-0.407,42.137,331
571,Monzon,0.191,41.913,276
276,Barbastro,0.125,42.036,112
276,Haro,-2.849,42.573,94
134,Arnedo,-2.102,42.226,94
94,Santo Domingo de la Calzada,-2.953,42.44,94
276,Alfaro,-1.749,42.178,112
276,Najera,-2.728,42.419,134
66,Lardero,-2.461,42.427,24
39,Villamediana de Iregua,-2.417,42.425,24
397,Calahorra,-1.968,42.307,230
192,Estella/Lizarra,-2.031,42.672,192
112,Cintruenigo,-1.803,42.079,79
986,Tudela,-1.606,42.058,397
66,Corella,-1.792,42.114,28
134,Peralta/Azkoien,-1.8,42.339,79
46,San Adrian,-1.934,42.335,24
28,Baranain,-1.685,42.804,24
28,Berriozar,-1.675,42.844,20
28,Sarriguren,-1.594,42.811,28
24,Mutilva/Mutiloa,-1.617,42.794,20
24,Noain/Noain,-1.632,42.759,20
276,Altsasu/Alsasua,-2.169,42.895,134
39,Zizur Mayor/Zizur Nagusia,-1.692,42.789,20
39,Ansoain,-1.643,42.834,20
66,El Prat de Llobregat,2.095,41.325,33
112,Vilafranca del Penedes,1.7,41.345,94
66,Sant Pere de Ribes,1.775,41.26,20
55,Castelldefels,1.98,41.285,20
33,Sitges,1.812,41.239,33
46,Piera,1.75,41.523,39
46,Abrera,1.903,41.52,20
24,Rubi,2.036,41.49,20
28,Vilassar de Dalt,2.359,41.518,20
46,La Llagosta,2.192,41.513,20
28,Cerdanyola del Valles,2.139,41.491,28
55,Sant Andreu de la Barca,1.972,41.447,28
24,Mira-Sol,2.051,41.466,20
160,Martorell,1.918,41.477,55
46,Castellbisbal,1.982,41.475,24
94,Badalona,2.237,41.451,55
39,Can Sant Joan,2.184,41.47,24
33,Tiana,2.268,41.48,20
55,Canet de Mar,2.582,41.592,55
55,Cardedeu,2.36,41.641,46
28,Llinars del Valles,2.399,41.641,24
46,Arenys de Munt,2.54,41.612,24
24,Palafolls,2.75,41.67,20
46,La Roca del Valles,2.327,41.585,24
33,Sant Andreu de Llavaneres,2.482,41.571,28
33,Mollet del Valles,2.213,41.541,20
28,Parets del Valles,2.231,41.574,20
24,Montornes del Valles,2.269,41.541,24
28,Argentona,2.4,41.554,24
33,Corro d'Avall,2.298,41.632,20
134,La Garriga,2.283,41.686,46
276,Mataro,2.438,41.544,134
112,Centelles,2.221,41.797,39
160,Tona,2.226,41.849,66
397,Vic,2.255,41.929,276
112,Terrassa,2.017,41.565,66
55,Sabadell,2.1,41.549,24
79,Castellar del Valles,2.088,41.613,46
33,Caldes de Montbui,2.167,41.631,33
46,Sant Feliu de Codines,2.163,41.688,46
46,Polinya,2.16,41.555,24
79,Sant Sadurni d'Anoia,1.785,41.427,55
33,Gelida,1.867,41.441,33
39,Sant Feliu de Llobregat,2.049,41.385,33
55,Sant Adria de Besos,2.22,41.424,20
55,L'Hospitalet de Llobregat,2.111,41.365,24
24,Sant Vicenc dels Horts,2.009,41.394,20
134,Manlleu,2.283,42.002,55
46,Roda de Ter,2.309,41.983,20
94,Torello,2.264,42.049,39
134,Sant Vicenc de Castellet,1.863,41.668,55
79,Sallent,1.894,41.825,39
66,Artes,1.952,41.797,33
397,Berga,1.846,42.101,230
28,Sant Joan de Vilatorrada,1.803,41.743,20
112,Santpedor,1.837,41.783,28
55,Platja d'Aro,3.063,41.817,24
230,Sant Feliu de Guixols,3.03,41.784,94
112,La Bisbal D'emporda,3.038,41.961,66
55,Lloret de Mar,2.84,41.701,33
94,Blanes,2.785,41.676,66
79,Cassa de la Selva,2.875,41.888,79
24,Salt,2.792,41.973,20
55,Tossa de Mar,2.928,41.724,55
192,Santa Coloma de Farners,2.667,41.861,79
276,Ripoll,2.194,42.195,112
331,L'Escala,3.142,42.108,112
134,Torroella de Montgri,3.128,42.042,55
24,Roses,3.185,42.253,20
331,Figueres,2.961,42.265,230
94,Alcarras,0.523,41.565,66
1183,Lleida,0.629,41.62,822
276,Almacelles,0.439,41.729,112
276,Guissona,1.29,41.784,94
476,Tarrega,1.14,41.648,192
112,Cervera,1.273,41.672,79
160,Mollerussa,0.892,41.627,134
331,Balaguer,0.807,41.789,134
230,Les Borges Blanques,0.87,41.518,79
276,Solsona,1.519,41.994,192
160,Amurrio,-2.999,43.053,66
276,Vitoria-Gasteiz,-2.679,42.85,276
331,Laudio/Llodio,-2.965,43.141,66
79,Akartegi,-1.798,43.371,24
94,Andoain,-2.021,43.218,33
46,Elgoibar,-2.412,43.217,46
55,Irun,-1.799,43.339,55
79,Zumaia,-2.256,43.294,46
39,Urnieta,-1.991,43.247,20
94,Hernani,-1.975,43.268,33
192,Zarautz,-2.168,43.284,134
33,Azkoitia,-2.307,43.177,24
134,Azpeitia,-2.266,43.181,66
134,Arrasate/Mondragon,-2.49,43.065,94
66,Legazpi,-2.334,43.053,24
79,Bergara,-2.413,43.116,55
39,Lazkao,-2.185,43.032,20
55,Aretxabaleta,-2.505,43.033,24
79,Onati,-2.413,43.033,39
160,Los Corrales de Buelna,-4.066,43.262,66
24,Tanos,-4.041,43.334,20
986,Reinosa,-4.137,43,276
192,Santona,-3.454,43.443,134
33,El Astillero,-3.816,43.398,20
24,Muriedas,-3.852,43.42,20
24,Penacastillo,-3.856,43.443,20
33,Cueto,-3.802,43.481,20
79,Laredo,-3.428,43.409,28
24,San Roman,-3.861,43.468,20
230,Castro-Urdiales,-3.216,43.376,112
134,Pola de Laviana,-5.562,43.245,55
685,La Pola,-5.827,43.158,66
33,Corredoria,-5.82,43.386,20
134,Grau/Grado,-6.072,43.385,112
33,Las Vegas/Les Vegues,-5.899,43.536,20
2042,Gijon,-5.67,43.53,1419
192,Llangreu/Langreo,-5.677,43.293,94
24,L'Entregu/El Entrego,-5.64,43.287,20
331,Ordes,-8.403,43.079,134
28,Perillo,-8.374,43.335,20
94,A Baiuca,-8.509,43.304,66
192,Betanzos,-8.207,43.277,94
331,As Pontes de Garcia Rodriguez,-7.86,43.452,192
46,A Coruna,-8.409,43.365,20
39,Boiro de Arriba,-8.884,42.647,39
94,Santa Uxia de Ribeira,-8.993,42.558,94
331,Santiago de Compostela,-8.539,42.879,331
55,O Milladoiro,-8.578,42.845,28
66,Bertamirans,-8.649,42.863,39
192,Burela,-7.362,43.661,134
230,Ribadeo,-7.044,43.536,160
986,Lugo,-7.556,43.011,397
331,Monforte de Lemos,-7.511,42.522,230
571,Sarria,-7.411,42.779,192
276,Lalin,-8.11,42.66,192
79,O Porrino,-8.616,42.16,66
192,Tui,-8.644,42.049,79
276,O Carballino,-8.076,42.432,112
33,A Valenza,-7.881,42.317,20
986,Verin,-7.434,41.941,331
94,Can Picafort,3.147,39.767,66
134,Sa Pobla,3.023,39.769,79
94,Pollenca,3.017,39.877,66
24,Alcudia,3.121,39.853,20
24,Platja d'Alcudia,3.113,39.83,20
822,Mao,4.263,39.887,685
55,Puerto de Pollenca,3.081,39.908,39
134,Campos,3.017,39.432,79
276,Manacor,3.208,39.57,192
112,Porto Cristo,3.341,39.545,79
134,Felanitx,3.148,39.47,79
230,Inca,2.911,39.719,160
55,Binissalem,2.844,39.688,46
134,Santa Ponca,2.473,39.503,79
46,Sant Agusti,2.598,39.552,33
33,Son Ferriol,2.715,39.574,20
39,Lloseta,2.868,39.719,24
134,Santa Maria del Cami,2.775,39.649,46
33,Sa Vileta-Son Rapinya,2.616,39.592,20
55,Es Coll De'n Rabassa,2.696,39.552,28
192,Andratx,2.419,39.573,55
331,San Sebastian de la Gomera,-17.114,28.089,276
24,Anaza,-16.298,28.424,24
33,Puerto de la Cruz,-16.554,28.414,20
66,Guimar,-16.41,28.317,39
79,San Isidro,-16.557,28.078,79
160,Tejina,-16.361,28.533,46
79,San Cristobal de la Laguna,-16.318,28.49,28
24,Playa del Ingles,-15.573,27.758,20
24,Playa de Arinaga,-15.39,27.858,24
46,Cruce de Arinaga,-15.43,27.878,20
397,Gran Tarajal,-14.021,28.214,192
822,Puerto del Rosario,-13.861,28.499,331
94,San Bartolome,-13.61,29.001,24
28,Playa Honda,-13.59,28.954,28
24,Argana Alta,-13.568,28.98,20
331,Corralejo,-13.868,28.74,160
66,Puerto del Carmen,-13.666,28.923,66
55,Tias,-13.653,28.953,20
66,Costa Teguise,-13.493,28.999,46
66,Valle de Jinamar,-15.419,28.033,28
24,Tamaraceite,-15.474,28.1,24
24,Las Palmas de Gran Canaria,-15.43,28.119,20
33,Navalquejigo,-4.055,40.602,28
24,La Perdoma,-16.55,28.378,20
24,La Matanza de Acentejo,-16.449,28.451,24
33,Chauchina,-3.773,37.197,20
79,O Temple,-8.354,43.316,20
33,Orio,-2.125,43.281,24
66,Campo Real,-3.377,40.34,39
55,La Montana,-3.598,40.06,24
28,Carbajosa de la Sagrada,-5.649,40.933,20
46,Benejuzar,-0.837,38.077,33
66,Bigastro,-0.898,38.061,24
46,Dolores,-0.767,38.137,20
39,Cox,-0.891,38.142,20
55,Callosa de Segura,-0.876,38.125,46
28,Redovan,-0.907,38.115,20
66,Almoradi,-0.791,38.11,66
160,Albatera,-0.871,38.18,46
79,Aspe,-0.768,38.343,33
79,Crevillent,-0.808,38.249,79
134,El Pinos/Pinoso,-1.04,38.401,134
66,Monovar/Monover,-0.837,38.437,33
160,Villena,-0.863,38.636,134
79,Cocentaina,-0.438,38.74,33
79,Muro de Alcoy,-0.437,38.781,33
28,Alicante,-0.49,38.358,20
28,Guardamar del Segura,-0.653,38.086,28
24,Torrevieja,-0.676,37.985,20
192,Santa Pola,-0.552,38.195,79
33,Monforte del Cid,-0.726,38.38,24
230,Jijona/Xixona,-0.506,38.538,79
55,San Vicente del Raspeig/Sant Vicent del Raspeig,-0.522,38.396,33
160,Ibi,-0.574,38.623,66
79,Castalla,-0.671,38.596,66
55,Gran Alacant,-0.518,38.223,24
79,Torrellano,-0.587,38.293,39
33,Villajoyosa/La Vila Joiosa,-0.227,38.51,33
79,Ondara,0.021,38.825,55
79,Callosa d'en Sarria,-0.121,38.651,46
66,Pedreguer,0.035,38.794,24
134,Benissa,0.053,38.716,55
112,Javea/Xabia,0.164,38.789,46
66,Coloma,-0.134,38.58,33
66,La Nucia,-0.126,38.615,28
476,Adra,-3.016,36.749,134
192,Berja,-2.945,36.846,66
331,Albox,-2.141,37.385,134
276,Velez-Rubio,-2.075,37.649,160
230,Huercal-Overa,-1.945,37.395,192
397,Vera,-1.866,37.247,134
160,Garrucha,-1.822,37.18,55
276,Almerimar,-2.805,36.708,55
33,Santa Maria del Aguila,-2.774,36.784,24
55,Las Norias de Daza,-2.741,36.757,24
28,La Mojonera,-2.682,36.753,28
55,Roquetas de Mar,-2.611,36.762,20
46,Aguadulce,-2.57,36.816,39
28,La Fuensanta-Villa Ines,-2.442,36.871,20
66,Huercal de Almeria,-2.441,36.884,24
33,La Canada de San Urbano,-2.407,36.84,24
134,Retamar,-2.308,36.835,94
46,San Isidro de Nijar,-2.173,36.909,28
276,Carboneras,-1.895,36.998,134
192,Lebrija,-6.076,36.919,160
134,Las Cabezas de San Juan,-5.937,36.983,94
230,Dos Hermanas,-5.926,37.281,79
112,Quinto,-5.93,37.335,46
66,Valdezorras,-5.925,37.43,33
230,Utrera,-5.777,37.185,94
46,Mairena del Alcor,-5.75,37.373,46
24,El Viso del Alcor,-5.72,37.389,20
24,La Rinconada,-5.98,37.486,24
192,San Jose de la Rinconada,-5.943,37.485,66
66,Alcala del Rio,-5.983,37.516,24
79,Burguillos,-5.965,37.583,46
112,Brenes,-5.87,37.549,55
33,Villaverde del Rio,-5.868,37.587,28
230,Montellano,-5.573,36.995,94
476,Moron de la Frontera,-5.452,37.122,192
134,Arahal,-5.544,37.261,94
160,Lora del Rio,-5.527,37.657,134
397,Cantillana,-5.823,37.611,39
134,Carmona,-5.646,37.47,134
94,Alcala de Guadaira,-5.84,37.341,66
5079,Sevilla,-5.972,37.388,2042
192,Pilas,-6.304,37.304,134
39,Almensilla,-6.112,37.31,28
39,La Puebla del Rio,-6.062,37.266,20
79,Coria del Rio,-6.053,37.288,46
33,Benacazon,-6.196,37.354,24
28,Bollullos de la Mitacion,-6.138,37.341,28
66,Palomares del Rio,-6.058,37.321,20
33,Mairena del Aljarafe,-6.062,37.345,20
24,Bormujos,-6.073,37.371,20
28,Villanueva del Ariscal,-6.147,37.397,20
28,Valencina de la Concepcion,-6.075,37.415,24
24,Gelves,-6.025,37.338,24
46,Santiponce,-6.042,37.434,24
55,La Algaba,-6.011,37.462,46
79,Aznalcollar,-6.268,37.52,79
112,Gerena,-6.155,37.531,66
46,Umbrete,-6.158,37.368,24
66,Camas,-6.035,37.401,28
24,Castilleja de la Cuesta,-6.056,37.386,20
39,Espartinas,-6.119,37.378,24
112,Sanlucar la Mayor,-6.2,37.386,79
112,Fuentes de Andalucia,-5.346,37.464,94
160,Osuna,-5.104,37.237,160
134,Pedrera,-4.894,37.225,55
160,Estepa,-4.878,37.292,79
79,Herrera,-4.847,37.363,55
55,Consuegra,-3.608,39.462,46
276,Illescas,-3.849,40.127,79
55,Esquivias,-3.764,40.105,46
66,Yuncos,-3.873,40.09,28
94,Sesena,-3.694,40.105,55
112,Arges,-4.055,39.805,46
79,Poligono Sta M de Benquerencia,-3.946,39.869,46
192,Mora,-3.774,39.684,134
134,Bargas,-4.019,39.94,55
112,Fuensalida,-4.209,40.051,55
397,Quintanar de la Orden,-3.038,39.594,134
397,Sonseca,-3.977,39.677,160
230,Torrijos,-4.28,39.982,134
192,Villacanas,-3.339,39.62,134
476,Toledo,-4.026,39.867,276
160,Yepes,-3.625,39.904,79
192,Ocana,-3.496,39.958,66
986,Zamora,-5.741,41.507,476
331,Toro,-5.394,41.524,192
46,Zaratan,-4.781,41.657,28
192,Tordesillas,-4.999,41.503,134
46,Arroyo de la Encomienda,-4.788,41.611,33
39,Cisterniga,-4.685,41.611,24
112,Laguna de Duero,-4.722,41.584,46
66,Tudela de Duero,-4.579,41.584,55
571,Medina del Campo,-4.914,41.307,192
986,Soria,-2.472,41.764,571
66,Grau I Platja,-0.169,39.008,24
192,Tavernes de la Valldigna,-0.264,39.073,66
192,Utiel,-1.204,39.569,79
276,Bunol,-0.789,39.421,134
66,Aldaia,-0.462,39.464,24
46,Betera,-0.459,39.591,39
66,Burjassot,-0.413,39.509,28
24,Xirivella,-0.429,39.465,20
28,San Francisco,-0.477,39.506,20
66,La Canada,-0.483,39.532,28
28,La Coma,-0.433,39.524,20
39,La Pobla de Vallbona,-0.549,39.593,28
66,Torrent,-0.47,39.433,46
55,Moncada,-0.395,39.546,28
46,Manises,-0.463,39.494,24
28,Benaguasil,-0.587,39.594,24
39,Chiva,-0.715,39.472,20
66,Vilamarxant,-0.626,39.569,28
24,Riba-roja de Turia,-0.566,39.545,24
46,Meliana,-0.347,39.528,24
33,Rafelbunol/Rafelbunyol,-0.336,39.589,20
46,Alboraya,-0.35,39.498,20
46,Sagunto/Sagunt,-0.269,39.68,28
331,El Puerto,-0.22,39.661,134
79,Pucol,-0.301,39.617,33
28,Almassera,-0.356,39.513,20
55,L'Alcudia,-0.504,39.196,28
66,Carcaixent,-0.447,39.121,24
134,Catarroja,-0.403,39.404,39
24,Guadassuar,-0.476,39.187,20
24,Silla,-0.41,39.363,24
24,Monte Vedat,-0.485,39.419,20
46,Paiporta,-0.416,39.427,20
55,Alginet,-0.469,39.264,33
66,Alberic,-0.521,39.117,46
112,Carlet,-0.521,39.227,46
24,Valencia,-0.37,39.47,20
986,Teruel,-1.105,40.342,571
986,Alcaniz,-0.131,41.05,397
276,Tarazona,-1.724,41.904,112
230,La Almunia de Dona Godina,-1.374,41.477,192
230,Calatayud,-1.642,41.351,230
94,Maria de Huerva,-0.994,41.54,46
160,Utebo,-0.998,41.71,55
94,La Puebla de Alfinden,-0.749,41.632,46
397,Zuera,-0.788,41.867,134
2450,Zaragoza,-0.894,41.65,1419
112,Cuarte de Huerva,-0.929,41.59,46
160,Alagon,-1.119,41.771,46
397,Tauste,-1.253,41.919,134
276,Ejea de los Caballeros,-1.133,42.127,276
230,Amposta,0.577,40.709,94
192,Sant Carles de la Rapita,0.587,40.616,79
230,La Senia,0.283,40.635,94
134,Alcanar,0.48,40.543,55
134,Deltebre,0.727,40.718,94
55,La Selva del Camp,1.139,41.213,46
331,Valls,1.249,41.288,94
55,Vila-seca,1.146,41.109,20
28,Campclar,1.202,41.116,20
33,Sant Pere I Sant Pau,1.253,41.139,20
134,Torredembarra,1.401,41.147,79
134,Reus,1.108,41.152,79
112,Salou,1.127,41.082,55
55,Cunit,1.618,41.201,55
94,L'Arboc,1.6,41.267,39
134,El Vendrell,1.532,41.218,112
192,Montblanc,1.16,41.374,79
46,Andra Mari,-3.028,43.369,20
112,Lekeitio,-2.504,43.364,39
55,Algorta,-3.007,43.349,24
112,Mungia,-2.841,43.353,66
24,Kukullaga,-2.883,43.251,20
55,Arizgoiti,-2.883,43.238,28
134,Amorebieta,-2.734,43.221,55
192,Ondarroa,-2.431,43.321,79
66,Portugalete,-3.021,43.318,28
24,Altzaga,-2.974,43.305,20
24,Astrabudua,-2.98,43.316,20
28,Ortuella,-3.055,43.311,20
79,Bilbao,-2.933,43.261,28
55,Balmaseda,-3.196,43.192,46
24,Ermua,-2.505,43.188,20
55,Arrigorriaga,-2.887,43.209,24
94,Elorrio,-2.541,43.129,39
5079,Melilla,-2.947,35.283,1183
39,Salteras,-6.11,37.419,20
39,Urbanizacion El Quinon,-3.666,40.128,20
46,El Senorio de Illescas,-3.832,40.154,20
160,Moia,2.096,41.81,79
46,Las Chafiras,-16.617,28.059,28
28,L'Hospitalet de L'infant,0.918,40.992,20
46,Palazuelo,-5.739,39.111,28
39,Vegas Altas,-5.562,39.13,39
112,Villarta de los Montes,-4.79,39.214,94
66,Peloche,-5.134,39.189,46
192,Valdecaballeros,-5.188,39.242,79
55,Castilblanco,-5.089,39.286,55
94,Helechosa de los Montes,-4.907,39.311,94
112,Fuenlabrada de los Montes,-4.934,39.133,66
192,Herrera del Duque,-5.049,39.168,134
66,Obando,-5.495,39.117,24
112,La Codosera,-7.172,39.208,112
230,Villar del Rey,-6.847,39.132,94
94,Cordobilla de Lacara,-6.435,39.148,55
134,Puebla de Obando,-6.625,39.176,134
112,La Roca de la Sierra,-6.69,39.108,55
192,Maguilla,-5.836,38.365,66
276,Campillo de Llerena,-5.831,38.501,134
160,Retamal de Llerena,-5.839,38.577,66
33,Higuera de la Serena,-5.741,38.645,33
134,Peraleda del Zaucejo,-5.564,38.474,66
33,La Nava,-5.398,38.678,20
66,Valle de la Serena,-5.797,38.702,66
66,Benquerencia de la Serena,-5.495,38.7,28
39,Malpartida de la Serena,-5.64,38.675,20
24,Esparragosa de la Serena,-5.605,38.649,24
66,Zalamea de la Serena,-5.658,38.652,66
134,Helechal,-5.362,38.674,66
112,Monterrubio de la Serena,-5.444,38.589,112
66,Quintana de la Serena,-5.668,38.739,66
33,Ahillones,-5.864,38.259,24
24,Valverde de Burguillos,-6.535,38.327,24
94,Valencia del Ventoso,-6.473,38.266,94
94,Medina de las Torres,-6.411,38.344,39
66,Bienvenida,-6.208,38.298,66
94,La Lapa,-6.518,38.453,46
160,Llera,-6.056,38.446,79
55,Ribera del Fresno,-6.238,38.551,55
112,Hornachos,-6.068,38.553,112
66,Palomas,-6.134,38.693,28
24,Casas de Reina,-5.969,38.202,20
66,Valverde de Llerena,-5.82,38.213,39
112,Berlanga,-5.828,38.282,94
55,Higuera de Llerena,-5.998,38.376,24
33,La Cardenchosa,-5.553,38.236,33
94,Granja de Torrehermosa,-5.598,38.309,55
55,Atalaya,-6.475,38.334,39
46,Alconera,-6.475,38.399,46
39,Calzadilla de los Barros,-6.312,38.299,39
94,Villagarcia de la Torre,-6.079,38.293,55
112,Valencia de las Torres,-6.003,38.404,39
230,Usagre,-6.167,38.354,39
94,Hinojosa del Valle,-6.184,38.483,66
134,Puebla de la Reina,-6.101,38.664,94
24,Puebla del Prior,-6.195,38.569,24
55,Puebla de Sancho Perez,-6.4,38.395,24
66,Villalba de los Barros,-6.509,38.613,24
79,Solana de los Barros,-6.538,38.725,66
55,San Marcos,-6.449,38.701,24
55,Manchita,-6.02,38.814,46
55,Mengabril,-5.932,38.936,24
66,Yelbes,-6.025,38.97,33
28,Entrerrios,-5.72,38.995,28
46,Valdehornillos,-5.976,39.058,28
33,Ruecas,-5.874,39.04,33
112,Vivares,-5.895,39.087,39
94,Rena,-5.808,39.054,46
112,Valdivia,-5.709,39.033,66
55,Gargaligas,-5.651,39.053,20
66,Los Guadalperales,-5.625,39.084,46
33,Acedera,-5.571,39.076,33
134,Orellana la Vieja,-5.535,39.007,55
46,Villar de Rena,-5.811,39.077,20
66,Zurbaran,-5.723,39.065,28
24,El Torviscal,-5.755,39.073,20
134,La Coronada,-5.669,38.919,55
94,La Haba,-5.802,38.919,39
55,Magacela,-5.733,38.896,39
46,Torremayor,-6.537,38.901,39
55,Lacara,-6.547,38.934,28
192,Torremejia,-6.376,38.789,66
33,Esparragalejo,-6.434,38.943,33
55,Alange,-6.245,38.785,24
46,Cristina,-6.098,38.837,20
33,El Vivero,-6.3,38.935,28
66,Valverde de Merida,-6.219,38.912,39
46,El Carrascalejo,-6.336,39.023,20
46,San Pedro de Merida,-6.186,38.95,28
66,Torrefresneda,-6.11,38.988,55
46,Aljucen,-6.33,39.045,39
39,Carmonita,-6.338,39.154,39
28,Zarza-Capilla,-5.156,38.807,28
160,Penalsordo,-5.113,38.819,79
66,Tamurejo,-4.946,38.991,33
39,Baterno,-4.91,38.956,28
55,Casas de Don Pedro,-5.331,39.105,55
134,Garbayuela,-4.998,39.05,55
476,Siruela,-5.048,38.978,112
94,Puebla de Alcocer,-5.256,38.986,39
192,Talarrubias,-5.233,39.036,134
94,Garlitos,-5.046,38.879,46
79,Sancti-Spiritus,-5.146,38.922,55
33,Risco,-5.122,38.911,20
276,Navalvillar de Pela,-5.467,39.091,160
33,Orellana de la Sierra,-5.497,39.031,28
94,Oliva de Merida,-6.122,38.791,55
46,Hernan Cortes,-5.931,39.027,46
79,Medellin,-5.957,38.963,46
160,Santa Amalia,-6.009,39.011,79
33,Conquista del Guadiana,-6.036,39.075,33
112,Valdetorres,-6.069,38.915,39
134,La Nava de Santiago,-6.504,39.063,112
112,La Zarza,-6.217,38.818,79
79,Don Alvaro,-6.273,38.848,33
55,Villagonzalo,-6.197,38.863,33
94,Trujillanos,-6.26,38.951,55
160,Mirandilla,-6.289,39.001,46
55,Proserpina,-6.357,38.966,39
94,Arroyo de San Servan,-6.452,38.855,46
79,La Garrovilla,-6.479,38.919,55
160,Zahinos,-6.955,38.331,46
46,La Bazana,-6.744,38.276,24
55,Valuengo,-6.712,38.304,33
33,Brovales,-6.683,38.349,33
276,Cheles,-7.281,38.511,134
79,Higuera de Vargas,-6.973,38.445,79
33,San Jorge de Alor,-7.055,38.645,33
94,Valverde de Leganes,-6.979,38.67,66
55,San Rafael de Olivenza,-7.053,38.72,28
134,San Francisco de Olivenza,-7.104,38.747,46
79,Rio Caya,-7.036,38.914,20
55,Dehesilla de Calamon,-6.95,38.821,20
28,Urbanizacion Tres Arroyos,-6.887,38.843,28
66,Corte de Peleas,-6.671,38.726,66
112,Alvarado,-6.79,38.809,55
39,Guadajira,-6.68,38.852,33
24,Urbanizacion los Montitos,-6.943,38.861,20
79,Gevora,-6.94,38.92,28
39,Sagrajas,-6.901,38.922,24
55,Balboa,-6.816,38.905,28
79,Novelda del Guadiana,-6.833,38.938,46
160,Valdebotoa,-6.923,38.967,33
33,Valdelacalzada,-6.7,38.889,33
24,Retamal,-6.629,38.737,24
28,Cortegana,-6.62,38.75,20
112,Lobon,-6.624,38.848,39
46,Barbano,-6.586,38.875,24
24,Pueblonuevo del Guadiana,-6.756,38.924,24
94,Valle de Santa Ana,-6.792,38.368,39
24,Valle de Matamoros,-6.805,38.378,20
112,Valencia del Mombuey,-7.119,38.243,112
112,Salvatierra de los Barros,-6.683,38.491,66
160,Villanueva del Fresno,-7.165,38.376,134
160,Alconchel,-7.07,38.516,66
46,Taliga,-7.013,38.528,39
66,San Benito de la Contienda,-7.157,38.632,46
331,Barcarrota,-6.847,38.515,134
46,Salvaleon,-6.785,38.51,39
66,Burguillos del Cerro,-6.59,38.379,66
46,Feria,-6.563,38.512,33
39,La Parra,-6.621,38.522,39
94,La Morera,-6.652,38.547,24
160,Santa Marta,-6.625,38.614,94
112,Nogales,-6.748,38.587,33
66,Torre de Miguel Sesmero,-6.796,38.618,66
79,La Albuera,-6.823,38.717,79
39,Alcazaba,-6.738,38.954,20
79,Guadiana del Caudillo,-6.69,38.928,28
24,La Pilara,-6.931,38.88,20
134,Fuentes de Leon,-6.539,38.068,94
134,Santa Maria de Nava,-6.082,38.016,55
94,Fuente del Arco,-5.896,38.152,55
230,Monesterio,-6.271,38.088,134
46,Calera de Leon,-6.335,38.106,39
112,Segura de Leon,-6.53,38.121,39
39,Higuera la Real,-6.688,38.141,28
66,Cabeza la Vaca,-6.421,38.086,66
112,Montemolin,-6.212,38.154,46
112,Puebla del Maestre,-6.078,38.084,79
79,Pallares,-6.15,38.112,39
94,Trasierra,-5.995,38.191,39
33,Reina,-5.949,38.188,20
94,Malcocinado,-5.691,38.123,66
66,Bodonal de la Sierra,-6.557,38.146,24
28,Cortijo de Merino,-7.109,38.699,20
112,Albala,-7.119,38.804,28
28,Cortijo de los Cuartos de Valhondo,-7.079,38.815,28
33,Cortijo de Santa Engracia,-7.012,38.941,33
39,Cantillana de Molano,-6.941,38.984,20
79,Cortijo del Guarda de la Peralta,-6.808,39.045,79
33,Los Fresnos,-6.682,38.908,20
55,Cortijo del Prado,-6.413,39.053,55
46,Cortijo del Barbancillo,-6.537,39.007,39
112,Cortijo de Castilrubio,-5.904,38.796,66
46,Casa de la Barca,-5.805,39.019,28
230,Alcuescar,-6.23,39.182,160
55,Arroyomolinos,-6.162,39.184,28
66,Albala,-6.187,39.256,28
66,Montanchez,-6.148,39.225,55
33,Torre de Santa Maria,-6.115,39.253,20
55,Alonso de Ojeda,-5.955,39.103,33
66,Valdemorales,-6.066,39.206,28
66,Zarza de Montanchez,-6.031,39.257,55
24,Robledillo de Trujillo,-5.98,39.269,24
160,Valdefuentes,-6.123,39.275,39
94,Torremocha,-6.172,39.346,39
46,Torrequemada,-6.22,39.366,20
230,Torreorgaz,-6.247,39.383,46
33,Benquerencia,-6.084,39.31,28
46,Salvatierra de Santiago,-6.031,39.303,33
66,Botija,-6.074,39.345,24
46,Ruanes,-6.012,39.328,20
55,Plasenzuela,-6.048,39.381,46
94,La Cumbre,-5.975,39.405,66
28,Escurial,-5.884,39.168,20
46,Casar de Miajadas,-5.837,39.122,33
79,Pizarro,-5.791,39.152,33
39,Villamesias,-5.873,39.245,39
94,Abertura,-5.813,39.244,46
112,Campo Lugar,-5.771,39.195,66
66,Alcollarin,-5.738,39.244,33
134,Ibahernando,-5.917,39.326,66
39,Puerto de Santa Cruz,-5.858,39.315,20
46,Santa Cruz de la Sierra,-5.845,39.336,46
39,Conquista de la Sierra,-5.734,39.35,20
192,Zorita,-5.698,39.286,112
94,Herguijuela,-5.759,39.373,39
134,Madronera,-5.756,39.424,66
94,Garciaz,-5.627,39.413,79
94,Santa Marta de Magasca,-6.098,39.511,94
276,Monroy,-6.209,39.637,134
160,Torrejon el Rubio,-6.011,39.77,66
28,Belen,-5.844,39.481,24
66,La Aldea del Obispo,-5.91,39.564,66
94,Aldeacentenera,-5.63,39.527,66
112,Berzocana,-5.461,39.437,55
160,Torrecillas de la Tiesa,-5.742,39.567,94
331,Jaraicejo,-5.813,39.665,94
112,Deleitosa,-5.645,39.644,66
24,Casas de Miravete,-5.743,39.727,24
46,Higuera,-5.666,39.726,20
112,Romangordo,-5.699,39.742,55
160,Madrigalejo,-5.626,39.138,94
397,Logrosan,-5.49,39.336,160
94,Canamero,-5.388,39.379,46
66,Roturas,-5.476,39.556,39
55,Robledollano,-5.506,39.609,55
160,Navezuelas,-5.438,39.51,66
192,Guadalupe,-5.325,39.452,112
94,Navalvillar de Ibor,-5.412,39.584,33
160,Fresnedoso de Ibor,-5.508,39.684,55
55,Campillo de Deleitosa,-5.573,39.703,39
33,Valdecanas de Tajo,-5.619,39.759,33
39,Mesas de Ibor,-5.545,39.755,39
230,Bohonal de Ibor,-5.484,39.784,55
134,Castanar de Ibor,-5.416,39.629,134
66,Peraleda de San Roman,-5.386,39.741,55
55,Garvin,-5.345,39.72,20
79,Alia,-5.217,39.448,66
55,Navatrasierra,-5.242,39.604,33
94,Carrascalejo,-5.216,39.648,46
66,Valdelacasa de Tajo,-5.281,39.725,55
112,Villar del Pedroso,-5.194,39.706,66
112,Mirabel,-6.23,39.864,46
160,Serradilla,-6.14,39.828,112
94,Serrejon,-5.801,39.817,79
66,Saucedilla,-5.677,39.853,28
55,Belvis de Monroy,-5.608,39.819,39
55,Millanes,-5.58,39.849,20
46,Valdehuncar,-5.523,39.837,33
112,Peraleda de la Mata,-5.46,39.853,46
79,Berrocalejo,-5.349,39.82,33
55,El Gordo,-5.343,39.865,46
134,Almaraz,-5.675,39.815,94
94,Almoharin,-6.043,39.176,79
79,Torrecilla de los Angeles,-6.415,40.248,66
94,Villanueva de la Sierra,-6.406,40.202,39
46,Santa Cruz de Paniagua,-6.339,40.192,33
112,Aceituna,-6.33,40.149,46
46,Palomero,-6.276,40.247,33
39,Marchagaz,-6.274,40.268,20
39,Casar de Palomero,-6.255,40.293,28
94,Descargamaria,-6.485,40.305,55
28,Robledillo de Gata,-6.47,40.322,20
230,Pinofranqueado,-6.33,40.303,112
24,Azabal,-6.298,40.298,20
33,Caminomorisco,-6.289,40.325,28
46,Fragosa,-6.298,40.398,33
46,La Moheda de Gata,-6.622,40.097,24
46,Puebla de Argeme,-6.453,39.983,46
55,Las Huertas de Cansa,-7.274,39.35,46
160,Santiago de Alcantara,-7.243,39.605,112
94,Piedras Albas,-6.925,39.784,66
397,Cedillo,-7.498,39.651,160
79,Herrera de Alcantara,-7.404,39.638,55
571,Membrio,-7.053,39.527,112
94,Salorino,-7.007,39.478,46
79,Herreruela,-6.906,39.462,55
192,Alcantara,-6.884,39.713,94
66,Hinojal,-6.356,39.709,46
160,Aliseda,-6.692,39.423,79
79,Rincon de Ballesteros,-6.392,39.196,33
46,Casas de Don Antonio,-6.289,39.236,46
94,Aldea del Cano,-6.319,39.289,66
66,Valdesalor,-6.348,39.378,55
112,Sierra de Fuentes,-6.272,39.439,55
112,Villa del Rey,-6.82,39.659,46
66,Casas de Don Gomez,-6.6,40.009,28
230,Brozas,-6.778,39.612,134
46,Mata de Alcantara,-6.817,39.717,39
55,Malpartida de Caceres,-6.508,39.445,39
94,Casar de Caceres,-6.417,39.559,79
134,Cilleros,-6.788,40.112,79
476,Garrovillas de Alconetar,-6.548,39.711,134
66,Santiago del Campo,-6.363,39.629,46
66,Talavan,-6.281,39.715,66
230,Ceclavin,-6.771,39.822,112
134,Zarza la Mayor,-6.861,39.877,55
112,Acehuche,-6.632,39.803,79
66,Pescueza,-6.644,39.918,39
46,Casillas de Coria,-6.635,39.965,46
39,Huelaga,-6.616,40.057,20
66,Portezuelo,-6.474,39.812,46
46,Pedroso de Acim,-6.411,39.825,28
79,Portaje,-6.56,39.918,55
112,Canaveral,-6.391,39.791,94
55,Casas de Millan,-6.327,39.816,46
39,Holguera,-6.349,39.899,33
33,Valdencin,-6.408,39.915,33
79,Casares de las Hurdes,-6.286,40.44,33
94,Riolobos,-6.303,39.92,94
24,Rincon del Obispo,-6.491,39.965,24
94,Calzadilla,-6.531,40.059,46
55,Guijo de Coria,-6.463,40.101,28
112,El Batan,-6.377,39.972,39
94,Morcillo,-6.396,40.018,39
24,Valrio,-6.37,40.011,20
94,Galisteo,-6.265,39.976,39
33,Guijo de Galisteo,-6.409,40.094,33
94,Villamiel,-6.784,40.187,20
46,San Martin de Trevejo,-6.795,40.211,28
476,Valverde del Fresno,-6.877,40.221,160
28,Eljas,-6.843,40.212,20
94,Perales del Puerto,-6.681,40.156,66
46,Hoyos,-6.719,40.171,20
46,Acebo,-6.716,40.202,24
28,Villasbuenas de Gata,-6.626,40.178,28
33,Torre de Don Miguel,-6.576,40.225,20
66,Santibanez el Alto,-6.546,40.185,33
46,Villa del Campo,-6.427,40.141,46
39,Hernan-Perez,-6.463,40.213,33
55,Vegaviana,-6.717,40.041,46
192,Torrejoncillo,-6.466,39.897,79
112,Gata,-6.595,40.238,66
28,Alagon del Rio,-6.316,39.974,28
112,Navas del Madrono,-6.653,39.621,79
66,Aldehuela de Jerte,-6.238,40.012,24
55,Valdeobispo,-6.247,40.083,33
94,Carcaboso,-6.214,40.05,79
112,Malpartida de Plasencia,-6.044,39.979,55
66,Oliva de Plasencia,-6.085,40.112,55
79,Toril,-5.779,39.897,33
134,Majadas,-5.746,39.943,94
94,Casatejada,-5.681,39.887,55
55,Tejeda de Tietar,-5.868,40.019,33
79,Valdeinigos,-5.856,39.962,46
39,Garguera,-5.927,40.061,33
28,Casas del Castanar,-5.904,40.108,28
55,Barrado,-5.88,40.085,20
28,Pasaron de la Vera,-5.82,40.051,28
134,Piornal,-5.847,40.116,55
55,Robledillo de la Vera,-5.587,40.101,20
55,Garganta la Olla,-5.776,40.11,39
33,Cuacos de Yuste,-5.723,40.104,33
160,Ahigal,-6.187,40.19,94
24,Guijo de Granadilla,-6.163,40.193,20
39,Cerezo,-6.227,40.236,24
79,La Pesga,-6.176,40.327,79
79,Mohedas de Granadilla,-6.202,40.269,39
33,Cabezabellosa,-6.002,40.137,33
79,El Torno,-5.944,40.136,55
46,Jarilla,-6.002,40.172,28
79,Casas del Monte,-5.961,40.203,46
79,Zarza de Granadilla,-6.048,40.235,79
24,La Granja,-5.995,40.238,20
39,Segura de Toro,-5.947,40.224,20
33,Abadia,-5.976,40.259,28
55,Cambroncino,-6.237,40.342,33
79,Nunomoral,-6.245,40.407,55
66,Vegas de Coria,-6.184,40.384,33
33,Ladrillar,-6.223,40.466,33
46,Valdastillas,-5.878,40.133,20
39,Rebollar,-5.898,40.154,20
230,Cabezuela del Valle,-5.805,40.192,66
24,Gargantilla,-5.919,40.248,20
28,Aldeanueva del Camino,-5.93,40.259,28
192,Hervas,-5.861,40.272,79
112,Jarandilla de la Vera,-5.657,40.127,66
55,Guijo de Santa Barbara,-5.654,40.153,20
46,Jerte,-5.75,40.222,39
94,Tornavacas,-5.688,40.255,46
94,Banos de Montemayor,-5.857,40.318,33
33,Santa Maria de las Lomas,-5.57,40.011,24
79,Tietar,-5.483,40.03,33
28,Losar de la Vera,-5.603,40.121,28
112,Rosalejo,-5.457,39.995,66
24,Barquilla de Pinares,-5.438,40.052,24
24,La Barquilla,-5.446,40.063,20
94,Pueblonuevo de Miramontes,-5.377,40.06,55
79,Villanueva de la Vera,-5.462,40.13,79
39,Madrigal de la Vera,-5.367,40.148,39
24,Casa de la Pradera,-6.528,40.001,20
39,Valdeolivos,-6.057,40.021,20
66,Cardenilla,-5.757,39.989,39
79,Caserio de Robledo del Tejar,-5.534,40.075,28
55,Caserio de Mesa Llana,-5.446,40.16,24
33,Casas del Guarda,-5.389,40.186,28
33,Finca de Pedro Fernandez,-5.421,40.083,20
33,Torreon de los Mogollones,-6.448,39.376,33
46,Casa de Traballa,-6.488,39.488,33
28,Playa Isla de Canela,-7.371,37.174,28
66,La Antilla,-7.212,37.208,33
33,Pinares de Lepe,-7.214,37.226,20
79,Sanlucar de Guadiana,-7.465,37.473,39
79,El Granado,-7.416,37.521,79
160,Villanueva de los Castillejos,-7.271,37.499,94
134,San Bartolome de la Torre,-7.104,37.445,79
24,Dehesa Golf,-7.011,37.284,20
571,Paymogo,-7.344,37.741,112
276,Puebla de Guzman,-7.247,37.613,160
55,Villanueva de las Cruces,-7.023,37.628,55
192,Calanas,-6.878,37.653,79
24,Lucena del Puerto,-6.728,37.304,24
79,Niebla,-6.679,37.363,33
66,La Zarza,-6.855,37.714,46
46,Cueva de la Mora,-6.801,37.78,46
55,Zalamea la Real,-6.658,37.679,55
46,La Dehesa,-6.582,37.713,20
230,Campofrio,-6.573,37.767,66
79,Almonaster la Real,-6.787,37.873,33
28,Los Romeros,-6.748,37.894,28
24,Linares de la Sierra,-6.62,37.88,20
24,Los Marines,-6.621,37.903,24
33,La Redondela,-7.27,37.222,33
55,Alajar,-6.66,37.876,24
55,Fuenteheridos,-6.66,37.904,28
46,Nuevo Portil,-7.062,37.217,33
66,El Rompido,-7.124,37.222,46
28,El Rincon,-7.049,37.248,20
28,Las Herrerias,-7.293,37.61,28
24,Pozo del Camino,-7.316,37.225,20
160,Santa Barbara de Casa,-7.188,37.797,112
94,San Silvestre de Guzman,-7.348,37.388,66
55,Alosno,-7.115,37.548,55
46,El Pintado,-6.901,37.379,39
66,Montes de San Benito,-7.071,37.681,39
79,Cabezas Rubias,-7.086,37.727,66
160,El Cerro de Andevalo,-6.937,37.734,79
66,San Telmo,-6.966,37.795,55
79,Candon,-6.739,37.391,33
79,Beas,-6.792,37.427,33
192,Cortegana,-6.82,37.911,160
79,Valdelamusa,-6.879,37.787,46
66,Tharsis,-7.121,37.602,46
94,Sotiel Coronada,-6.85,37.602,46
160,Villablanca,-7.342,37.303,55
39,Villarrasa,-6.606,37.388,33
112,Patras,-6.703,37.802,55
66,Concepcion,-6.675,37.776,24
39,Veredas,-6.829,37.884,20
33,Santa Ana la Real,-6.723,37.864,33
112,Torre de la Higuera O Matalascanas,-6.556,37.005,112
33,Villalba del Alcor,-6.475,37.397,33
28,Manzanilla,-6.432,37.39,24
55,Chucena,-6.392,37.363,39
46,La Granada de Rio-Tinto,-6.508,37.769,39
46,Zufre,-6.341,37.833,46
79,Valdezufre,-6.493,37.866,24
230,Santa Olalla del Cala,-6.228,37.907,160
276,El Rocio,-6.481,37.134,94
94,Higuera de la Sierra,-6.446,37.836,66
24,La Umbria,-6.458,37.861,20
55,Corteconcepcion,-6.503,37.895,39
66,Hinojos,-6.38,37.291,46
94,Berrocal,-6.541,37.608,66
79,Cumbres de San Bartolome,-6.741,38.078,46
55,Cumbres Mayores,-6.644,38.062,55
28,Cumbres de Enmedio,-6.692,38.073,28
55,Canaveral de Leon,-6.527,38.015,46
46,Hinojales,-6.588,38.008,39
79,Arroyomolinos de Leon,-6.421,38.024,46
397,Rosal de la Frontera,-7.22,37.967,160
112,Aroche,-6.952,37.944,79
39,La Corte,-6.831,37.953,20
39,El Repilado,-6.769,37.927,33
79,Galaroza,-6.711,37.926,66
79,Cortelazor,-6.624,37.935,24
46,Carboneras,-6.543,37.918,20
33,Castanuelos,-6.58,37.937,20
160,Cala,-6.315,37.971,66
94,Las Cefinas,-6.858,37.968,46
79,La Nava,-6.743,37.962,24
39,Valdelarco,-6.682,37.95,24
160,Encinasola,-6.871,38.137,112
46,Casa del Mellizo,-7.287,37.29,33
39,Casas de Fotea,-7.358,37.223,24
24,Mirador del Guadiana,-7.407,37.227,20
46,Malpica,-7.132,37.265,20
46,La Ribera,-6.904,37.316,33
46,Casa del Chorrillo,-6.788,37.232,46
24,Los Espinos,-6.679,37.302,20
24,El Gimon,-6.97,37.386,20
94,Casas de la Bomba,-7.039,37.408,39
28,Casa de la Rehoya,-6.597,37.335,24
46,Cortijo de la Parrilla,-6.489,37.309,33
94,La Palmosa,-6.462,37.183,39
55,Cortijo de Arroyo Sequillo,-6.556,37.963,39
192,Argallon,-5.483,38.202,46
79,El Hoyo,-5.292,38.246,46
46,La Coronada,-5.491,38.254,39
192,Los Blazquez,-5.438,38.407,112
46,Porvenir de la Industria,-5.331,38.316,39
94,La Granjuela,-5.351,38.371,46
55,Valsequillo,-5.352,38.406,28
66,Villanueva del Rey,-5.151,38.198,66
46,Fuente la Lancha,-5.047,38.422,28
46,Villanueva del Duque,-4.998,38.394,46
160,Belalcazar,-5.166,38.575,66
66,Anora,-4.897,38.411,28
46,Villaralto,-4.983,38.455,24
94,El Viso,-4.954,38.484,94
112,Santa Eufemia,-4.903,38.597,79
94,Dos Torres,-4.895,38.445,39
79,Pedroche,-4.762,38.428,55
160,El Guijo,-4.782,38.496,55
79,Torrecampo,-4.677,38.474,55
134,Conquista,-4.5,38.409,94
160,Venta del Charco,-4.278,38.204,55
192,Cardena,-4.325,38.273,160
112,Azuel,-4.327,38.326,39
79,Fuente Obejuna,-5.419,38.267,79
94,Belmez,-5.207,38.271,33
331,Villaviciosa de Cordoba,-5.015,38.075,192
134,Adamuz,-4.521,38.027,46
46,Santa Maria de Trassierra,-4.899,37.928,39
55,Dona Manuela,-4.756,37.934,33
230,Cerro Muriano,-4.768,38.004,55
24,Barriada del Angel,-4.656,37.926,20
66,Villafranca de Cordoba,-4.545,37.963,66
55,El Carpio,-4.495,37.941,28
33,Pedro Abad,-4.456,37.966,28
46,Algallarin,-4.455,38,28
66,Las Jaras,-4.842,37.97,46
24,Penatejada,-4.756,37.923,20
24,El Sol,-4.671,37.949,20
39,Encinas Reales,-4.488,37.274,33
39,Navas del Selpillar,-4.587,37.42,20
112,Moriles,-4.608,37.436,66
66,Monturque,-4.58,37.472,24
33,El Fontanar,-4.802,37.559,24
46,Montalban de Cordoba,-4.748,37.581,20
39,Fuente del Conde,-4.302,37.207,24
55,Montemayor,-4.698,37.648,20
33,Llano del Espinar,-4.523,37.562,33
55,Iznajar,-4.308,37.257,55
46,La Celada,-4.306,37.278,20
55,La Montiela,-4.918,37.524,55
55,La Mina,-4.782,37.342,24
24,Ribera Alta,-4.769,37.376,20
66,Cordobilla,-4.728,37.359,24
39,Ribera Baja,-4.799,37.404,20
33,Palenciana,-4.581,37.248,28
33,El Tejar,-4.543,37.238,24
112,Benameji,-4.54,37.269,79
66,El Higueral,-4.256,37.317,28
134,Las Lagunillas,-4.248,37.355,55
94,Zambra,-4.384,37.385,28
28,El Nacimiento,-4.383,37.399,20
55,Carcabuey,-4.274,37.443,46
33,Zuheros,-4.314,37.543,24
24,La Concepcion,-4.154,37.452,24
33,El Esparragal,-4.214,37.502,33
39,Zamoranos,-4.163,37.526,20
66,La Fuente Grande,-4.093,37.41,24
39,Sileras,-4.065,37.462,20
39,Castil de Campos,-4.141,37.491,20
134,Fuente-Tojar,-4.145,37.51,46
33,Luque,-4.278,37.558,33
55,Zagrilla Baja,-4.234,37.479,20
112,Dona Mencia,-4.356,37.554,46
55,Almedinilla,-4.093,37.44,55
24,La Guijarrosa,-4.863,37.637,24
160,Santaella,-4.843,37.562,66
39,Campo de Aras,-4.476,37.363,33
94,Santa Cruz,-4.633,37.734,55
79,Espejo,-4.553,37.679,46
55,Estacion de Obejo,-4.79,38.027,20
79,Ochavillo del Rio,-5.131,37.756,33
24,El Negrete,-4.83,37.928,24
46,Chalets Baldio,-5.292,37.729,24
28,Cespedes,-5.255,37.756,20
55,Mesas del Guadalora,-5.238,37.773,46
46,Bembezar del Caudillo,-5.236,37.795,20
39,Veredon El Mohino,-5.219,37.732,24
46,Villalon,-5.137,37.733,20
39,Canada del Rabadan,-5.081,37.662,33
55,Fuente Carreteros,-5.155,37.671,39
24,Silillos,-5.127,37.694,20
55,Pueblo Calonge,-5.375,37.672,24
55,Penalosa,-5.084,37.732,20
39,Fuencubierta,-4.988,37.709,24
55,Chica-Carlota,-4.949,37.697,24
33,La Paz,-4.923,37.657,20
55,Quintana,-4.865,37.711,24
55,La Victoria,-4.852,37.681,55
28,San Sebastian de los Ballesteros,-4.823,37.653,24
94,Guadalcazar,-4.942,37.758,46
33,Campinuela Baja,-4.738,37.909,20
112,Albendin,-4.238,37.669,66
192,Valenzuela,-4.219,37.775,79
55,Canete de las Torres,-4.318,37.867,33
112,Hornachuelos,-5.245,37.835,79
24,Urbanizacion Las Lomas del Rey,-4.942,37.683,20
28,La Golondrina,-4.864,37.85,20
46,El Higueron,-4.849,37.867,39
55,Las Quemadillas,-4.721,37.896,33
24,El Alcaide,-4.819,37.859,20
160,La Cardenchosa,-5.348,38.146,79
66,Ojuelos Altos,-5.356,38.181,28
46,Posadilla,-5.277,38.189,46
230,Espiel,-5.019,38.189,94
94,Villaharta,-4.903,38.14,66
79,Obejo,-4.798,38.132,66
46,Venta de Armijo,-4.329,38.012,28
112,Madronal,-4.364,38.08,46
112,La Parrilla,-4.526,38.085,46
79,Casas del Membrillar,-5.117,37.838,28
33,Cierzos y Cabreras,-4.262,37.282,20
39,El Adelantado,-4.345,37.22,28
79,Navas de Mingo Rubio,-4.559,37.329,39
39,Cortijo del Contadero,-4.529,37.381,33
66,Arroyuelos,-4.426,37.413,39
55,La Retamosa,-4.507,37.463,46
55,Jarata,-4.685,37.556,33
39,La Salud,-4.678,37.61,24
39,Riofrio,-4.562,37.517,33
39,Dos Hermanas,-4.614,37.655,39
39,El Privilegio,-4.763,37.639,28
24,Casa de los Cortijillos,-4.948,37.712,20
28,El Temple,-4.972,37.806,28
46,Cortijo de la Veguilla,-4.901,37.822,20
46,Cortijo de Las Pitas,-4.745,37.96,20
66,Adalid,-4.358,37.711,66
79,La Sierra,-4.258,37.706,33
33,Las Puertas,-4.23,37.757,20
24,La Armada,-4.446,37.602,20
39,Las Navas,-4.104,37.39,20
39,Campo Real,-4.703,37.4,39
55,Cantarranas,-5.884,36.314,33
46,Los Canos de Meca,-6.009,36.187,20
24,Roche,-6.146,36.316,20
24,Melilla,-6.153,36.363,20
33,La Coquina,-6.188,36.416,20
46,La Muela,-5.985,36.27,20
55,San Andres Golf,-6.11,36.353,24
39,Barriada El Marquesado,-6.117,36.471,20
66,Los Naveros,-5.977,36.358,46
28,Malcocinado,-5.867,36.359,20
46,Poblado Naval,-6.288,36.616,33
24,Los Gallos-Cerromolino,-6.172,36.4,20
24,Pago del Humo,-6.108,36.399,20
55,Valdelagrana,-6.22,36.578,20
28,Barriada Torre Alta,-6.152,36.524,20
66,Barrio de Jarana,-6.142,36.502,28
24,El Carmen,-6.263,36.608,20
24,Las Vinas,-6.22,36.59,20
39,La Caridad,-6.22,36.624,20
24,Dona Blanca-Poblado,-6.165,36.616,24
39,El Portal,-6.132,36.637,24
94,La Algaida,-6.318,36.831,20
39,Mesas de Asta,-6.173,36.79,39
66,La Barrosa,-6.184,36.376,20
24,Las Veguetas,-6.149,36.376,24
33,Pastrana,-6.34,36.762,20
33,El Mojo,-6.016,36.579,33
39,Lomopardo,-6.082,36.654,24
24,Estella del Marques,-6.076,36.685,24
39,La Ina,-6.029,36.636,33
33,El Torno,-5.969,36.62,20
66,Cuartillos,-6.02,36.676,33
79,Torrecera,-5.941,36.609,28
112,La Barca de la Florida,-5.934,36.647,79
39,Jose Antonio,-5.905,36.671,24
24,Junta de los Rios,-5.859,36.697,24
39,Guadalcacin,-6.086,36.715,28
39,Torre Melgarejo,-6.031,36.716,33
112,Nuevajarilla,-6.031,36.759,39
94,Gibalbin,-5.924,36.828,66
28,Residencial Cerro Mulera,-5.454,36.659,20
28,El Lentiscal,-5.763,36.084,28
192,Facinas,-5.698,36.143,112
94,El Pelayo,-5.496,36.081,39
79,Castillo de Castellar,-5.453,36.317,28
55,Alcornocalejo,-5.803,36.654,39
28,La Perdiz,-5.707,36.686,20
79,Algar,-5.655,36.657,79
55,Las Abiertas,-5.701,36.745,33
94,Espera,-5.805,36.872,55
79,Barriada de Fatima,-5.735,36.913,55
28,Coto de Bornos,-5.692,36.851,28
79,El Bosque,-5.505,36.758,28
33,Benamahoma,-5.465,36.764,28
79,Jedula,-5.93,36.724,55
160,San Jose del Valle,-5.799,36.605,55
24,Barriada Meadero de la Reina,-6.137,36.491,20
33,Puente la Guarena,-5.977,36.668,24
79,El Palmar,-6.067,36.234,39
66,Zahara de los Atunes,-5.843,36.135,55
94,Tahivilla,-5.755,36.184,39
46,Atlanterra,-5.826,36.113,20
28,Palmones,-5.434,36.176,20
24,Estacion Ferrea,-5.433,36.215,20
46,Base Naval,-6.33,36.637,24
66,Costa Ballena,-6.414,36.691,33
46,Los Franceses-La Vega,-6.125,36.452,24
33,Cortijillos,-5.439,36.19,20
79,Setenil de las Bodegas,-5.182,36.863,33
46,Torre Alhaquime,-5.233,36.916,20
39,Puente Mayorga,-5.384,36.182,20
94,Castellar de la Frontera,-5.418,36.287,66
46,Guadiaro,-5.303,36.3,33
33,San Martin del Tesorillo,-5.32,36.341,33
46,Benaocaz,-5.421,36.701,20
28,Villaluenga del Rosario,-5.384,36.697,24
112,Grazalema,-5.368,36.759,66
79,La Muela,-5.41,36.928,39
79,Zahara,-5.391,36.841,33
79,El Gastor,-5.322,36.855,46
28,Montenegral,-5.356,36.326,24
33,Santa Margarita,-5.344,36.213,28
24,Taraguilla,-5.423,36.206,24
39,Sotogrande,-5.302,36.282,20
24,Torreguadiaro,-5.274,36.295,20
66,San Pablo de Buceite,-5.412,36.467,28
55,La Hacienda,-5.322,36.239,20
39,Anina-Polila,-6.212,36.716,39
33,Cortijo de la Vina del Telegrafo,-6.127,36.727,24
39,Cortijo de la Zangarriana,-6.064,36.773,20
46,Las Quinientas,-6.095,36.622,20
24,La Greduela,-6.052,36.649,20
24,Cortijo de San Jose,-6.31,36.717,20
46,Cortijo de Cabeza Alcaide,-6.237,36.798,24
55,Cortijo Viejo de Monteagudo,-6.22,36.829,33
94,Cortijo de la Atalaya,-6.313,36.705,55
46,Rancho de la Doctora,-6.222,36.657,24
46,Cortijo de la Dehesa de las Yeguas,-6.129,36.551,39
39,Casas del Berrueco,-6.035,36.452,33
24,Los Molinos,-5.922,36.451,20
79,Cortijo de la Huerta Perdida,-5.884,36.37,39
46,Casas de Libreros,-5.916,36.285,24
33,El Varelo,-5.887,36.249,33
33,Patria,-6.019,36.273,20
66,San Ambrosio,-5.998,36.215,24
39,La Florida,-6.075,36.311,24
94,Cortijo del Torero,-6.127,36.321,39
55,Cortijo Nuevo de la Mesa,-6.06,36.403,33
33,Cortijo de la Dehesa de las Yeguas,-5.813,36.366,20
33,Cortijo de la Cantarera,-5.898,36.739,24
46,Los Majadales,-5.812,36.705,39
79,Finca de la Merced,-5.732,36.696,46
39,Caserio de las Anderas,-5.716,36.78,28
24,Casa de las Villalbas,-5.809,36.717,20
39,Toronjil,-5.77,36.792,20
55,Casa de la Zarza,-5.512,36.73,20
55,Santa Lucia,-5.562,36.874,33
134,La Cartaga,-5.316,36.992,55
79,El Jautor,-5.634,36.353,79
55,Cortijo de Sambana,-5.381,36.399,39
94,Majadillas,-5.529,36.223,39
39,Cortijo Grande de Guadarranque,-5.443,36.23,20
33,El Burgo,-5.33,36.2,20
24,Casa de los Tormos,-5.676,36.158,20
66,Canada de la Jara,-5.635,36.119,39
39,Pedro Valiente,-5.624,36.044,20
33,Casas del Rancho del Helechar,-5.781,36.1,20
39,Casas de las Palomas,-5.721,36.065,24
94,Betis,-5.719,36.093,39
94,La Pena,-5.659,36.057,39
24,El Bujeo,-5.522,36.069,20
46,La Seca,-5.434,36.085,39
28,Cortijo del Canuelo,-5.497,36.934,28
46,Villanueva del Rosario,-4.366,36.999,24
46,Alfarnate,-4.259,36.994,46
55,Llanos de Antequera,-4.578,37.072,46
94,Cartaojal,-4.512,37.108,55
28,La Atalaya,-4.453,37.198,20
55,Cuevas Bajas,-4.486,37.234,33
66,Estacion de Salinas,-4.3,37.123,55
46,Villanueva de Tapia,-4.333,37.183,46
79,Almargen,-5.021,37.003,66
55,Navahermosa,-4.841,37.156,20
79,Bobadilla-Estacion,-4.726,37.037,55
28,Los Carvajales,-4.694,37.174,28
112,Cuevas de San Marcos,-4.412,37.267,39
112,Villanueva de Algaidas,-4.449,37.183,79
160,Villanueva del Trabuco,-4.334,37.027,66
28,Humilladero,-4.699,37.113,28
66,Sierra de Yeguas,-4.867,37.125,66
46,Fuente de Piedra,-4.73,37.135,20
160,Mollina,-4.657,37.124,66
55,Cajiz,-4.185,36.759,20
46,Jimera de Libar,-5.274,36.652,46
79,Benaojan,-5.248,36.722,39
28,Montejaque,-5.249,36.736,20
24,Parauta,-5.128,36.657,20
39,Los Pinos,-5.117,36.78,20
24,Olias,-4.319,36.772,20
39,Totalan,-4.297,36.765,28
28,Benagalbon,-4.245,36.737,28
28,Valdes,-4.24,36.759,20
55,Moclinejo,-4.254,36.771,28
39,Benajarafe,-4.197,36.717,39
39,Los Puertas,-4.181,36.739,20
28,Benaque,-4.215,36.77,20
24,Iznate,-4.183,36.776,20
46,Benamocarra,-4.161,36.791,39
28,Almayate Bajo,-4.13,36.732,28
46,Comares,-4.247,36.849,33
39,Riogordo,-4.291,36.917,33
28,Alfarnatejo,-4.272,36.979,20
55,Guaro,-4.835,36.657,24
112,Yunquera,-4.919,36.734,79
134,El Burgo,-4.948,36.79,46
94,Tolox,-4.906,36.686,39
55,Alozaina,-4.857,36.727,39
79,Casarabonela,-4.841,36.786,46
28,Gibralgalia,-4.765,36.75,20
33,Cerralba,-4.721,36.746,20
28,Zalea,-4.745,36.767,20
24,Villafranco del Guadalhorce,-4.698,36.701,24
94,Montecorto,-5.297,36.815,33
24,La Cimada,-5.138,36.812,20
55,Los Prados,-5.134,36.825,20
55,Cuevas del Becerro,-5.044,36.875,55
66,Canete la Real,-5.023,36.953,39
33,Serrato,-4.98,36.886,33
160,Ardales,-4.845,36.879,79
66,Carratraca,-4.817,36.852,24
112,Teba,-4.918,36.983,46
55,Vega Santa Maria,-4.702,36.794,20
24,El Puente,-4.695,36.816,20
28,La Joya,-4.622,36.932,20
24,Guadalmar-San Julian,-4.46,36.667,24
33,Dona Ana,-4.582,36.715,20
28,La Castaneta,-4.548,36.71,20
55,Cortijuelo,-4.495,36.76,24
28,Los Nunez,-4.517,36.781,20
66,Casabermeja,-4.427,36.894,55
112,Villanueva de la Concepcion,-4.53,36.931,66
94,Almachar,-4.216,36.808,33
39,Cutar,-4.227,36.831,20
46,Benamargosa,-4.192,36.835,20
39,Triana,-4.164,36.819,20
33,Mondron,-4.227,36.939,24
55,Vinuela,-4.143,36.866,33
28,Trapiche,-4.124,36.809,24
66,Arenas,-4.043,36.816,33
24,Rio Bermuza,-4.12,36.872,20
112,Periana,-4.19,36.929,66
46,Sayalonga,-4.012,36.798,20
28,Corumbela,-4.005,36.822,20
94,Competa,-3.973,36.834,79
28,Sedella,-4.032,36.862,28
33,Los Romanes,-4.191,36.867,24
55,El Puente,-4.145,36.89,20
55,Rosalejo,-5.164,36.72,20
112,Bermejo-Caracuel,-4.73,36.878,39
66,Valle de Abdalajis,-4.681,36.932,66
33,Los Gamez,-4.437,36.786,28
46,Penon-Zapata-Molina,-4.533,36.685,20
39,Algarrobo,-4.038,36.774,33
331,Colmenar,-4.337,36.905,79
112,Canillas de Aceituno,-4.081,36.873,66
24,Alcaucin,-4.116,36.903,20
39,La Alqueria,-4.607,36.668,33
94,Arriate,-5.138,36.797,39
160,Almogia,-4.54,36.827,66
28,Genalguacil,-5.234,36.545,20
46,Canada del Real Tesoro,-5.33,36.595,20
66,Gaucin,-5.315,36.518,66
66,Casares,-5.272,36.444,55
46,Benarraba,-5.275,36.551,20
112,Algatocin,-5.275,36.573,39
28,Benalauria,-5.26,36.594,20
24,Benadalid,-5.268,36.606,20
46,Jubrique,-5.215,36.565,39
33,Atajate,-5.245,36.64,20
55,Alpandeire,-5.201,36.634,33
39,Farajan,-5.187,36.616,20
28,Pujerra,-5.149,36.612,20
39,Cartajima,-5.154,36.646,20
55,Igualeja,-5.12,36.631,55
79,El Colmenar,-5.386,36.54,39
94,Guadalmina,-5,36.469,20
28,Manilva,-5.251,36.377,20
160,Istan,-4.948,36.582,46
94,Ojen,-4.855,36.564,39
94,Monda,-4.831,36.63,46
33,Mijas Golf,-4.669,36.552,28
24,Valtocado,-4.673,36.595,20
28,Las Terrazas,-4.619,36.603,20
33,La Perla-Torremuelle,-4.564,36.578,20
33,Las Delicias,-4.737,36.631,20
33,Dona Pilar,-4.637,36.574,20
79,Artola,-4.996,36.51,20
66,La Chullera,-5.251,36.319,20
39,Cortijo de Maza-El Olivar,-4.5,36.648,20
24,Castillo de la Duquesa,-5.232,36.353,20
46,Benahavis,-5.045,36.525,28
160,Cortes de la Frontera,-5.34,36.618,55
28,La Gaspara,-5.184,36.412,20
33,El Padron,-5.112,36.434,24
39,Rio Real,-4.84,36.514,28
66,Elviria,-4.782,36.504,39
33,Artola,-4.746,36.492,24
24,Chaparral,-4.666,36.507,24
28,Casares Costa,-5.212,36.383,20
33,Macaca,-3.904,36.746,24
33,Maro,-3.842,36.759,20
79,Frigiliana,-3.896,36.792,33
39,La Indiana,-5.197,36.761,20
112,Las Huertas,-4.786,36.702,39
46,Los Lagares,-4.654,36.773,33
33,Casablanquilla,-4.678,36.843,20
39,Cortijo de la Linera,-4.948,37.037,39
55,Cortijo de Arquillos,-4.849,37.015,28
66,Majada de Madrid,-5.26,36.485,33
33,Entrerrios,-4.716,36.558,28
94,Verdiales,-4.484,36.792,33
28,Cortijo de Benitez,-4.589,36.884,28
55,Cortijo Pacheco,-4.533,36.879,39
33,Arroyo Ancon,-4.622,36.835,33
24,Casa de Arias,-4.451,36.901,20
46,Lagar Portales de Arriba,-4.391,36.872,20
28,Arroyo Cauche,-4.47,36.885,28
39,Cortijo el Fundio,-4.442,37.001,39
39,Cortijo de las Animas,-4.569,37,20
33,Cortijo del Canal,-4.653,37.055,33
55,Casa del Conde,-4.497,37.206,20
55,Zarzo,-4.313,36.74,20
33,Cabrillas,-4.15,36.777,20
79,Rio,-4.261,36.875,24
28,Las Rozas,-4.221,36.876,20
24,Casas de la Loma de los Tres Cortijos,-4.218,36.901,20
24,Marchamona,-4.176,36.959,24
28,Casas de Collado,-4.092,36.823,20
55,Pasada de Granadillo,-4.091,36.845,20
55,Venta del Jaro,-3.916,36.83,33
46,Camorra,-4.641,37.171,33
28,Cortijo Casa Nueva,-4.592,36.93,28
39,Cortijo de Gonzalo,-4.342,36.93,20
28,Solano,-4.317,36.872,28
24,Cortijo de Manuel Ruiz,-4.39,37.023,20
79,Cortijos de Perenne,-4.292,37.077,33
94,Castell de Ferro,-3.359,36.722,94
55,Gualchos,-3.389,36.744,20
66,Rubite,-3.347,36.809,39
28,Bubion,-3.354,36.948,20
79,Capileira,-3.358,36.961,46
55,Portugos,-3.31,36.942,28
33,Melicena,-3.236,36.752,28
46,Diezma,-3.332,37.32,28
39,Los Castillas,-3.184,36.773,20
28,Polopos,-3.297,36.795,20
55,Sorvilan,-3.266,36.795,39
160,Albunol,-3.202,36.792,112
55,Albondon,-3.211,36.827,28
94,La Rabita,-3.173,36.75,39
112,Torvizcon,-3.298,36.879,55
46,Almegijar,-3.299,36.902,20
28,Castaras,-3.253,36.931,20
39,Lobras,-3.212,36.929,20
160,Trevelez,-3.265,37.001,55
39,Juviles,-3.224,36.949,24
39,Berchules,-3.19,36.974,28
134,Murtas,-3.108,36.887,46
66,Jorairatar,-3.107,36.926,33
79,Valor,-3.081,36.997,28
66,Cadiar,-3.178,36.94,66
46,Yator,-3.135,36.957,24
28,Mecina-Bombaron,-3.155,36.982,24
55,Turon,-3.056,36.864,33
476,Ugijar,-3.052,36.964,112
39,Cherin,-3.012,36.967,24
28,Mairena,-3.043,37.004,20
79,Laroles,-3.012,37.009,33
33,Lanteira,-3.137,37.169,20
39,Aldeire,-3.071,37.16,20
66,Lugros,-3.24,37.23,33
55,Policar,-3.234,37.258,20
134,La Peza,-3.284,37.277,55
33,Beas de Guadix,-3.205,37.28,20
39,Marchal,-3.202,37.297,20
66,Lopera,-3.242,37.321,24
55,Purullena,-3.187,37.317,24
134,Jerez del Marquesado,-3.159,37.184,55
46,Cogollos de Guadix,-3.159,37.225,33
24,Paulenca,-3.169,37.295,20
33,Estacion de Guadix,-3.125,37.316,20
94,Alcudia de Guadix,-3.097,37.258,39
24,Ferreira,-3.034,37.173,20
94,Hueneja,-2.949,37.176,66
39,La Calahorra,-3.062,37.181,39
46,Dolar,-2.99,37.179,24
66,Charches,-2.956,37.295,66
46,Las Cuevas,-2.894,37.186,33
55,Belerda,-3.215,37.371,33
66,Huelago,-3.262,37.42,39
112,Benalua,-3.163,37.351,46
134,Fonelas,-3.175,37.413,55
192,Pedro Martinez,-3.229,37.502,94
160,Alamedilla,-3.243,37.581,66
66,Villanueva de las Torres,-3.089,37.557,66
46,Dehesas de Guadix,-3.103,37.589,20
55,Hernan-Valle,-3.063,37.372,46
192,Gor,-2.969,37.37,66
112,Gorafe,-3.041,37.479,66
112,Baul,-2.928,37.428,39
28,Bacor-Olivar,-2.951,37.529,28
66,Freila,-2.907,37.528,46
134,Zujar,-2.841,37.541,46
46,La Mamola,-3.279,36.746,46
33,Fuente Camacho,-4.256,37.099,24
39,Venta del Rayo,-4.212,37.135,33
33,Riofrio,-4.206,37.154,20
94,Salar,-4.065,37.149,39
39,Ventorros de la Laguna,-4.227,37.203,39
33,Ventorros de Balerma,-4.254,37.231,24
94,Zagra,-4.169,37.256,55
46,Fuentes de Cesna,-4.228,37.271,33
24,Ventorros de San Jose,-4.15,37.247,20
46,La Fabrica,-4.069,37.216,20
39,La Carrera de la Vina,-4.148,37.285,20
94,Santa Cruz del Comercio,-3.975,37.062,46
28,Venta Nueva,-4.037,37.185,20
24,Villanueva Mesia,-4.012,37.215,24
33,Loreto,-3.956,37.186,20
55,Tocon,-3.965,37.238,33
66,Algarinejo,-4.157,37.325,66
230,Montefrio,-4.006,37.322,79
79,Moraleda de Zafayona,-3.964,37.168,46
24,El Frontil,-4.132,37.178,20
24,Venta Santa Barbara,-4.196,37.174,20
79,Alicun de Ortega,-3.137,37.609,46
55,Campo Camara,-2.859,37.737,55
94,Los Laneros,-2.796,37.704,33
46,Fuente Vera,-2.784,37.735,24
160,Castril,-2.78,37.797,79
66,Almontaras,-2.757,37.767,28
46,Fatima,-2.731,37.819,33
192,Cuevas del Campo,-2.929,37.607,66
79,Zafarraya,-4.144,36.975,33
46,Ventas de Zafarraya,-4.119,36.957,20
39,Almaciles,-2.336,37.98,39
276,Puebla de Don Fadrique,-2.435,37.956,94
112,Caniles,-2.723,37.436,46
39,Los Gallardos,-2.683,37.442,24
46,Las Cucharetas,-2.783,37.628,20
79,Cortes de Baza,-2.769,37.654,46
94,Benamaurel,-2.7,37.608,79
192,Cullar,-2.572,37.584,112
94,El Margen,-2.565,37.643,46
55,Los Carriones,-2.666,37.687,20
24,El Olivar,-2.656,37.703,20
112,Castillejar,-2.641,37.718,79
66,Galera,-2.55,37.742,46
192,Orce,-2.477,37.721,79
79,Jatar,-3.91,36.935,55
33,Fornes,-3.855,36.954,20
160,Jayena,-3.823,36.949,79
28,Fuensanta,-3.902,37.18,28
160,El Turro,-3.941,37.134,28
24,Cacin,-3.915,37.059,24
79,Agron,-3.829,37.03,28
33,Ventas de Huelma,-3.821,37.069,33
39,Trasmulas,-3.871,37.198,20
28,Acula,-3.807,37.084,20
24,Castillo de Tajarja,-3.877,37.117,24
94,Chimeneas,-3.821,37.131,46
46,Penuelas,-3.856,37.174,33
28,Bracana,-3.944,37.227,20
39,Obeilar,-3.857,37.25,24
28,Cijuela,-3.808,37.198,20
46,Valderrubio,-3.819,37.235,24
33,Alomartes,-3.912,37.264,24
79,Puerto Lope,-3.831,37.336,39
33,La Herradura,-3.739,36.735,33
55,Lecrin,-3.55,36.948,24
79,Otivar,-3.681,36.816,46
39,Lentegi,-3.672,36.836,20
24,Playa,-3.584,36.732,20
39,Lobres,-3.564,36.772,20
39,Jete,-3.667,36.796,20
39,Itrabo,-3.637,36.799,20
39,Guajar Alto,-3.624,36.854,24
79,Molvizar,-3.606,36.786,33
39,Guajar-Faraguit,-3.584,36.841,39
94,Albunuelas,-3.626,36.929,46
39,Pinos del Valle,-3.553,36.911,28
28,Restabal,-3.581,36.929,20
39,Conchar,-3.588,36.966,20
39,Marchena,-3.582,37.005,20
46,El Varadero,-3.532,36.725,20
66,Torrenueva Costa,-3.488,36.704,24
33,Puntalon,-3.479,36.729,20
24,Carchuna,-3.441,36.702,24
79,Velez de Benaudalla,-3.514,36.833,66
134,Lujar,-3.403,36.787,28
39,Izbor,-3.525,36.895,20
28,Beznar,-3.54,36.927,20
55,Lanjaron,-3.481,36.918,33
28,Niguelas,-3.538,36.979,20
39,Los Tablones,-3.398,36.885,20
230,Orgiva,-3.422,36.901,79
55,Soportujar,-3.405,36.928,20
39,Escuzar,-3.761,37.062,28
94,La Malaha,-3.721,37.099,39
28,Casanueva,-3.788,37.256,24
39,Belicena,-3.689,37.174,20
33,Urbanizacion Valle del Puntal,-3.635,37.038,20
79,Dilar,-3.6,37.074,20
28,Gabia Chica,-3.654,37.125,20
28,Bobadilla,-3.64,37.191,20
28,Lancha del Genil,-3.555,37.163,20
24,El Jau,-3.74,37.196,20
28,Sierra Elvira,-3.723,37.231,20
28,Tiena,-3.787,37.321,20
46,Olivares,-3.764,37.332,39
39,Cortijo del Aire,-3.649,37.252,20
33,Alfacar,-3.566,37.237,20
55,Parque del Cubillas,-3.667,37.285,28
33,Calicasas,-3.621,37.273,20
24,Alqueria del Fargue,-3.562,37.207,20
39,Jun,-3.593,37.22,20
24,Guevejar,-3.596,37.257,20
39,Cogollos de la Vega,-3.571,37.276,20
112,Deifontes,-3.593,37.326,55
46,Cumbres Verdes,-3.546,37.097,20
94,Huetor de Santillan,-3.514,37.222,28
46,Pinos Genil,-3.503,37.163,33
160,Guejar Sierra,-3.439,37.16,79
134,Sierra Nevada,-3.396,37.096,55
46,Quentar,-3.465,37.192,28
24,Moclin,-3.785,37.34,20
55,Tozar,-3.776,37.369,33
79,Colomera,-3.712,37.371,66
66,Cauro,-3.734,37.408,33
112,Campotejar,-3.616,37.483,39
46,Montillana,-3.672,37.502,20
33,Dehesas Viejas,-3.55,37.474,28
79,Domingo Perez de Granada,-3.508,37.497,55
55,Torre-Cardela,-3.356,37.505,46
79,Pinar,-3.438,37.443,55
46,Bogarre,-3.373,37.41,33
112,Moreda,-3.329,37.44,55
66,Gobernador,-3.32,37.477,24
134,Montejicar,-3.502,37.573,55
79,Guadahortuna,-3.398,37.557,66
39,Laborcillas,-3.29,37.453,24
160,Darro,-3.292,37.349,66
94,Benalua de las Villas,-3.682,37.428,39
66,Cueva del Agua,-3.512,37.333,46
46,Cortijo de la Venta Dona,-4.06,37.015,46
24,Cortijo de la Rosa,-3.882,37.324,24
33,Cortijo del Chopo,-4.22,37.304,20
94,Milanos,-4.074,37.239,20
66,La Vinuela,-4.026,37.35,24
24,Cortijo Huerta Milanos,-4.061,37.316,24
55,Los Molinos,-3.942,37.332,39
46,Rio Seco,-3.736,36.802,39
39,Cortijo de Correa,-3.558,36.795,20
28,Cortijo de los Coscurros,-3.471,36.745,20
24,Cortijo de Garcia,-3.367,36.759,20
55,Cortijo el Sillero,-3.353,36.845,28
55,Cortijo Pilones,-3.454,36.97,39
79,Cortijo de la Magara,-3.512,37.035,39
28,Aguadero,-3.595,37.017,20
55,Cortijo de Frontolin,-3.719,37.067,24
66,Cortijo de los Mimbres,-3.468,37.124,24
66,Cortijada Padules,-3.366,37.204,55
94,Cortijo de Cortezuo,-2.791,37.38,55
46,Cortijo los Blancos,-3.216,36.877,39
28,Los Domingos,-3.17,36.869,28
24,La Haza Mora,-3.179,36.763,20
79,El Porrosillo,-3.415,38.223,33
192,Aldeaquemada,-3.371,38.411,94
112,Santisteban del Puerto,-3.203,38.252,79
28,Castellar,-3.13,38.253,28
134,Aldeahermosa,-3.126,38.329,55
66,Sorihuela del Guadalimar,-3.053,38.242,46
55,Chiclana de Segura,-3.041,38.312,55
55,Venta de los Santos,-3.072,38.362,39
46,Penolite,-2.797,38.324,24
66,Hornos,-2.717,38.216,24
94,Cortijos Nuevos,-2.724,38.247,46
33,Puente de Genave,-2.802,38.355,33
39,Segura de la Sierra,-2.651,38.298,20
39,Benatae,-2.65,38.353,28
79,Torres de Albanchez,-2.677,38.415,46
55,Villarrodrigo,-2.636,38.488,20
112,Santa Elena,-3.538,38.341,55
79,Carboneros,-3.63,38.23,33
66,La Puerta de Segura,-2.737,38.351,66
160,Vilches,-3.513,38.209,66
192,Siles,-2.58,38.389,192
55,Genave,-2.732,38.43,33
134,Arroyo del Ojanco,-2.895,38.321,55
112,Orcera,-2.661,38.318,46
46,La Matea,-2.588,38.082,28
33,Fuente Alamo,-4.033,37.477,24
55,La Rabita,-4.056,37.505,46
39,Sabariego,-4.043,37.525,20
79,Las Casillas,-4.001,37.64,55
94,La Pedriza,-3.954,37.412,39
39,Ventas del Carrizal,-3.994,37.54,33
66,Noguerones,-4.16,37.653,46
39,Bobadilla,-4.105,37.66,39
160,Donadio,-3.364,37.928,66
79,Solera,-3.369,37.684,33
66,Monte Lope-Alvarez,-4.113,37.703,33
46,Higuera de Calatrava,-4.157,37.799,33
39,Las Infantas,-3.784,37.914,39
33,Carchel,-3.636,37.653,20
94,Cambil,-3.564,37.678,55
79,Pegalajar,-3.645,37.741,28
66,Puente Tablas,-3.744,37.803,33
112,Torrequebradilla,-3.66,37.91,39
66,Torres,-3.508,37.785,66
46,Albanchez de Magina,-3.466,37.792,28
33,Las Escuelas,-3.512,37.871,28
66,Bedmar,-3.411,37.822,39
112,Villanueva de la Reina,-3.913,38.005,66
28,Los Villares,-3.984,38.026,20
33,La Quinteria,-3.951,38.016,24
55,Cazalilla,-3.881,37.984,20
39,Espeluy,-3.861,38.032,20
66,Jabalquinto,-3.73,38.02,55
46,Campillo del Rio,-3.666,37.959,28
39,Vados de Torralba,-3.639,37.943,20
66,Puente del Obispo,-3.54,37.952,24
28,Lupion,-3.545,37.997,20
55,Begijar,-3.53,37.984,39
55,Solana de Torralba,-3.171,37.989,46
46,La Yedra,-3.442,38.03,20
46,Santa Eulalia,-3.383,38.066,46
79,Cabra del Santo Cristo,-3.286,37.704,79
134,Larva,-3.201,37.76,66
79,Collejares,-3.139,37.792,33
160,Huesa,-3.077,37.765,66
46,Belerda,-3.032,37.76,28
55,Fontanar,-2.971,37.672,28
46,Hinojares,-2.998,37.716,39
276,Pozo Alcon,-2.934,37.703,134
66,Sabiote,-3.31,38.068,28
24,El Molar,-3.147,37.98,20
79,Chilluevar,-3.031,38,39
160,Santo Tome,-3.1,38.027,66
28,La Caleruela,-3.094,38.043,20
55,Burunchel,-2.953,37.946,33
192,Coto-Rios,-2.848,38.047,66
46,Vegas de Triana,-4.055,38.018,20
94,Lopera,-4.213,37.946,39
94,Arjonilla,-4.104,37.973,33
112,Escanuela,-4.033,37.879,33
66,Villardompardo,-4.001,37.839,66
55,Santiago de Calatrava,-4.169,37.754,28
79,Villargordo,-3.729,37.94,46
39,Jamilena,-3.912,37.747,20
160,Fuerte del Rey,-3.882,37.874,66
55,Garciez,-3.456,37.874,24
79,Torreblascopedro,-3.636,37.998,55
39,Guadalimar,-3.612,38.021,20
46,Ibros,-3.501,38.021,20
39,El Marmol,-3.432,38.059,24
66,Estacion Linares-Baeza,-3.589,38.071,28
94,Jimena,-3.479,37.842,39
66,Belmez de la Moraleda,-3.381,37.724,55
79,Mogon,-3.034,38.074,39
24,Arroyo Frio,-2.92,37.947,20
33,Estacion de Espeluy,-3.831,38.011,33
66,Lahiguera,-3.99,37.971,46
79,Arquillos,-3.426,38.181,55
192,Navas de San Juan,-3.314,38.184,112
24,Iznatoraf,-3.032,38.156,20
94,Pontones,-2.669,38.117,46
331,Santiago de la Espada,-2.551,38.111,134
39,Banos de la Encina,-3.773,38.174,39
134,Guarroman,-3.686,38.183,66
39,Guadalen,-3.506,38.142,39
33,Miraelrio,-3.528,38.096,33
66,Charilla,-3.907,37.495,24
24,Santa Ana,-3.884,37.462,24
46,Ribera Alta,-3.837,37.465,20
46,Frailes,-3.837,37.487,46
55,Fuensanta de Martos,-3.908,37.647,55
134,Valdepenas de Jaen,-3.817,37.59,79
134,Noalejo,-3.652,37.529,94
46,Campillo de Arenas,-3.635,37.554,20
66,Carchelejo,-3.64,37.636,55
66,Arbuniel,-3.537,37.628,46
94,Mures,-3.821,37.422,39
94,Castillo de Locubin,-3.941,37.528,55
46,Hoya del Salobral,-3.768,37.494,46
33,Ermita Nueva,-3.869,37.406,33
24,Huertas y Extramuros,-4.074,38.056,20
24,La Yedra,-3.852,37.652,24
39,Atalayuela,-2.951,37.721,20
55,San Martin,-2.991,37.968,20
79,Casa de Peton,-2.937,38.14,39
39,Venta Cabrera,-2.93,38.295,24
66,Fresnedilla,-2.576,38.347,33
112,Galapagar,-3.692,37.853,39
46,La Puebla de Mula,-1.445,38.036,28
33,El Nino,-1.526,38.047,20
66,Campos del Rio,-1.351,38.04,55
28,Albudeite,-1.385,38.027,24
134,Archivel,-2.005,38.072,79
112,Canada de la Cruz,-2.278,38.031,46
28,Navares,-1.932,38.035,20
66,Barranda,-1.964,38.047,24
46,La Encarnacion,-1.896,38.022,28
66,La Copa,-1.664,38.08,24
55,Singla,-1.943,38.021,24
66,Yechar,-1.44,38.072,33
28,El Coto,-1.246,38.011,20
24,Laderas del Campillo,-1.084,38.046,24
24,Los Vientos,-1.195,38.043,20
94,Alquerias,-1.034,38.014,24
28,Maria Auxiliadora,-1.06,38.034,20
24,Zeneta,-1,38.008,20
39,El Mojon,-0.978,38.028,20
24,Huerta de Arriba,-1.242,38.064,20
28,La Almudema,-1.923,38.004,20
55,Toscas-Chorrico,-1.218,38.147,39
24,Fenazar,-1.204,38.161,20
46,Los Valientes,-1.157,38.13,20
79,Los Conejos,-1.181,38.102,24
24,La Gineta,-1.05,38.126,20
24,La Almazara,-1.055,38.112,20
39,El Reloj,-1.064,38.144,20
94,Valentin,-1.72,38.184,33
28,Canara,-1.768,38.14,28
55,Ricote,-1.365,38.154,20
24,Ojos,-1.341,38.148,20
55,Calar de la Santa,-2.169,38.179,20
33,Chaparral,-1.694,38.094,20
39,Ulea,-1.33,38.138,20
55,Blanca,-1.374,38.179,24
33,Fuente Librilla,-1.411,37.92,28
94,Pliego,-1.505,37.989,39
55,Librilla,-1.353,37.887,46
46,El Mirador,-0.852,37.843,33
79,Aledo,-1.572,37.794,46
230,Zarcilla de Ramos,-1.874,37.844,160
46,La Paca,-1.835,37.872,28
39,Dona Ines,-1.838,37.926,20
46,Las Terreras,-1.781,37.845,33
94,Aviles,-1.797,37.906,28
79,Zarzadilla de Totana,-1.706,37.878,79
192,Coy,-1.811,37.948,55
66,Casas Nuevas,-1.597,37.924,66
94,El Berro,-1.489,37.89,39
192,Barqueros,-1.37,37.94,46
55,Avileses,-0.942,37.849,24
55,La Tercia,-1.007,37.882,39
134,Corvera,-1.156,37.831,79
55,Pueblo Nuevo,-1.287,37.891,28
66,Banos y Mendigo,-1.128,37.87,28
39,San Jose de la Montana,-1.176,37.918,20
46,Los Martinez del Puerto,-1.078,37.818,46
55,Balsicas,-0.956,37.819,33
79,San Bartolome,-1.195,37.894,33
39,Los Ramos,-1.032,37.994,20
28,Cabezo de la Plata,-0.991,37.98,20
33,Loma de Abajo,-0.798,37.847,20
94,Sucina,-0.94,37.891,55
28,Barrio del Progreso,-1.127,37.964,20
46,San Cayetano,-0.895,37.815,28
33,Las Lomas del Rame,-0.877,37.726,20
55,Dolores,-0.869,37.777,24
66,Portman,-0.852,37.591,24
24,Mar de Cristal,-0.761,37.639,20
39,Urbanizacion San Gines,-1.179,37.568,39
39,La Pinilla,-1.279,37.685,33
134,Urbanizacion Castillitos,-1.115,37.539,55
39,Canteras,-1.043,37.613,28
46,Albujon,-1.047,37.718,20
39,Barrio de la Concepcion,-0.995,37.605,20
28,El Alamillo,-1.247,37.579,20
28,Santa Ana,-1.006,37.666,20
24,Las Lomas,-1.049,37.705,20
55,Pozo Estrecho,-0.992,37.71,28
24,La Aparecida,-0.953,37.668,20
55,La Palma,-0.955,37.688,20
33,Alumbres,-0.914,37.606,24
33,Los Camachos,-0.918,37.646,20
24,Playa Honda,-0.743,37.629,24
46,La Puebla,-0.919,37.718,24
33,Llano del Beal,-0.835,37.625,20
24,Beal,-0.84,37.637,20
28,Los Mateos,-0.775,37.61,20
79,Los Belones,-0.777,37.624,46
134,Barriada Virgen de la Caridad,-0.831,37.679,24
28,El Carmoli,-0.845,37.692,20
55,Cabo de Palos,-0.703,37.632,24
28,La Manga del Mar Menor,-0.735,37.687,28
33,Canovas,-1.278,37.736,24
39,Cuevas de Reyllo,-1.242,37.735,39
79,Valladolises,-1.123,37.777,20
46,Balsapintada,-1.104,37.755,24
33,Lobosillo,-1.082,37.729,20
55,Jimenado,-1.036,37.761,24
28,Los Rocas del Jimenado,-1.043,37.774,20
28,Roche Bajo,-0.923,37.627,20
55,La Manga del Mar Menor,-0.728,37.665,20
33,Barriada Santiago,-1.021,37.677,20
46,Los Nietos,-0.786,37.65,20
94,Las Palas,-1.188,37.662,46
55,El Garrobo,-1.313,37.638,20
33,Bolnuevo,-1.306,37.563,24
66,La Majada,-1.413,37.63,24
24,Collados Zieschang,-1.545,37.426,24
79,Calabardina,-1.499,37.432,55
39,Iglesia de Morata,-1.488,37.589,28
112,La Hoya,-1.596,37.708,66
46,Los Curas,-1.401,37.511,20
134,Parroquia de la Fuensanta,-1.894,37.728,94
134,Las Lomas,-1.412,37.716,55
112,Almendricos,-1.776,37.473,55
24,Estacion,-1.732,37.579,20
28,La Campana,-1.732,37.466,20
24,Las Kalendas,-1.126,38.205,20
33,Canada Manrique,-1.72,38.246,20
79,Abanilla,-1.04,38.206,55
46,Otos,-2.022,38.274,24
134,El Sabinar,-2.154,38.207,94
33,Carretera Estacion,-1.341,38.186,20
112,Estacion Ferrea,-1.324,38.225,39
79,Fuente Ascoy,-1.422,38.275,33
24,La Estacada,-1.335,38.463,20
28,Hoya del Campo,-1.335,38.237,20
28,Mahoya,-1.056,38.218,20
160,Barinas,-1.057,38.272,46
33,Macisvenda,-1.016,38.262,24
66,Las Casicas,-1.142,38.296,55
55,Casa Calero,-1.158,38.634,28
79,Venta las Quebradas,-1.07,38.468,55
33,Casa de Tudela,-1.817,38.128,33
33,Campillo y Suertes,-1.795,38.076,20
66,Venta del Cruce,-1.572,38.065,46
66,La Esperanza,-1.488,37.959,24
24,Casa del Saltador,-1.625,37.72,20
39,Baldazos,-1.622,37.686,20
24,Olmillos,-1.669,37.682,20
28,El Molinillo,-1.663,37.66,20
24,Casa El Avi,-1.661,37.672,20
39,Campillo,-1.697,37.657,20
24,Casa Palacio,-1.667,37.645,20
28,Casa de Paratejas,-1.639,37.614,20
94,Canarejo,-1.664,37.633,20
39,Ermita Nueva,-1.68,37.577,20
24,Los Salobrales,-1.687,37.591,20
79,Los Conventos,-1.579,37.608,55
28,La Galera y los Jopos,-1.68,37.544,20
66,La Alcanara y los Butanos,-1.682,37.558,39
33,El Parador,-1.772,37.489,20
55,Redon,-1.726,37.529,33
33,Casas del Tio Domingo,-1.745,37.589,33
79,La Colonia,-1.768,37.607,20
24,Venta del Coronel,-1.747,37.621,20
39,Casa de las Ruzafas,-1.773,37.728,39
33,Rincon y Las Ramblicas,-1.82,37.451,33
33,Alporchones,-1.582,37.652,20
55,La Condomina,-1.606,37.665,33
33,Orilla y Pinero,-1.586,37.568,33
24,El Rincon,-1.576,37.726,20
46,Leiva,-1.385,37.603,39
66,Las Covaticas,-1.377,37.538,46
79,Ifre-Pastrana,-1.442,37.574,39
55,Los Jaboneros,-1.528,37.805,20
55,La norica,-1.464,37.746,24
24,Venta de la Roja,-1.495,37.701,20
33,Los Porches,-1.512,37.722,20
33,Raiguero Bajo,-1.447,37.696,24
24,Casa de la Fuente de las Zorras,-1.504,37.842,24
55,Ganuelas,-1.351,37.819,39
79,La Carrasca,-1.235,37.761,20
94,Los Chales,-1.285,37.799,33
28,Los Veras,-1.19,37.707,20
46,Torre del Angel,-1.164,37.687,20
33,Los Ruices,-1.081,37.801,20
33,Casa de la Torrica,-1.15,37.801,24
79,El Puntarron,-1.263,37.929,33
24,Rincon de los Garcia,-1.09,37.99,20
33,Tabala,-0.986,37.996,20
33,Casa de Plaza,-1.046,38.101,20
55,Las Penas,-1.159,38.205,20
39,Capres de Arriba,-1.142,38.225,20
66,Salado,-1.059,38.235,20
39,Alborda,-1.207,38.13,20
33,El Obispo,-1.248,38.101,20
46,Barrio de los Picolas,-1.059,38.083,20
160,Venta del Olivo,-1.48,38.318,39
66,Fuensantilla,-1.359,38.253,20
28,El Mirador,-0.854,37.856,20
28,La Grajuela,-0.83,37.824,20
55,Hortichuela,-0.972,37.773,24
24,Los Meronos,-0.917,37.759,24
28,Los Camachos,-0.917,37.787,20
28,Casa la Hoya,-0.91,37.773,20
33,Los Infiernos,-0.913,37.831,20
39,La Corona,-1.098,37.624,33
28,Las Casicas,-1.023,37.691,20
24,Los Roses,-1.022,37.71,20
28,Los Sanchez,-1.047,37.634,20
94,Robledo,-2.449,38.758,66
112,Viveros,-2.574,38.773,55
33,Povedilla,-2.601,38.699,33
134,Villapalacios,-2.632,38.576,46
134,Bienservida,-2.611,38.517,79
66,Vianos,-2.5,38.633,24
55,Villaverde de Guadalimar,-2.517,38.456,46
55,Salobre,-2.549,38.593,33
192,Riopar,-2.417,38.498,112
66,Penascosa,-2.41,38.673,55
55,Cotillas,-2.504,38.431,20
112,Alcaraz,-2.489,38.667,112
685,Yeste,-2.319,38.367,160
66,Paterna del Madera,-2.341,38.599,66
94,Masegoso,-2.315,38.718,55
94,Vegallera,-2.324,38.546,46
66,Reolid,-2.568,38.622,24
46,Los Chospes,-2.384,38.785,39
55,Pedro Andres,-2.384,38.138,55
112,Nerpio,-2.302,38.147,112
94,Casas de Lazaro,-2.24,38.772,39
134,Molinicos,-2.237,38.468,66
160,Elche de la Sierra,-2.046,38.45,160
134,Ayna,-2.069,38.552,66
112,Letur,-2.101,38.365,55
397,Bogarra,-2.211,38.582,112
79,Albatana,-1.519,38.572,33
276,Socovos,-1.985,38.333,94
39,Pozohondo,-1.91,38.72,39
134,Penas de San Pedro,-1.999,38.725,112
230,Lietor,-1.953,38.542,66
55,Ferez,-2.009,38.355,20
230,Alcadozo,-1.979,38.649,55
134,Ontur,-1.497,38.615,55
230,Fuente-Alamo,-1.431,38.692,160
55,Vicorto,-2.015,38.427,20
79,La Solana,-2.028,38.757,28
79,Tazona,-1.908,38.305,46
94,Mingogil,-1.741,38.461,24
33,Canada de Agra,-1.697,38.468,28
24,Nava de Arriba,-1.917,38.674,24
94,Nava de Abajo,-1.871,38.668,46
55,Isso,-1.743,38.49,33
55,Nava Campana,-1.649,38.49,28
28,Sierra,-1.658,38.561,20
192,Agramon,-1.637,38.421,66
66,Cordovilla,-1.632,38.564,33
24,Santiago de Mora,-1.597,38.57,24
46,Aljube,-1.638,38.607,33
134,Las Anorias,-1.539,38.755,55
397,Munera,-2.479,39.041,192
160,El Bonillo,-2.539,38.95,66
112,El Ballestero,-2.454,38.842,79
112,Ossa de Montiel,-2.745,38.964,112
230,La Gineta,-1.996,39.114,94
160,Minaya,-2.32,39.27,94
134,Lezuza,-2.354,38.949,94
66,Villalgordo del Jucar,-2.062,39.297,66
112,Montalvos,-2.026,39.167,46
79,Fuensanta,-2.069,39.244,39
160,La Herrera,-2.125,38.962,55
276,Balazote,-2.152,38.886,192
66,Pozuelo,-2.1,38.81,55
112,San Pedro,-2.186,38.826,46
276,Barrax,-2.2,39.045,134
79,Argamason,-2.026,38.852,39
94,El Jardin,-2.322,38.813,46
112,Tiriez,-2.264,38.896,55
55,Santa Ana,-1.99,38.902,39
112,Aguas Nuevas,-1.919,38.918,55
66,Los Olivos,-1.966,39.086,24
112,El Salobral,-1.922,38.867,39
112,Petrola,-1.555,38.827,94
79,Madrigueras,-1.8,39.236,66
55,Hoya-Gonzalo,-1.555,38.958,55
94,Cenizate,-1.66,39.303,46
94,Casas de Juan Nunez,-1.557,39.101,66
134,Villamalea,-1.597,39.362,66
79,Golosalvo,-1.635,39.239,46
55,Motilleja,-1.79,39.179,46
79,Jorquera,-1.52,39.175,28
46,Fuentealbilla,-1.55,39.267,46
112,Abengibre,-1.54,39.21,46
397,Pozo Canada,-1.733,38.802,94
230,Valdeganga,-1.676,39.134,94
33,Navas de Jorquera,-1.717,39.279,33
66,Mahora,-1.724,39.212,46
192,Chinchilla de Monte-Aragon,-1.724,38.92,79
46,Villavaliente,-1.457,39.126,39
24,La Recueja,-1.49,39.176,20
66,Pozo-Lorente,-1.506,39.076,28
94,Higueruela,-1.442,38.963,94
94,Villatoya,-1.339,39.333,39
331,Casas-Ibanez,-1.471,39.287,192
94,Casas de Ves,-1.332,39.259,39
46,Alborea,-1.396,39.28,46
66,Villa de Ves,-1.259,39.223,39
55,Carcelen,-1.308,39.102,33
112,Montealegre del Castillo,-1.326,38.788,79
79,Corral-Rubio,-1.46,38.835,55
230,Bonete,-1.348,38.871,66
79,Alatoz,-1.361,39.097,79
79,Balsa de Ves,-1.193,39.265,66
160,Alpera,-1.23,38.958,79
55,Tinajeros,-1.742,39.068,28
134,La Felipa,-1.7,39.04,55
94,Villar de Chinchilla,-1.528,38.9,46
55,Bormate,-1.595,39.19,39
79,Alcala del Jucar,-1.428,39.193,66
94,Casa de las Beatas,-2.507,39.199,66
66,Melegriz,-1.904,38.953,24
66,Malpelo,-1.793,39.033,46
66,Molino del Tejar,-1.086,38.839,24
94,Torre de Juan Abad,-3.06,38.584,39
134,Castellar de Santiago,-3.276,38.539,94
66,Villarta de San Juan,-3.421,39.237,66
94,Las Labores,-3.518,39.275,33
39,Arenas de San Juan,-3.5,39.219,39
160,Llanos del Caudillo,-3.351,39.118,94
39,Almuradiel,-3.496,38.512,39
46,Villahermosa,-2.871,38.75,46
134,Albaladejo,-2.809,38.618,66
24,Terrinches,-2.84,38.61,20
55,Santa Cruz de los Canamos,-2.864,38.637,24
46,Puebla del Principe,-2.925,38.567,46
55,Almedina,-2.953,38.625,46
79,Pozo de la Serna,-3.232,38.776,55
66,Alameda de Cervera,-3.126,39.265,66
79,Alhambra,-3.052,38.899,55
94,Consolacion,-3.389,38.895,55
94,San Carlos del Valle,-3.24,38.844,79
79,Alcubillas,-3.132,38.753,66
134,Cozar,-3.071,38.66,55
79,Puerto Lapice,-3.48,39.324,79
112,Arenales de San Gregorio,-3.026,39.31,66
79,Cinco Casas,-3.238,39.175,79
134,Montiel,-2.865,38.697,46
192,Villanueva de la Fuente,-2.693,38.694,192
94,Villamanrique,-2.996,38.546,94
39,Torrenueva,-3.363,38.641,39
192,Santa Cruz de Mudela,-3.463,38.642,94
276,Viso del Marques,-3.562,38.522,79
94,Navas de Estena,-4.519,39.495,66
112,Arroba de los Montes,-4.541,39.154,55
55,Navalpino,-4.59,39.225,46
571,Anchuras,-4.836,39.48,112
685,Alcoba,-4.477,39.26,94
94,Retuerta del Bullaque,-4.41,39.462,55
112,El Robledo,-4.28,39.219,66
192,Horcajo de los Montes,-4.649,39.328,192
66,El Torno,-4.256,39.256,28
94,Mestanza,-4.069,38.576,39
134,Brazatortas,-4.293,38.659,79
192,Alamillo,-4.789,38.679,79
112,Guadalmez,-4.968,38.726,79
94,Almadenejos,-4.711,38.738,55
276,Solana del Pino,-4.072,38.466,94
94,Villanueva de San Carlos,-3.908,38.622,79
94,San Lorenzo de Calatrava,-3.824,38.476,94
112,San Benito,-4.675,38.565,79
24,La Estacion,-4.314,38.667,20
28,Urbanizacion Ciudad Jardin,-4.125,38.702,20
160,El Hoyo,-3.92,38.41,66
55,El Villar,-4.013,38.642,46
134,Hinojosas de Calatrava,-4.139,38.614,55
134,Fuencaliente,-4.304,38.406,112
94,Aldea del Rey,-3.839,38.738,39
160,Calzada de Calatrava,-3.774,38.702,134
79,Picon,-4.059,39.051,46
55,Chillon,-4.864,38.797,20
66,Ballesteros de Calatrava,-3.944,38.835,55
79,Valdemanco del Esteras,-4.828,38.939,39
55,Los Pozuelos de Calatrava,-4.169,38.901,46
94,Cabezarados,-4.297,38.844,33
112,Luciana,-4.292,38.985,79
192,Puebla de Don Rodrigo,-4.615,39.083,160
276,Porzuna,-4.152,39.148,94
66,Fontanarejo,-4.516,39.219,28
33,Villar del Pozo,-3.962,38.85,20
79,Poblete,-3.981,38.936,39
33,Caracuel de Calatrava,-4.063,38.845,20
79,Valenzuela de Calatrava,-3.772,38.852,46
28,Torralba de Calatrava,-3.747,39.017,28
66,Granatula de Calatrava,-3.743,38.797,66
79,El Trincheto,-4.171,39.216,46
66,Pueblonuevo del Bullaque,-4.258,39.304,39
66,Valverde,-4.039,38.964,33
112,Cristo del Espiritu Santo,-4.032,39.195,79
160,Cortijos de Arriba,-4.064,39.317,134
192,Saceruela,-4.607,38.944,112
230,Corral de Calatrava,-4.08,38.857,66
160,Agudo,-4.869,38.982,112
134,Villamayor de Calatrava,-4.137,38.788,46
397,Abenojar,-4.354,38.879,134
192,Piedrabuena,-4.175,39.034,160
79,Alcolea de Calatrava,-4.114,38.987,46
79,Fernan Caballero,-3.897,39.119,33
55,Las Casas,-3.986,39.033,46
79,Fuente el Fresno,-3.774,39.229,55
79,Carrion de Calatrava,-3.815,39.017,55
66,Pozuelo de Calatrava,-3.835,38.91,55
79,Tirteafuera,-4.25,38.775,66
33,La Poblachuela,-3.952,38.962,20
397,Ruidera,-2.882,38.976,79
192,Carrizosa,-2.992,38.84,79
55,Casas de Guerra,-3.28,39.242,55
66,Casa de Castellanos,-3.442,38.847,39
66,La Torrecilla,-4.004,38.9,24
94,Casas de las Peralosas del Sur,-4.15,39.097,39
39,Leganiel,-2.949,40.165,28
39,El Ballestar,-3.067,40.131,39
192,Fuente de Pedro Naharro,-3.009,39.924,66
46,Zarza de Tajo,-3.13,40.018,39
66,Torrubia del Campo,-2.96,39.898,28
46,Villarrubio,-2.893,39.945,20
28,Tribaldos,-2.897,39.973,24
28,El Acebron,-2.983,39.909,20
94,Belinchon,-3.058,40.048,33
39,Abia de la Obispalia,-2.394,40.019,39
55,Huerta de la Obispalia,-2.479,39.989,55
94,La Ventosa,-2.431,40.206,66
39,Valdecolmenas de Abajo,-2.496,40.119,33
134,Cuevas de Velasco,-2.417,40.149,46
66,Villarejo de la Penuela,-2.409,40.087,46
134,Garcinarro,-2.759,40.225,66
230,Huete,-2.689,40.144,230
39,Paredes,-2.854,40.066,28
160,Carrascosa del Campo,-2.736,40.037,79
66,Pineda de Giguela,-2.542,40.085,55
33,Villanueva de Guadamejud,-2.505,40.225,28
160,La Peraleja,-2.554,40.236,46
112,Barajas de Melo,-2.916,40.123,79
55,Vellisca,-2.813,40.13,55
46,Saceda-Trasierra,-2.852,40.155,24
66,Rozalen del Monte,-2.804,39.991,33
46,Jabaga,-2.263,40.086,28
66,Villar de Domingo Garcia,-2.292,40.238,66
134,Sotos,-2.162,40.195,112
55,Bascunana de San Pedro,-2.227,40.213,39
79,Villar de Olalla,-2.193,40.015,39
79,Villalba de la Sierra,-2.089,40.234,46
160,Arcas,-2.112,39.989,66
79,Palomera,-2.048,40.067,33
66,Mariana,-2.145,40.167,24
94,Chillaron de Cuenca,-2.219,40.103,46
39,Huerguina,-1.608,40.041,24
33,Campillos-Sierra,-1.696,40.101,33
24,Tejadillos,-1.633,40.14,24
112,Boniches,-1.623,39.986,46
24,Laguna del Marquesado,-1.671,40.178,24
134,Huerta del Marquesado,-1.687,40.145,79
230,Canete,-1.646,40.042,112
66,Valdemoro-Sierra,-1.766,40.102,55
46,Valdemorillo de la Sierra,-1.779,40.038,46
134,Valdemeca,-1.742,40.224,46
66,Beamud,-1.828,40.186,55
134,La Cierva,-1.85,40.056,39
112,Buenache de la Sierra,-2,40.135,46
39,Valparaiso de Abajo,-2.638,40.053,39
28,Canada Molina,-2.084,39.983,20
46,Nohales,-2.178,40.085,24
79,Alcazar del Rey,-2.807,40.063,39
46,Una,-1.976,40.223,46
94,Torrejoncillo del Rey,-2.571,40.009,46
46,La Melgosa,-2.095,40.026,24
79,Ucles,-2.861,39.98,46
39,Huelves,-2.883,40.043,20
79,Zafrilla,-1.617,40.195,39
160,La Almarcha,-2.379,39.687,66
230,San Lorenzo de la Parrilla,-2.36,39.851,112
46,Villarejo-Periesteban,-2.44,39.872,39
46,La Hinojosa,-2.413,39.728,39
66,Cervera del Llano,-2.418,39.782,39
112,La Alberca de Zancara,-2.492,39.515,94
66,Santa Maria del Campo Rus,-2.422,39.559,46
66,El Pedernoso,-2.746,39.485,39
79,Tresjuncos,-2.753,39.7,33
94,Osa de la Vega,-2.759,39.66,46
39,Monreal del Llano,-2.76,39.568,33
94,Almonacid del Marquesado,-2.766,39.823,39
46,El Hito,-2.717,39.859,33
94,Belmonte,-2.705,39.557,94
55,Rada de Haro,-2.62,39.57,28
55,Fuentelespino de Haro,-2.668,39.689,55
39,Villalgordo del Marquesado,-2.507,39.682,33
66,Villar de la Encina,-2.521,39.637,55
79,Zafra de Zancara,-2.557,39.891,46
55,Villar de Canas,-2.563,39.777,46
94,Montalbanejo,-2.498,39.733,39
94,El Provencio,-2.574,39.377,66
28,Alconchel de la Estrella,-2.573,39.719,28
94,Villamayor de Santiago,-2.924,39.73,66
66,Pozorrubio,-2.948,39.816,28
28,Santa Maria de los Llanos,-2.809,39.49,28
55,Puebla de Almenara,-2.814,39.784,33
55,Hontanaya,-2.834,39.716,46
79,Los Hinojosos,-2.825,39.605,66
46,Mota de Altarejos,-2.308,39.882,28
33,Fresneda de Altarejos,-2.315,39.926,28
66,Belmontejo,-2.344,39.822,24
134,Altarejos,-2.356,39.912,46
55,Casas de Haro,-2.27,39.327,33
66,Vara de Rey,-2.293,39.425,55
24,Torrubia del Castillo,-2.31,39.658,24
33,El Canavate,-2.302,39.543,33
66,Atalaya del Canavate,-2.251,39.518,24
79,Valverde de Jucar,-2.22,39.719,46
55,Olmeda del Rey,-2.082,39.807,55
66,Chumillas,-2.031,39.771,33
39,Villaverde y Pasaconsol,-2.265,39.77,39
66,Piqueras del Castillo,-2.082,39.721,39
55,Albaladejo del Cuende,-2.228,39.807,28
66,Valdeganga de Cuenca,-2.185,39.92,55
55,La Parra de las Vegas,-2.204,39.868,39
112,Fuentes,-2.02,39.95,55
39,Valhermoso de la Fuente,-2.015,39.552,39
33,Valverdejo,-2.023,39.615,33
39,Rubielos Bajos,-2.038,39.446,33
39,Barchin del Hoyo,-2.067,39.664,39
46,Casas de Benitez,-2.127,39.361,46
112,El Picazo,-2.089,39.447,46
66,Alarcon,-2.086,39.547,55
66,Olmedilla de Alarcon,-2.103,39.614,39
112,Buenache de Alarcon,-2.158,39.657,55
46,Pozoamargo,-2.195,39.365,33
66,Hontecillas,-2.185,39.692,24
112,Gabaldon,-1.942,39.626,55
134,El Peral,-1.896,39.499,39
46,Solera de Gabaldon,-1.976,39.749,33
39,Monteagudo de las Salinas,-1.9,39.804,39
94,Almodovar del Pinar,-1.899,39.725,94
134,Canada del Hoyo,-1.899,39.969,66
39,Almendros,-2.883,39.92,39
79,Villaescusa de Haro,-2.671,39.599,28
134,Montalbo,-2.67,39.88,134
134,Casasimarro,-2.039,39.392,66
134,Sisante,-2.201,39.407,94
276,Honrubia,-2.281,39.613,134
331,Valera de Abajo,-2.157,39.769,112
66,Canada Juncosa,-2.25,39.549,46
79,Saelices,-2.804,39.92,79
112,Palomares del Campo,-2.596,39.945,55
94,Las Mesas,-2.764,39.388,66
134,Horcajo de Santiago,-2.998,39.843,112
55,Carrascosa de Haro,-2.541,39.598,28
79,Casas de Fernando Alonso,-2.325,39.349,55
55,Castillo de Garcimunoz,-2.38,39.66,20
94,Olivares de Jucar,-2.355,39.76,55
112,Pinarejo,-2.425,39.616,46
112,Tebar,-2.164,39.498,46
79,Villanueva de la Jara,-1.953,39.441,55
94,Villarejo de Fuentes,-2.695,39.789,66
66,Villares del Saz,-2.503,39.841,66
28,San Martin de Boniches,-1.572,39.887,28
66,Villora,-1.586,39.753,55
79,La Pesquera,-1.585,39.573,28
79,Enguidanos,-1.606,39.674,79
112,Villalpardo,-1.624,39.472,46
94,El Herrumblar,-1.622,39.401,33
230,Cardenete,-1.684,39.768,112
134,Arguisuelas,-1.819,39.832,55
79,Campillo de Altobuey,-1.795,39.611,79
55,Villagarcia del Llano,-1.846,39.326,46
94,Ledana,-1.717,39.355,79
39,Graja de Iniesta,-1.671,39.517,39
39,Castillejo de Iniesta,-1.761,39.525,39
39,Yemeda,-1.722,39.762,24
46,Paracuellos,-1.787,39.717,46
55,Pajaron,-1.781,39.957,46
39,Pajaroncillo,-1.733,39.947,28
160,Carboneras de Guadazaon,-1.807,39.896,160
66,Reillo,-1.871,39.904,39
66,Narboneta,-1.474,39.751,28
79,Henarejos,-1.486,39.865,79
66,Graja de Campalbo,-1.27,39.899,39
79,Garaballa,-1.375,39.815,66
66,Aliaguilla,-1.325,39.741,55
66,Casillas de Ranera,-1.271,39.78,39
160,Mira,-1.438,39.72,66
94,Villar del Humo,-1.627,39.87,79
134,Talayuelas,-1.284,39.85,55
134,Minglanilla,-1.594,39.536,112
397,Landete,-1.368,39.907,230
39,Puebla del Salvador,-1.675,39.565,39
55,Villarta,-1.649,39.442,20
160,Iniesta,-1.747,39.445,112
39,Arandilla del Arroyo,-2.384,40.511,24
55,Buciegas,-2.462,40.336,28
66,Canaveras,-2.395,40.358,55
39,San Pedro Palmiches,-2.404,40.43,39
66,Villar del Infantado,-2.479,40.455,39
39,Olmeda de la Cuesta,-2.475,40.311,20
39,Albendea,-2.415,40.488,20
94,Villalba del Rey,-2.639,40.345,94
33,Portalrubio de Guadamejud,-2.603,40.272,33
134,Canaveruelas,-2.636,40.4,46
28,Alcohujate,-2.614,40.417,20
55,Tinajas,-2.579,40.325,33
55,Gascuena,-2.518,40.299,33
33,Castejon,-2.52,40.382,20
33,Castillejo-Sierra,-2.14,40.376,20
28,Salmeroncillos de Abajo,-2.52,40.505,28
160,Valdeolivas,-2.445,40.506,79
46,Arrancacepas,-2.358,40.303,46
822,Priego,-2.313,40.449,230
33,La Frontera,-2.216,40.402,33
66,Canamares,-2.238,40.451,46
79,Albalate de las Nogueras,-2.277,40.365,33
331,Torralba,-2.284,40.303,46
55,Zarzuela,-2.129,40.256,24
39,Fresneda de la Sierra,-2.141,40.391,39
46,Fuertescusa,-2.176,40.477,33
79,Arcos de la Sierra,-2.112,40.347,55
79,Poyatos,-2.049,40.423,55
112,Las Majadas,-2.02,40.296,46
46,Portilla,-2.081,40.289,33
46,Santa Maria del Val,-2.04,40.504,20
192,Vega del Codorno,-1.928,40.433,79
160,Huelamo,-1.808,40.276,66
397,Tragacete,-1.85,40.349,134
46,Canalejas del Arroyo,-2.492,40.37,46
94,Villaconejos de Trabaque,-2.318,40.4,39
94,Buendia,-2.755,40.367,66
46,Vindel,-2.38,40.587,28
39,El Pozuelo,-2.275,40.62,39
46,Valsalobre,-2.092,40.618,33
39,Cueva del Hierro,-2.035,40.583,24
94,Beteta,-2.075,40.572,79
66,Carrascosa,-2.162,40.591,55
134,Canizares,-2.191,40.519,46
33,Masegosa,-2.025,40.547,20
94,Lagunaseca,-2.018,40.531,39
33,Puente de Vadillos,-2.151,40.529,24
79,Alcantud,-2.331,40.549,55
66,Campillos-Paravientos,-1.545,39.973,46
79,Alcala de la Vega,-1.524,40.027,39
46,Fuentelespino de Moya,-1.469,39.919,39
55,Casas de Garcimolina,-1.416,39.997,28
134,Salvacanete,-1.501,40.099,94
94,Santa Cruz de Moya,-1.255,39.956,66
24,Salinas del Manzano,-1.554,40.089,24
46,Santo Domingo de Moya,-1.368,39.965,46
33,Casa de la Estrella,-2.134,40.036,24
46,Driebes,-3.04,40.245,46
112,Illana,-2.907,40.184,46
39,El Soto,-3.052,40.181,33
79,Campisabalos,-3.144,41.267,33
230,Cantalojas,-3.245,41.235,134
39,Somolinos,-3.057,41.245,20
33,Ujados,-3.004,41.235,28
39,Galve de Sorbe,-3.183,41.222,33
33,Condemios de Arriba,-3.126,41.214,33
66,Albendiego,-3.051,41.227,46
94,Miedes de Atienza,-2.963,41.267,39
24,Banuelos,-2.914,41.286,20
33,Hijes,-2.998,41.251,20
28,Paredes de Siguenza,-2.732,41.243,20
55,Valdelcubo,-2.674,41.226,24
46,Tordelrabano,-2.757,41.218,46
39,Cincovillas,-2.817,41.206,33
33,Romanillos de Atienza,-2.895,41.275,33
192,Albalate de Zorita,-2.843,40.308,79
112,Yebra,-2.965,40.357,33
94,Almoguera,-2.98,40.296,79
66,Millana,-2.57,40.507,28
24,Moratilla de los Meleros,-2.941,40.501,24
28,Aunon,-2.791,40.517,20
28,Mazuecos,-3.009,40.262,20
33,Pozo de Almoguera,-3.028,40.342,28
55,Escariche,-3.054,40.408,46
28,Hontoba,-3.041,40.455,20
39,Escopete,-3.007,40.415,28
33,Albares,-3.011,40.308,20
28,Valdarachas,-3.125,40.517,20
79,Aranzueque,-3.077,40.493,39
112,Alcocer,-2.608,40.47,79
276,Sacedon,-2.733,40.482,192
112,Pastrana,-2.921,40.418,94
46,Valdeconcha,-2.876,40.456,33
79,Sayaton,-2.851,40.376,39
46,Almonacid de Zorita,-2.849,40.329,20
28,Urbanizacion Montejaral,-3.143,40.442,20
33,Valcastillo,-3.159,40.471,20
39,Pozo de Guadalajara,-3.18,40.495,39
39,Renera,-3.016,40.492,24
160,Mondejar,-3.108,40.324,94
46,Huermeces del Cerro,-2.796,41.053,24
134,Valverde de los Arroyos,-3.232,41.129,66
33,El Ordial,-3.114,41.128,20
160,Tamajon,-3.248,41,79
39,Monasterio,-3.096,40.985,20
94,Semillas,-3.118,41.059,55
33,Villares de Jadraque,-3.024,41.101,20
24,Las Navas de Jadraque,-3.087,41.105,24
192,Hiendelaencina,-3.003,41.084,79
33,La Huerce,-3.169,41.153,33
39,Gascuena de Bornova,-3.02,41.142,24
55,Bustares,-3.071,41.136,46
66,Pradena de Atienza,-3.006,41.172,46
46,Majaelrayo,-3.302,41.112,20
66,Campillo de Ranas,-3.313,41.086,55
55,El Cardoso de la Sierra,-3.464,41.097,20
55,Robledo de Corpes,-2.949,41.118,39
46,Torremocha del Campo,-2.618,40.978,33
28,La Bodera,-2.887,41.134,28
39,Santiuste,-2.81,41.085,28
79,Riofrio del Llano,-2.823,41.137,55
46,La Olmeda de Jadraque,-2.74,41.127,46
66,Sauca,-2.528,41.031,39
39,Viana de Jadraque,-2.769,41.025,20
39,Pinilla de Jadraque,-2.942,41.02,28
46,Congostrina,-2.984,41.038,24
94,La Toba,-2.982,41.004,66
28,Cendejas de Enmedio,-2.871,40.982,20
112,Baides,-2.774,41.006,39
55,Medranda,-2.936,40.985,24
79,Palmaces de Jadraque,-2.91,41.056,24
24,Angon,-2.853,41.067,24
33,La Minosa,-2.931,41.179,33
192,Sienes,-2.651,41.201,79
192,Atienza,-2.87,41.198,134
55,Estriegana,-2.523,41.058,20
1183,Siguenza,-2.643,41.068,331
24,Montarron,-3.114,40.91,20
66,Castilnuevo,-1.857,40.815,24
46,Mohernando,-3.174,40.803,20
94,La Yunta,-1.683,40.915,66
55,Campillo de Duenas,-1.684,40.884,24
39,El Pedregal,-1.569,40.779,33
66,Torre del Burgo,-3.079,40.794,39
33,Malaga del Fresno,-3.247,40.789,33
24,Taragudo,-3.079,40.824,20
46,Fuencemillan,-3.1,40.923,20
28,Canizar,-3.066,40.77,20
230,Yunquera de Henares,-3.166,40.753,66
55,Torija,-3.03,40.745,55
33,Ciruelas,-3.088,40.752,33
112,Cogolludo,-3.088,40.947,94
39,Arbancon,-3.114,40.964,20
46,Alarilla,-3.104,40.85,33
55,Hita,-3.047,40.824,24
46,Espinosa de Henares,-3.071,40.904,33
39,Copernal,-3.056,40.867,33
66,Malaguilla,-3.257,40.822,28
46,Robledillo de Mohernando,-3.234,40.853,24
55,Retiendas,-3.274,40.971,20
55,Puebla de Belena,-3.218,40.89,28
33,La Mierla,-3.234,40.938,33
160,Humanes,-3.155,40.827,55
33,Puebla de Valles,-3.302,40.928,33
55,Matarrubia,-3.291,40.867,33
39,Valdesotos,-3.328,40.958,28
112,Valdepenas de la Sierra,-3.386,40.908,66
46,Tortuero,-3.352,40.936,20
66,El Cubillo de Uceda,-3.405,40.824,33
28,Casa de Uceda,-3.371,40.843,24
33,Vinuelas,-3.343,40.795,20
24,Villaseca de Uceda,-3.351,40.82,20
66,Torrecuadradilla,-2.531,40.854,33
94,Caraquiz,-3.485,40.791,33
24,Penarrubia,-3.456,40.797,20
39,Mesones,-3.414,40.765,39
66,Miralrio,-2.942,40.888,28
66,Gajanejos,-2.891,40.842,33
66,Muduex,-2.958,40.83,33
33,Utande,-2.927,40.849,20
24,Villanueva de Argecilla,-2.913,40.902,20
28,Casas de San Galindo,-2.957,40.872,20
230,Jadraque,-2.925,40.925,134
571,Cifuentes,-2.622,40.784,160
94,Masegoso de Tajuna,-2.698,40.825,33
24,Solanillos del Extremo,-2.697,40.751,24
46,Jirueque,-2.902,40.965,20
24,Villaseca de Henares,-2.797,40.961,20
33,Bujalaro,-2.883,40.937,24
66,Algora,-2.666,40.963,33
33,Almadrones,-2.773,40.901,28
28,Mirabueno,-2.722,40.945,20
28,Castejon de Henares,-2.786,40.938,24
112,Argecilla,-2.817,40.884,39
46,Las Inviernas,-2.669,40.872,33
55,Barriopedro,-2.751,40.79,39
24,Cogollor,-2.743,40.848,20
66,Alaminos,-2.725,40.863,55
134,Brihuega,-2.869,40.762,134
24,Ledanca,-2.842,40.868,20
33,Valdearenas,-2.991,40.809,20
33,Trijueque,-2.994,40.776,24
66,Membrillera,-2.979,40.948,28
28,Torremochuela,-1.841,40.766,20
79,Huertahernando,-2.286,40.823,55
39,Esplegares,-2.369,40.857,33
134,Ocentejo,-2.397,40.772,55
160,Zaorejas,-2.2,40.762,66
134,Sacecorbo,-2.416,40.833,79
55,Canredondo,-2.492,40.813,46
66,Sotodosos,-2.392,40.921,28
134,Riba de Saelices,-2.296,40.912,94
46,Ablanque,-2.228,40.898,39
66,Abanades,-2.484,40.892,55
230,Cobeta,-2.141,40.866,94
94,Torremocha del Pinar,-2.044,40.889,46
46,Anquela del Pedregal,-1.736,40.743,33
28,Torrecuadrada de Molina,-1.806,40.75,28
79,Prados Redondos,-1.792,40.785,55
66,Castellar de la Muela,-1.759,40.819,24
79,Rueda de la Sierra,-1.854,40.919,39
46,Fuembellida,-1.998,40.756,28
134,Tierzo,-1.93,40.749,66
39,Rillo de Gallo,-1.937,40.866,28
66,Corduente,-1.977,40.843,55
79,Valhermoso,-1.96,40.786,33
33,Herreria,-1.959,40.888,20
79,El Pobo de Duenas,-1.648,40.777,79
39,Morenilla,-1.706,40.786,33
24,Hombrados,-1.684,40.802,20
66,La Beltraneja,-2.955,40.791,46
24,Carrascosa de Henares,-3.01,40.908,24
66,Gargoles de Arriba,-2.633,40.75,24
134,Mandayona,-2.749,40.956,79
66,Matillas,-2.84,40.951,55
276,Molina de Aragon,-1.883,40.842,276
66,Romanones,-2.99,40.571,24
112,Arbeteta,-2.402,40.669,39
55,Escamilla,-2.562,40.55,33
24,Fuentelviejo,-2.984,40.526,20
94,Salmeron,-2.492,40.545,39
79,Peralveche,-2.448,40.611,46
46,Castilforte,-2.431,40.557,39
46,Yelamos de Arriba,-2.842,40.639,39
33,Valfermoso de Tajuna,-2.953,40.62,33
46,Irueste,-2.891,40.612,24
66,Chillaron del Rey,-2.688,40.597,39
33,El Olivar,-2.749,40.607,20
39,Mantiel,-2.662,40.619,20
33,Duron,-2.724,40.627,20
33,Alique,-2.643,40.586,24
24,Atanzon,-2.997,40.667,20
55,Valdeavellano,-2.969,40.665,55
33,Alhondiga,-2.823,40.527,33
112,Fuentelencina,-2.881,40.517,79
134,Pareja,-2.648,40.557,66
28,Chequilla,-1.827,40.606,20
55,Yebes,-3.112,40.537,33
33,Quer,-3.275,40.606,20
46,Lupiana,-3.054,40.608,33
79,Centenera,-3.054,40.652,28
33,Armuna de Tajuna,-3.028,40.531,33
55,Horche,-3.064,40.566,24
39,Chiloeches,-3.164,40.572,39
55,Tortola de Henares,-3.124,40.706,33
46,Valdegrudas,-3.014,40.714,20
46,Fontanar,-3.179,40.727,20
28,Aldeanueva de Guadalajara,-3.045,40.681,20
28,Torrejon del Rey,-3.334,40.645,20
79,Tendilla,-2.956,40.544,39
66,Penalver,-2.887,40.582,46
33,Berninches,-2.8,40.571,33
79,Alocen,-2.749,40.574,39
112,El Recuenco,-2.339,40.615,66
134,Poveda de la Sierra,-2.028,40.643,55
55,Penalen,-2.069,40.666,24
192,Trillo,-2.591,40.7,66
46,Valtablado del Rio,-2.402,40.715,33
230,Villanueva de Alcoron,-2.252,40.679,94
28,Valdelosllanos,-3.401,40.702,20
24,Las Colinas,-3.434,40.716,20
39,Usanos,-3.269,40.714,39
79,Valdenoches,-3.089,40.684,20
160,Romancos,-2.883,40.688,55
79,Armallones,-2.302,40.736,55
112,Henche,-2.707,40.715,66
24,Caspuenas,-2.978,40.693,20
112,Piqueras,-1.721,40.663,28
55,Alcoroches,-1.746,40.627,28
94,Traid,-1.808,40.668,39
134,Checa,-1.788,40.588,79
46,Terzaga,-1.903,40.695,39
39,Pinilla de Molina,-1.879,40.68,20
66,Megina,-1.869,40.639,33
39,Peralejos de las Truchas,-1.908,40.593,39
94,Taravilla,-1.968,40.697,39
46,Banos de Tajo,-1.97,40.718,20
94,Tordesilos,-1.592,40.671,46
46,Setiles,-1.616,40.733,39
79,Orea,-1.726,40.557,33
39,Tordellego,-1.67,40.721,33
134,Alustante,-1.657,40.614,46
39,Adobes,-1.677,40.676,28
