rmax,name,lon,lat
46,Argyroupolis,24.334,35.285
79,Rodovanion,23.782,35.288
55,Skalanion,25.188,35.284
33,Kato Kalesia,25.056,35.287
39,Epano Vatheia,25.241,35.285
331,Malia,25.464,35.283
39,Sellion,24.52,35.29
24,Moni,25.013,35.287
230,Anogeia,24.883,35.291
46,Goniai,24.927,35.293
24,Zoniana,24.83,35.294
134,Tylisos,25.019,35.297
55,Kalonyktis,24.393,35.302
55,Armenoi,24.461,35.304
33,Anopolis,25.257,35.303
79,Livadia,24.808,35.307
94,Elaia,25.232,35.304
33,Axos,24.842,35.309
39,Paralia Kourna,24.299,35.351
33,Chersonisos,25.371,35.308
46,Kallithea,25.173,35.314
55,Kourna,24.297,35.314
28,Gouvai,25.313,35.311
55,Astyrakion,24.947,35.315
55,Gonia,24.418,35.324
55,Limin Chersonisou,25.391,35.318
39,Agios Mamas,24.761,35.324
276,Kandanos,23.741,35.327
28,Vlychada,24.783,35.399
24,Exantis,24.748,35.402
79,Balion,24.782,35.412
28,Kampos Apladianon,24.819,35.349
33,Dafnedes,24.757,35.356
39,Kissou Kampos,24.554,35.187
24,Pyrgos,24.335,35.349
33,Archontiki,24.337,35.315
24,Agios Andreas,24.415,35.316
33,Violi Charaki,24.44,35.36
66,Kali Sykea,24.381,35.238
24,Pale,24.469,35.239
24,Myrthianos Plakias,24.399,35.189
55,Varetada,21.286,38.869
28,Kampos,21.188,38.917
55,Boukka,21.142,38.927
55,Aktion,20.772,38.933
33,Agia Varvara,20.746,38.836
46,Pogonia,20.839,38.793
46,Agios Stefanos,21.205,38.724
66,Rivion,21.199,38.743
39,Kouvaras,21.224,38.695
46,Manina Vlizianon,21.19,38.536
66,Triantaiika,21.382,38.655
24,Elaiofyton,21.387,38.669
79,Lefka,21.38,38.588
33,Platanos,21.323,38.61
28,Kefalovrysos,21.307,38.505
28,Kato Ellinika,21.401,38.484
33,Bouza,21.31,38.429
66,Kefalovryson,21.365,38.461
39,Chalikion,21.355,38.477
33,Magoula,21.265,38.394
33,Agrilia,21.443,38.403
66,Potamia,21.309,39.003
46,Achyra,21.031,38.78
112,Rentina,21.974,39.065
66,Aidonochorion,21.969,39.093
160,Loutropigi,22.046,39.118
66,Vathylakkos,21.952,39.13
66,Kato Ktimeni,22.119,39.134
79,Neraida,21.79,39.141
134,Molocha,21.871,39.153
24,Asimochorion,22.164,39.173
79,Thrapsimion,22.006,39.173
134,Leontarion,22.133,39.182
79,Karoplesion,21.758,39.174
46,Anavra,22.093,39.191
160,Apidea,21.938,39.199
33,Argyrion,21.417,39.192
112,Kedros,22.043,39.21
46,Paliourion,21.982,39.219
28,Loutron,22.017,39.221
24,Dafnospilia,21.947,39.228
79,Rachoula,21.874,39.239
66,Kastanea,21.797,39.238
46,Grammatikon,22.214,39.245
112,Vragkiana,21.434,39.24
66,Filia,22.054,39.255
33,Katafygion,21.83,39.251
46,Belokomiti,21.734,39.256
94,Kappadokikon,22.141,39.265
33,Mavrachades,22.073,39.267
28,Dasochorion,22.034,39.268
55,Marathos,21.434,39.262
28,Lamperon,21.78,39.271
39,Ampelikon,21.857,39.278
160,Neochorion,21.733,39.276
79,Myrofyllon,21.325,39.366
134,Mesochora,21.325,39.473
46,Kallirroi,21.293,39.628
24,Sarantaporon,21.835,39.158
33,Agios Athanasios,21.779,39.282
24,Neochoria,21.407,39.248
55,Rogkia,21.443,39.218
112,Palaiochorio,21.299,39.525
822,Kastrion,24.086,34.835
112,Antiskarion,24.879,34.959
66,Paranymfoi,25.129,34.974
46,Agios Kyrillos,24.912,34.979
55,Pigaidakia,24.85,34.985
79,Vasiliki,24.993,34.985
46,Achentrias,25.224,34.991
33,Staviai,25.033,35.004
79,Plora,24.935,35.007
66,Pyrgos,25.153,35.006
28,Vasilika Anogeia,24.968,35.008
66,Sternai,25.087,35.009
112,Pompia,24.867,35.01
33,Charakas,25.12,35.009
94,Vagionia,25,35.014
79,Pitsidia,24.781,35.017
24,Rotasion,25.173,35.013
24,Dionysion,25.06,35.014
66,Mesochorion,25.209,35.015
24,Sivas,24.807,35.019
33,Kouses,24.831,35.019
28,Platanos,24.924,35.024
46,Sykologos,25.512,35.02
39,Petrokefalion,24.834,35.031
33,Kamilarion,24.79,35.033
66,Chondros,25.38,35.03
46,Choustouliana,24.936,35.033
55,Demation,25.291,35.033
46,Praitoria,25.147,35.038
28,Amiras,25.447,35.041
276,Asimion,25.094,35.045
46,Pefkos,25.474,35.041
571,Moirai,24.876,35.051
24,Kato Viannos,25.388,35.047
55,Stoloi,25.048,35.052
24,Kato Symi,25.49,35.047
112,Skinias,25.305,35.053
160,Ano Viannos,25.411,35.053
94,Agioi Deka,24.962,35.059
33,Gkagkalai,25.011,35.06
55,Kalyvia,25.228,35.059
46,Sokaras,25.109,35.06
39,Voroi,24.812,35.068
94,Tympakion,24.767,35.072
24,Faneromeni,24.831,35.075
39,Ligortynos,25.177,35.074
66,Galia,24.87,35.077
55,Garipa,25.246,35.078
66,Karavados,25.338,35.081
112,Tefelion,25.163,35.093
66,Moronion,24.917,35.094
66,Agia Galini,24.688,35.096
94,Inion,25.282,35.094
46,Emparos,25.385,35.095
39,Kasanos,25.313,35.104
39,Laranion,25.068,35.107
79,Skourvoula,24.843,35.107
24,Afration,25.355,35.106
112,Klima,24.76,35.11
55,Ano Moulia,24.996,35.114
33,Charakion,25.136,35.112
24,Lefkochorion,25.249,35.113
33,Saktouria,24.615,35.121
55,Partira,25.226,35.118
55,Panagia,25.342,35.119
230,Melampes,24.653,35.127
46,Magarikarion,24.825,35.128
192,Zaros,24.903,35.13
24,Nyvritos,24.924,35.131
79,Metaxochorion,25.142,35.13
55,Gergeri,24.948,35.132
79,Episkopi,24.336,35.329
28,Aimonas,24.867,35.329
33,Eleftherna,24.67,35.329
79,Roussospition,24.496,35.335
39,Margaritai,24.686,35.339
24,Irakleion,25.131,35.338
66,Kyrianna,24.602,35.343
79,Emprosneros,24.188,35.345
79,Prines,24.425,35.345
24,Nea Alikarnassos,25.158,35.34
112,Garazon,24.789,35.345
33,Choumerion,24.732,35.346
28,Maroulas,24.55,35.347
24,Skouloufia,24.638,35.349
66,Marathos,24.973,35.347
24,Geranion,24.4,35.354
55,Damasta,24.923,35.353
28,Adele,24.56,35.358
24,Maza,24.212,35.36
33,Vafes,24.174,35.361
46,Alfa,24.67,35.358
46,Erfoi,24.635,35.359
160,Elos,23.637,35.361
28,Georgioupolis,24.26,35.363
79,Aloides,24.875,35.365
24,Agia,24.767,35.366
571,Rethymnon,24.476,35.369
160,Rodia,25.022,35.366
24,Tzitzifes,24.149,35.37
192,Perama,24.703,35.371
33,Prases,23.85,35.376
192,Vryses,24.201,35.378
28,Damania,25.116,35.134
134,Agia Varvara,25.001,35.136
46,Nipiditos,25.332,35.14
46,Agios Thomas,25.036,35.148
66,Vorizia,24.847,35.15
55,Panorama,25.196,35.147
79,Platanos,24.764,35.152
28,Kamarai,24.819,35.153
276,Arkalochorion,25.265,35.149
24,Apodoulou,24.736,35.157
39,Gerakion,25.352,35.152
28,Patsideros,25.228,35.156
66,Kerames,24.518,35.161
55,Prinias,24.993,35.159
79,Akoumia,24.582,35.165
39,Nithavris,24.734,35.172
66,Lefkogeia,24.444,35.178
33,Alagnion,25.211,35.174
66,Mathia,25.365,35.174
24,Avgeniki,25.03,35.189
46,Ano Meros,24.662,35.187
46,Kouroutai,24.738,35.189
39,Asomatos,24.454,35.192
66,Thrapsanon,25.281,35.188
24,Evangelismos,25.311,35.187
46,Kyparissos,25.077,35.192
46,Choudetsion,25.179,35.193
39,Mariou,24.417,35.2
24,Voni,25.247,35.195
33,Kastamonitsa,25.378,35.193
24,Veneraton,25.04,35.197
39,Nipos,24.169,35.38
39,Melidonion,24.737,35.379
39,Sempronas,23.814,35.38
24,Angeliana,24.678,35.383
33,Kalamitsion Amygdalion,24.231,35.382
79,Fres,24.145,35.381
79,Fodele,24.958,35.383
79,Vlatos,23.66,35.39
24,Melidonion,24.115,35.388
28,Lakkoi,23.939,35.395
331,Sisai,24.884,35.395
192,Palaia Roumata,23.778,35.401
55,Ramni,24.103,35.4
33,Litsarda,24.222,35.404
55,Meskla,23.956,35.403
33,Therison,23.984,35.404
33,Kaina,24.164,35.406
28,Roumeli,24.7,35.404
24,Kefalas,24.245,35.414
46,Chora Sfakion,24.137,35.202
134,Sellia,24.382,35.204
46,Patsianos,24.232,35.203
28,Petrochorion,24.684,35.205
39,Zoforoi,25.271,35.206
55,Kato Asitai,24.998,35.203
94,Profitis Ilias,25.1,35.208
160,Fourfouras,24.713,35.212
230,Anopolis,24.094,35.217
55,Gerakarion,24.607,35.213
112,Kastellion,25.339,35.208
46,Dafnes,25.05,35.215
192,Spilion,24.532,35.22
46,Askoi,25.386,35.218
39,Apostoloi,25.298,35.219
39,Agiai Paraskiai,25.205,35.211
79,Koxare,24.468,35.226
24,Pyrgou,25.019,35.224
24,Lampini,24.511,35.229
24,Monastirakion,24.667,35.228
79,Vamos,24.197,35.409
28,Skepasti,24.722,35.413
112,Panormos,24.691,35.417
39,Neon Chorion,24.142,35.422
46,Gavalochorion,24.212,35.425
24,Armenoi,24.158,35.43
986,Palaiochora,23.681,35.231
33,Platania,24.704,35.23
112,Krouson,24.982,35.229
94,Meronas,24.629,35.233
33,Agios Myron,25.029,35.232
55,Goniai,25.443,35.23
24,Agkouseliana,24.436,35.24
39,Kato Rodakinon,24.317,35.199
33,Gournai,25.093,35.297
33,Knosos,25.159,35.299
33,Marathitis,25.142,35.288
33,Foinikia,25.106,35.282
24,Agios Vlasios,25.132,35.255
46,Avli,25.308,35.121
66,Tsoutsouros,25.288,34.986
28,Roussochoria,25.298,35.158
24,Amourgellai,25.181,35.132
24,Stironas,25.199,35.157
33,Patsides,25.182,35.269
39,Plakiotissa,25.153,35.063
24,Pyrathion,25.189,35.098
134,Arvi,25.454,34.992
66,Syndonia,25.498,34.985
94,Kastri,25.374,35
55,Skines,23.913,35.432
24,Stylos,24.125,35.433
28,Fournes,23.941,35.438
66,Kalathenai,23.671,35.435
46,Deliana,23.739,35.449
39,Plaka,24.21,35.453
192,Kalyvai,24.171,35.455
160,Alikianos,23.912,35.454
33,Voulgaro,23.699,35.453
24,Lousakiai,23.624,35.456
46,Varypetron,23.962,35.466
94,Platanos,23.601,35.468
28,Koufos,23.9,35.466
94,Voukoliai,23.8,35.467
46,Aptera,24.133,35.463
39,Manoliopoulon,23.856,35.47
55,Potamida,23.695,35.468
55,Agia,23.931,35.473
79,Mournies,24.012,35.482
33,Kaloudiana,23.688,35.486
55,Souda,24.072,35.488
79,Vrysai,23.89,35.492
331,Kissamos,23.654,35.496
28,Sirilion,23.82,35.497
24,Agios Georgios,23.612,35.497
24,Nochia,23.755,35.508
33,Agioi Theodoroi,25.093,35.32
33,Kavrochorion,25.046,35.309
24,Kollyvas,25.07,35.314
94,Agia Pelagia,25.017,35.408
28,Ammoudi,25.032,35.394
28,Pantanassa,25.042,35.354
24,Loukia,25.019,34.99
46,Valis,25.028,35.074
46,Lentas,24.924,34.932
112,Kato Gouvai,25.314,35.33
28,Chanion tou Kokkini,25.256,35.33
46,Karteros,25.2,35.329
33,Kalon Chorion,25.341,35.278
24,Koxari,25.323,35.287
39,Makrai,24.932,35.109
28,Atsipades,25.076,35.071
46,Kastellion,25.105,35.084
24,Inia,25.049,35.078
28,Krasion,25.469,35.234
39,Stalis,25.43,35.293
94,Kaloi Limenes,24.801,34.932
46,Polemarchion,23.816,35.51
46,Sternai,24.146,35.512
66,Spilia,23.778,35.515
66,Agia Marina,23.927,35.515
46,Pitharion,24.087,35.517
24,Maleme,23.848,35.522
39,Tavronitis,23.82,35.528
79,Kounoupidiana,24.076,35.536
33,Mouzouras,24.153,35.539
39,Ravdoucha,23.734,35.541
160,Kolymvari,23.779,35.544
55,Chordakion,24.164,35.551
33,Rodopos,23.753,35.562
28,Afrata,23.766,35.571
28,Trachilos,23.631,35.51
46,Astrikas,23.749,35.476
46,Karave,24.118,34.849
112,Sfinarion,23.568,35.418
112,Moni Chrysoskalitissis,23.536,35.308
55,Gialos,23.638,35.238
79,Prines,23.819,35.324
33,Palaion Geranion,23.874,35.51
39,Daratsos,23.975,35.5
24,Stalos,23.935,35.503
46,Lygides,23.969,35.484
33,Kampos,25.109,35.256
28,Malades,25.107,35.27
33,Tsagkarakion,25.101,35.23
24,Kalos,25.074,35.164
46,Karkadiotissa,25.123,35.161
24,Roukanion,25.095,35.169
24,Kalamakion,24.759,35.029
160,Epano Archanai,25.16,35.235
28,Myrtia,25.211,35.235
46,Karinai,24.526,35.245
66,Patsos,24.573,35.247
33,Agios Syllas,25.115,35.242
55,Vistagi,24.677,35.247
79,Sougia,23.811,35.25
33,Sgourokefalion,25.236,35.244
28,Pentamodion,25.027,35.248
94,Smarion,25.306,35.249
46,Myriokefala,24.3,35.254
28,Apostoloi,24.628,35.255
33,Kato Archanai,25.171,35.252
94,Stavrakia,25.062,35.254
33,Pantanassa,24.595,35.257
28,Loutrakion,24.991,35.253
39,Potamiai,25.387,35.255
46,Episkopi,25.239,35.257
24,Korfai,25.007,35.26
33,Galifa,25.281,35.262
24,Voutai,25.057,35.265
79,Voleones,24.588,35.27
66,Mochos,25.423,35.264
55,Koumoi,24.441,35.274
331,Asi Gonia,24.284,35.274
24,Aitania,25.219,35.27
79,Vasileiai,25.138,35.271
24,Mountros,24.368,35.277
28,Kathiana,24.117,35.534
55,Stavros,24.091,35.585
66,Chorafakia,24.092,35.562
33,Tsivaras,24.178,35.436
24,Aspron,24.203,35.44
33,Drapanos,24.232,35.436
46,Mourion,24.284,35.334
79,Katochorion,24.062,35.44
39,Fones,24.228,35.356
46,Loutron,24.078,35.2
134,Kares,24.186,35.297
46,Vouvas,24.189,35.212
112,Fragkokastello,24.233,35.182
28,Gallos,24.452,35.347
24,Xiron Chorion,24.513,35.351
39,Somatas,24.458,35.325
46,Ampelakion,24.482,35.28
39,Adelianos Kampos,24.54,35.372
94,Sfakaki,24.584,35.381
33,Palaia Morsini,24.848,41.128
66,Petrochorion,24.842,41.086
28,Neochorion,24.634,41.221
55,Sydini,25.023,41.074
112,Echinos,24.972,41.274
39,Kyknos,24.871,41.259
46,Revma,24.796,41.29
46,Metamorfosis,21.678,40.25
28,Karyditsa,21.798,40.253
331,Velventos,22.069,40.257
112,Avgerinos,21.164,40.24
39,Dionysiou,23.269,40.273
66,Vathylakkos,21.914,40.258
39,Moschochorion,22.397,40.266
39,Svoronos,22.465,40.269
986,Katerini,22.511,40.269
79,Krokos,21.817,40.262
24,Peristasis,22.541,40.274
55,Kallithea,22.578,40.271
46,Vria,22.323,40.274
66,Portaria,23.296,40.285
192,Siatista,21.551,40.261
33,Roditis,21.939,40.268
24,Zografou,23.253,40.285
39,Olynthos,23.343,40.292
134,Tsotylion,21.324,40.261
33,Mikrokastron,21.503,40.267
28,Lefkovrysi,21.78,40.271
160,Ormylia,23.544,40.293
39,Aronas,22.433,40.29
112,Ritini,22.284,40.289
66,Lagorrachi,22.351,40.295
79,Nea Triglia,23.209,40.306
94,Lefkara,21.971,40.292
66,Imera,22.04,40.295
79,Petrana,21.866,40.291
39,Agios Theodoros,21.218,40.281
94,Chrysi,20.975,40.274
46,Vateron,21.736,40.292
46,Kalonerion,21.491,40.288
134,Nea Kallikrateia,23.063,40.313
331,Kozani,21.789,40.3
94,Xirolimni,21.66,40.295
134,Korinos,22.587,40.315
79,Neos Skopos,23.61,41.025
39,Filippoi,24.341,41.026
33,Livadochorion,23.362,41.025
79,Symvoli,24.041,41.029
24,Kryonerion,24.378,41.026
33,Stathmos Lefkotheas,23.932,41.014
39,Lydia,24.282,41.03
331,Nea Zichni,23.829,41.03
39,Kastaneai,22.764,41.025
39,Stavrochorion,22.798,41.036
39,Mandilion,23.912,41.041
39,Makrychorion,24.614,41.041
112,Promachoi,22.007,41.026
66,Neos Xerias,24.707,41.024
55,Voreinon,22.081,41.028
66,Terpyllos,22.955,41.039
33,Nerofraktis,24.133,41.044
28,Agios Christoforos,23.774,41.045
28,Garefeion,22.046,41.025
55,Filoteia,22.151,41.035
112,Pefkodasos,22.577,41.039
39,Pentapolis,23.689,41.049
39,Elafochorion,24.551,41.052
55,Neochorion,23.579,41.052
79,Kalampakion,24.187,41.05
134,Anavryton,23.05,41.05
28,Mavrolefki,24.1,41.057
79,Chryson,23.65,41.06
28,Ano Kamila,23.423,41.057
66,Sfelinos,23.873,41.058
79,Fotolivos,24.047,41.06
28,Monovrysi,23.605,41.06
39,Ano Kefalarion,24.27,41.061
134,Alistrati,23.956,41.065
39,Dialekton,24.727,41.063
66,Provatas,23.39,41.068
55,Foustani,22.174,41.054
46,Anastasia,23.808,41.069
79,Mitrousion,23.461,41.071
66,Koskinas,22.012,39.494
55,Mouria,21.717,39.487
112,Kileler,22.639,39.504
46,Sotirion,22.705,39.506
66,Petrinon,22.158,39.497
94,Vounaina,22.245,39.501
28,Filyra,21.61,39.492
33,Lygaria,21.684,39.494
134,Megala Kalyvia,21.784,39.497
55,Neai Karyai,22.469,39.51
46,Metamorfosis,22.053,39.507
39,Servota,21.908,39.504
33,Niki,22.684,39.516
134,Elati,21.539,39.501
55,Pialeia,21.595,39.505
46,Glinos,21.864,39.512
33,Krannon,22.319,39.518
39,Droseron,21.74,39.511
66,Pigi,21.701,39.512
134,Vlochos,22.093,39.52
66,Pedinon,21.953,39.517
94,Agioi Anargyroi,22.366,39.525
39,Agia Kyriaki,21.803,39.516
134,Fiki,21.656,39.517
66,Mavrovounion,22.269,39.53
55,Nea Lefki,22.497,39.536
46,Marathea,21.996,39.531
28,Nomi,21.935,39.529
28,Longos,21.837,39.529
24,Eleftherochorion,21.635,39.529
55,Patoulia,21.864,39.536
39,Parapotamos,21.698,39.533
66,Neraidochori,21.439,39.529
94,Loutron,22.209,39.544
33,Xyloparoikon,21.582,39.534
46,Melissa,22.646,39.555
33,Faneromeni,21.891,39.546
39,Pertoulion,21.466,39.541
192,Nikaia,22.465,39.562
33,Isaia,24.833,41.224
476,Dimarion,24.844,41.352
94,Pachni,24.894,41.305
112,Ano Thermai,24.968,41.358
55,Medousa,25.051,41.337
24,Akarpon,24.977,41.125
46,Temenos,25.038,41.226
94,Alma,24.861,41.215
192,Kentavros,24.952,41.229
28,Aiora,24.871,41.201
79,Sirokon,24.891,41.18
24,Mantaina,24.895,41.252
46,Glafki,24.929,41.267
46,Avra,25.683,40.925
28,Skala Fourkas,23.384,39.997
24,Mikro Evydrio,22.338,39.346
24,Kastri Loutro,22.679,39.967
33,Agios Ioannis,23.582,41.1
33,Lakkia,23.109,40.515
39,Drakontio,23.158,40.737
66,Vrasna,23.652,40.704
39,Neokastro,22.936,40.708
33,Egnatia,22.917,40.694
39,Agia Sofia,22.862,40.665
39,Limani Karra,23.795,40.077
79,Stefani,23.547,38.176
79,Pyli,23.497,38.214
55,Palaion Keramidion,22.467,40.313
134,Ouranopolis,23.981,40.326
112,Metagkitsion,23.655,40.324
55,Kypseli,21.029,40.289
66,Nea Tenedos,23.241,40.328
112,Polykastanon,21.137,40.294
33,Alonakia,21.67,40.308
55,Nea Silata,23.133,40.329
46,Ammouliani,23.921,40.332
28,Elatochorion,22.267,40.32
24,Skiti,21.65,40.31
55,Pyrgadikia,23.723,40.336
28,Kato Agios Ioannis,22.531,40.323
33,Elaiochoria,23.172,40.337
94,Moschopotamos,22.309,40.326
39,Oinoi,21.914,40.321
134,Galatini,21.553,40.318
160,Neapolis,21.385,40.314
28,Agios Pavlos,23.061,40.341
39,Nea Trapezous,22.526,40.335
39,Aliakmon,21.428,40.319
134,Simantra,23.311,40.345
28,Nea Nikopolis,21.741,40.327
39,Ptelea,21.879,40.331
46,Daskion,22.172,40.337
46,Chorigos,21.33,40.32
94,Lygeri,21.712,40.329
39,Koila,21.79,40.33
33,Anthotopos,21.671,40.335
46,Exochi,22.429,40.349
66,Katalonia,22.367,40.351
276,Rizomata,22.211,40.35
55,Sevasti,22.544,40.359
39,Asproula,21.286,40.336
46,Eratyra,21.511,40.342
134,Damaskinia,21.18,40.336
55,Petralona,23.16,40.369
79,Vrastama,23.536,40.371
55,Koilas,21.928,40.358
134,Efkarpia,22.908,41.073
39,Kokkinia,23.008,41.073
79,Mikron Dasos,22.572,41.07
39,Agiochorion,23.955,41.082
55,Ftelia,24.191,41.083
28,Emmanouil Pappas,23.71,41.086
46,Vamvakia,23.343,41.083
33,Trias,23.254,41.085
39,Zevgolation,23.283,41.085
24,Paradeisos,24.761,41.083
24,Fanos,22.478,41.08
66,Agriani,23.829,41.09
94,Plagia,22.497,41.08
39,Pontokerasea,23.129,41.089
1419,Serrai,23.55,41.09
66,Skopia,23.897,41.09
24,Doxaton,24.23,41.093
94,Neon Soulion,23.644,41.094
230,Archangelos,22.28,41.082
192,Cherso,22.781,41.09
134,Platamon,24.533,41.097
55,Kyria,24.289,41.099
46,Kala Dendra,23.426,41.101
33,Megali Sterna,22.725,41.09
55,Lefkon,23.496,41.099
33,Agion Pnevma,23.681,41.101
24,Mikrochorion,24.176,41.102
66,Skra,22.383,41.095
112,Kalos Agros,24.085,41.106
66,Anagennisis,23.335,41.108
79,Gerakarion,22.922,41.104
66,Plagia,22.845,41.105
46,Sitagroi,24.028,41.111
55,Fyska,22.994,41.11
79,Valtinon,21.659,39.549
112,Melia,22.607,39.567
79,Keramidion,22.083,39.559
79,Chalki,22.539,39.569
571,Trikala,21.768,39.556
24,Fotada,21.687,39.553
46,Gorgogyrion,21.588,39.548
134,Keramidion,22.91,39.572
134,Kalamakion,22.746,39.571
46,Klokotos,22.008,39.565
28,Petroporos,21.929,39.56
79,Megalochorion,21.844,39.56
33,Elafos,22.783,39.579
160,Koilada,22.304,39.573
55,Prodromos,21.59,39.566
33,Eleftherai,22.338,39.577
134,Desi,21.368,39.561
55,Taxiarchai,21.892,39.576
33,Genesion,21.585,39.579
55,Kato Amygdali,22.712,39.596
55,Petroton,21.963,39.585
33,Chrysavgi,21.852,39.585
55,Kefalovryson,21.693,39.581
55,Pineias,22.175,39.591
24,Zilefti,21.821,39.586
55,Krinitsa,21.795,39.588
79,Farkadon,22.068,39.592
28,Mega Kefalovryson,21.729,39.589
79,Sklithron,22.874,39.609
33,Dialekton,21.651,39.596
39,Rachoula,22.295,39.608
28,Panagitsa,22.052,39.605
24,Koutsocheron,22.238,39.608
28,Glafki,22.575,39.611
55,Zarkos,22.124,39.609
192,Oichalia,21.98,39.607
112,Palaiopyrgos,21.815,39.607
66,Namata,22.624,39.623
66,Terpsithea,22.351,39.62
134,Platykampos,22.536,39.621
134,Skourta,23.552,38.214
94,Dafni,23.417,38.241
79,Agios Thomas,23.588,38.277
39,Loutoufion,23.27,38.277
79,Neochorakion,23.389,38.295
79,Asopia,23.501,38.299
66,Ampelochorion,23.266,38.301
46,Kallithea,23.443,38.309
66,Oinofyta,23.637,38.311
397,Thivai,23.318,38.323
55,Tanagra,23.537,38.328
192,Schimatarion,23.579,38.346
134,Arma,23.486,38.351
55,Eleon,23.443,38.363
94,Paralia Avlidos,23.629,38.382
79,Ypaton,23.393,38.388
55,Vathy,23.604,38.407
112,Mourikion,23.356,38.424
134,Loukisia,23.448,38.479
55,Drosia,23.548,38.483
55,Plaka Dilesi,23.664,38.346
134,Ritsona,23.523,38.411
39,Oinoi,23.609,38.323
33,Anthidona,23.471,38.49
24,Paralia,23.605,38.417
46,Platanakia,23.407,38.436
28,Vrilissia,23.83,38.039
39,Nea Ionia,23.754,38.043
46,Penteli,23.869,38.049
24,Melissia,23.839,38.055
33,Kamateron,23.713,38.056
66,Amarousion,23.805,38.054
24,Nea Penteli,23.857,38.063
55,Kapnochorion,21.977,40.359
397,Polygyros,23.441,40.378
46,Nea Roda,23.924,40.38
112,Trilofos,22.457,40.37
112,Kitros,22.578,40.375
39,Velanidia,21.331,40.351
66,Elafos,22.397,40.373
112,Lagka,21.081,40.349
112,Polymylos,22.069,40.371
79,Molocha,21.355,40.363
28,Koukkos,22.515,40.385
94,Pelekanos,21.466,40.367
66,Gomation,23.795,40.396
39,Lakkoma,23.054,40.391
331,Ierissos,23.876,40.397
79,Krini,23.159,40.397
94,Sfikia,22.209,40.386
66,Mavrodendrion,21.77,40.381
39,Alonia,22.543,40.393
55,Tetralofon,21.964,40.386
79,Sideras,21.695,40.384
33,Skalochorion,21.238,40.375
79,Ryakia,22.393,40.403
39,Platania,21.348,40.38
39,Mesimerion,23.009,40.413
55,Nostimon,21.204,40.388
79,Kastanea,22.122,40.407
46,Sfendamio,22.547,40.413
192,Makrygialos,22.606,40.415
134,Taxiarchis,23.522,40.425
79,Vavdos,23.323,40.426
79,Kato Scholarion,23.03,40.428
79,Palaiostani,22.464,40.417
192,Epanomi,22.929,40.427
55,Melanthion,21.129,40.396
230,Pontokomi,21.761,40.411
94,Polydendron,22.24,40.42
55,Agios Dimitrios,21.923,40.412
46,Agios Antonios,23.093,40.438
134,Asprokklisia,21.256,40.406
39,Namata,21.522,40.417
39,Mavrovatos,24.145,41.112
55,Cheimarros,23.257,41.112
94,Pontoirakleia,22.622,41.105
66,Evzonoi,22.558,41.105
28,Nea Tyroloi,23.377,41.113
39,Perikleia,22.265,41.101
94,Notia,22.209,41.102
66,Kallithea,23.918,41.117
39,Pigadia,24.305,41.118
39,Kato Christos,23.46,41.12
28,Argyroupolis,24.042,41.121
24,Agora,24.309,41.127
94,Skotoussa,23.381,41.129
79,Choristi,24.21,41.131
46,Eidomeni,22.512,41.122
46,Antigoneia,22.877,41.129
33,Karperi,23.306,41.133
24,Anthochorion,23.926,41.134
55,Mikrokampos,24.004,41.135
46,Adriani,24.267,41.136
134,Elaion,23.582,41.141
39,Ammoudia,23.335,41.142
160,Vathi,22.971,41.143
39,Kato Theodorakion,23.007,41.145
55,Mylopotamos,24.073,41.149
397,Drama,24.147,41.15
66,Akritas,22.745,41.146
33,Platanidia,23.049,39.315
28,Chorefton,23.121,39.454
55,Chania,23.062,39.396
39,Goritsa,22.964,39.351
55,Veneton,22.982,39.543
94,Stouppaioi,24.313,38.123
55,Kallianos,24.489,38.125
46,Styra,24.24,38.156
476,Nea Styra,24.208,38.181
46,Plataiai,23.266,38.212
79,Kaparellion,23.214,38.236
55,Mesochoria,24.211,38.251
39,Xironomi,23.075,38.25
39,Lefktra,23.181,38.254
192,Domvraina,22.982,38.253
66,Prodromos,22.91,38.26
112,Ellopia,23.114,38.261
79,Melissochorion,23.236,38.266
28,Almyropotamos,24.189,38.271
33,Neochorion,23.109,38.297
192,Zarakes,24.192,38.303
46,Thespiai,23.151,38.303
46,Argyron,24.149,38.309
94,Agia Anna,22.905,38.316
112,Vagia,23.178,38.317
24,Mavrommation,23.141,38.328
55,Evangelistria,23.023,38.343
94,Kalentzi,24.101,38.354
230,Kyriakion,22.788,38.353
94,Agia Trias,22.909,38.355
39,Koroneia,22.959,38.359
55,Koskina,24.184,38.367
94,Kechrokampos,24.636,41.156
46,Palaiokastron,23.411,41.157
230,Lekani,24.549,41.16
33,Gefyroudion,23.364,41.16
39,Charitomeni,23.851,41.166
28,Dasochorion,23.268,41.165
66,Nikiforos,24.308,41.166
66,Kentrikon,22.894,41.165
79,Kallifytos,24.216,41.173
192,Drosaton,22.803,41.166
134,Prosotsani,23.972,41.179
33,Valteron,23.32,41.179
28,Chrysochorafa,23.234,41.18
39,Doirani,22.761,41.178
94,Vamvakofyton,23.394,41.179
33,Krini,22.012,39.615
39,Aidon,21.467,39.605
66,Kastrion,22.682,39.624
55,Raxa,21.745,39.612
94,Chrysomilea,21.501,39.607
94,Megarchi,21.641,39.611
28,Palaiochorion,21.423,39.609
24,Melissochorion,22.499,39.631
79,Grizanon,22.054,39.632
39,Glykomilea,21.53,39.62
2450,Larisa,22.419,39.639
134,Kranea,21.347,39.622
46,Ardanion,21.788,39.63
134,Vasiliki,21.705,39.64
79,Amygdalea,22.264,39.654
39,Peristera,21.645,39.645
94,Potamia,22.787,39.662
39,Kalogriani,21.489,39.648
39,Afidnai,23.837,38.206
112,Kapandrition,23.877,38.216
276,Erythrai,23.323,38.216
33,Varnavas,23.924,38.224
79,Malakasa,23.796,38.239
397,Avlon,23.696,38.25
28,Kalamos,23.864,38.285
66,Markopoulon,23.824,38.29
66,Oropos,23.752,38.302
94,Nea Palatia,23.795,38.321
46,Agioi Dimitrios kai Panteleimon,23.973,38.267
24,Agia Paraskevi,23.937,38.231
46,Sesi,23.997,38.245
94,Agia Marina,24.056,38.182
66,Agioi Anargyroi,23.894,38.255
55,Agioi Apostoloi,23.9,38.294
33,Milesion,23.795,38.28
28,Nea Politeia,23.786,38.303
28,Asprochorion,23.751,38.277
39,Neo Sykamino,23.699,38.316
33,Avra,24.03,38.181
46,Kato Soulion,24.015,38.161
39,Ano Soulion,23.978,38.183
134,Vergina,22.318,40.486
55,Ardassa,21.634,40.478
33,Petra,23.057,38.372
46,Dystos,24.126,38.377
55,Ypsilantis,23.013,38.373
192,Aliartos,23.101,38.373
33,Antikyra,22.63,38.377
46,Velos,24.091,38.388
94,Amarynthos,23.883,38.393
192,Eretria,23.791,38.392
94,Agios Georgios,22.93,38.393
66,Krieza,24.138,38.398
39,Ano Vatheia,23.91,38.406
28,Petriai,24.168,38.407
33,Lepoura,24.108,38.406
46,Nea Lykogianni,22.237,40.572
46,Panorama,23.026,40.587
66,Vasileias,21.43,40.565
79,Olympias,21.6,40.57
79,Ardamerion,23.182,40.594
55,Melissourgos,23.475,40.599
33,Nea Nikomideia,22.25,40.588
33,Stavros,22.308,40.59
112,Loutros,22.401,40.589
33,Episkopi,22.365,40.59
24,Kavasila,22.333,40.59
55,Pylaia,22.986,40.601
55,Arkochorion,22.073,40.589
79,Trikala,22.557,40.599
24,Melissotopos,21.397,40.578
66,Komnina,21.776,40.591
192,Lechovon,21.492,40.585
46,Koryfi,22.503,40.603
160,Toichion,21.304,40.583
46,Chortiatis,23.1,40.61
160,Ieropigi,21.081,40.578
55,Dendrochorion,21.141,40.583
46,Stenimachos,22.127,40.603
66,Agios Georgios,22.194,40.602
33,Kampochorion,22.371,40.607
55,Giannouli,22.396,39.665
39,Platanos,21.769,39.66
66,Eleftherion,22.578,39.676
112,Anavra,22.701,39.679
112,Omorfochorion,22.475,39.675
66,Rizoma,21.734,39.665
55,Skiti,22.826,39.682
66,Sarakina,21.637,39.662
28,Lioprason,21.839,39.672
28,Aetolofos,22.725,39.687
39,Theopetra,21.684,39.674
46,Dimitra,22.632,39.688
160,Kleinon,21.454,39.669
24,Gerakarion,22.693,39.69
94,Mega Eleftherochorion,22.078,39.691
112,Ellinokastron,21.798,39.689
55,Diava,21.58,39.691
66,Chalikion,21.192,39.684
55,Diasellon,22.017,39.704
39,Spathades,21.716,39.698
33,Metamorfosis,23.757,38.062
94,Aspropyrgos,23.59,38.063
94,Drosopigi,23.832,38.165
33,Pefkofyton,23.869,38.155
33,Neos Voutzas,23.977,38.039
28,Dioni,23.933,38.022
46,Ntrafi,23.905,38.022
24,Kallitechnoupolis,23.958,38.027
55,Diodia,23.495,38.045
55,Agios Sotir,23.424,38.106
33,Pournari,23.441,38.152
33,Palaiochorion,23.407,38.123
94,Palaiochora,23.451,40.501
24,Angelochorion,22.834,40.497
33,Agia Trias,22.876,40.5
55,Neochorion,23.679,40.509
28,Tripotamos,22.18,40.493
24,Sana,23.376,40.507
55,Proastion,21.711,40.489
39,Dispilion,21.289,40.481
94,Doumpia,23.351,40.513
276,Aiginion,22.542,40.502
276,Stratonion,23.825,40.514
28,Neokastron,22.415,40.504
46,Ermakia,21.852,40.498
79,Anarrachi,21.571,40.492
46,Petrokerasa,23.285,40.516
55,Kalochorion,21.134,40.486
33,Chiliodendron,21.193,40.487
24,Karyochorion,21.777,40.503
46,Livadion,23.222,40.523
55,Maniakoi,21.244,40.501
46,Stratoniki,23.763,40.527
94,Dipotamia,20.986,40.489
94,Meliki,22.398,40.518
46,Nea Raidestos,23.052,40.525
24,Milochorion,21.538,40.505
94,Koumaria,22.089,40.518
46,Korisos,21.377,40.505
397,Ptolemais,21.679,40.513
66,Agios Christoforos,21.756,40.515
571,Veroia,22.206,40.521
66,Mesopotamia,21.158,40.504
46,Ano Vrontou,23.686,41.294
55,Platanakia,22.952,41.291
24,Makrinitsa,22.986,41.297
46,Ochyron,23.85,41.306
79,Nea Madytos,23.561,40.623
33,Modion,23.609,40.627
79,Anargyroi,21.611,40.602
160,Nea Apollonia,23.441,40.626
28,Triandria,22.969,40.623
66,Gerakarou,23.218,40.627
39,Monospita,22.175,40.62
28,Vrysakion,22.403,40.62
134,Chalastra,22.734,40.627
46,Pelargos,21.755,40.614
331,Alexandreia,22.446,40.628
24,Stavrodromion,23.048,41.213
112,Agios Antonios,23.059,41.111
24,Kalochorion,22.932,41.284
28,Theodoreion,22.933,41.263
33,Parapotamos,22.989,41.239
24,Alexandra,22.826,41.253
33,Agios Charalampos,22.814,41.205
39,Chaidefton,24.706,40.875
24,Koryfi,22.829,41.157
39,Cheimadion,22.895,41.091
33,Agia Kyriaki,22.831,41.121
46,Koromilea,22.855,41.076
79,Examilion,23.004,40.865
55,Zacharaton,22.887,41.027
33,Metallikon,22.817,41.02
46,Akropotamia,22.974,40.931
66,Laodikinon,22.996,40.91
33,Peristerion,22.958,40.868
24,Pyrgotos,22.944,40.881
39,Panteleimon,22.892,40.831
134,Korona,22.667,41.163
39,Palaia Fokaia,23.947,37.718
24,Saronis,23.911,37.748
24,Lykovrysis,23.782,38.069
55,Kifisia,23.812,38.077
230,Mandra,23.497,38.075
28,Magoula,23.522,38.079
28,Ano Liosia,23.701,38.078
33,Nea Makri,23.979,38.083
192,Acharnai,23.737,38.084
39,Nea Erythraia,23.822,38.092
24,Dionysos,23.882,38.103
94,Fyli,23.669,38.101
46,Ekali,23.835,38.106
24,Drosia,23.862,38.115
55,Thrakomakedones,23.758,38.129
24,Kryonerion,23.829,38.14
33,Vogatsiko,21.381,40.415
24,Palaion Eleftherochorion,22.577,40.437
112,Megali Panagia,23.68,40.444
112,Akrini,21.906,40.435
66,Methoni,22.588,40.446
46,Galarinos,23.183,40.46
55,Sisanion,21.499,40.435
46,Lakkomata,21.202,40.429
66,Sykea,22.376,40.455
79,Agios Prodromos,23.379,40.465
28,Nea Agathoupolis,22.583,40.459
66,Kastanea,22.451,40.458
66,Nea Michaniona,22.861,40.465
134,Galatista,23.281,40.467
79,Trilofon,22.97,40.468
79,Mavropigi,21.733,40.449
24,Souroti,23.092,40.473
46,Katachas,22.541,40.467
94,Perithorion,23.781,41.314
66,Volax,24.002,41.317
192,Achladochorion,23.54,41.32
397,Kato Nevrokopion,23.867,41.344
66,Dasoton,23.801,41.347
66,Vathytopos,23.711,41.352
66,Promachon,23.359,41.362
230,Prasinada,24.551,41.361
134,Sidironeron,24.233,41.368
112,Agkistron,23.441,41.375
79,Chrysokefalos,23.868,41.377
24,Mikrokleisoura,24.058,41.387
192,Potamoi,24.099,41.395
55,Pagonerion,24.029,41.401
134,Skaloti,24.283,41.412
66,Exochi,23.827,41.411
79,Mikromilea,24.157,41.418
79,Dorkas,23.103,40.886
24,Polydendrion,23.117,40.817
24,Avgi,23.314,40.813
55,Limni,23.528,40.781
134,Lagkadion,23.56,40.85
39,Kefalochorion,23.277,40.993
66,Evangelistria,23.236,40.984
94,Rizana,23.215,41.019
24,Kato Mitrousion,23.457,41.059
28,Areti,23.254,40.758
55,Kato Metochion,23.522,41.127
39,Xirotopos,23.545,41.195
331,Paralia Ofryniou,23.905,40.762
66,Nea Mesolakkia,23.854,40.848
33,Anoixia,23.447,40.759
79,Xiropotamos,23.484,40.763
94,Loutra Eleftheron,24.091,40.737
33,Elateia,22.535,39.812
112,Gavros,21.596,39.799
66,Longa,21.904,39.805
134,Panagia,21.329,39.798
46,Metamorfosis,22.659,41.118
28,Eleftherochorion,22.761,41.074
46,Kalindria,22.791,41.114
66,Iliolouston,22.732,41.063
28,Ano Apostoloi,22.804,40.903
24,Leventochorion,22.823,40.951
55,Palaion Gynaikokastron,22.745,40.95
28,Kato Apostoloi,22.758,40.907
33,Nea Kavala,22.617,40.989
66,Sitaria,22.656,40.958
55,Chamilon,22.482,41.104
33,Melissatika,22.909,39.39
66,Fytokon,22.937,39.407
46,Chloi,22.731,39.402
24,Agios Dimitrios,22.722,39.313
55,Kokkina,22.696,39.333
28,Eleftherochorio,22.643,39.284
55,Marathos,22.894,39.291
28,Pigadion,22.977,39.037
79,Gavriani,22.875,39.001
134,Vlasti,21.525,40.454
28,Nea Kerasia,22.868,40.475
94,Germas,21.429,40.456
39,Asvestopetra,21.673,40.46
24,Avgi,21.175,40.449
94,Georgianoi,22.168,40.468
192,Vasilika,23.136,40.479
46,Agia Paraskevi,23.049,40.483
24,Militsa,21.33,40.453
160,Argos Orestikon,21.259,40.455
94,Arnaia,23.595,40.486
79,Pentavryson,21.141,40.454
79,Kolindros,22.484,40.479
55,Palaiochorion,23.648,40.492
24,Tagarades,23.022,40.49
28,Kranochorion,21.099,40.458
33,Ampelokipoi,21.309,40.465
79,Neon Rysion,22.989,40.496
24,Palatitsia,22.343,40.484
39,Rachi,22.214,40.485
46,Flampouresion,21.761,39.804
55,Pefki,21.381,39.796
39,Gerakarion,21.85,39.807
33,Magoula,22.081,39.814
134,Argyropouleion,22.307,39.826
28,Korydallos,21.342,39.809
55,Parapotamos,22.469,39.83
33,Evangelismos,22.516,39.834
55,Sykea,22.054,39.829
46,Karitsa,22.762,39.843
160,Oxyneia,21.49,39.827
134,Evangelismos,22.104,39.839
46,Stefanovounon,22.181,39.845
39,Kakoplevrion,21.432,39.829
66,Mavrelion,21.867,39.838
79,Foteinon,21.79,39.842
94,Ampelakia,22.556,39.854
24,Palaiokastron,22.068,39.849
134,Gonnoi,22.475,39.86
46,Itea,22.518,39.863
230,Asprokklisia,21.664,39.852
134,Stomion,22.731,39.868
79,Agiofyllon,21.561,39.863
46,Peristerona,23.343,40.661
66,Pefka,22.989,40.657
331,Stavros,23.701,40.663
46,Valtonera,21.587,40.637
39,Chariessa,22.165,40.651
134,Agios Vasileios,23.114,40.665
39,Lefkadia,22.118,40.652
66,Anatolikon,22.711,40.663
46,Levaia,21.702,40.645
33,Vrachia,22.64,40.661
39,Arachos,22.51,40.66
134,Krystallopigi,21.085,40.637
46,Nymfaion,21.493,40.644
39,Scholarion,23.256,40.672
79,Evosmon,22.916,40.673
39,Agrapideai,21.536,40.648
160,Sindos,22.802,40.673
94,Pigi,22.498,41.011
28,Valtotopion,22.573,40.941
39,Monolofon,22.909,40.804
33,Petroton,22.873,40.814
46,Akropotamos,22.66,40.838
79,Prochoma,22.668,40.799
33,Stathis,22.5,40.951
55,Pentalofon,22.412,40.929
160,Irakleia,23.282,41.182
33,Monastirakion,24.168,41.189
112,Mikropolis,23.822,41.191
28,Kokkinogeia,23.933,41.191
94,Xiropotamos,24.104,41.192
134,Oreini,23.592,41.196
66,Amaranta,22.815,41.191
55,Petroussa,24.016,41.195
39,Kamaroton,23.372,41.197
66,Grammeni,23.893,41.206
46,Limnochorion,23.207,41.206
66,Pontismenon,23.285,41.21
46,Ypsili Rachi,24.348,41.208
79,Ptelea,24.447,41.213
33,Chorteron,23.369,41.22
134,Kerkini,23.084,41.219
94,Myriofyton,22.828,41.223
55,Anatoli,22.948,41.239
55,Panorama,23.821,41.244
55,Megalochorion,23.224,41.245
66,Livadia,23.076,41.252
39,Tsaritsani,22.228,39.88
94,Agnantia,21.464,39.867
46,Omolion,22.642,39.896
79,Kefalovryson,22.072,39.891
571,Elasson,22.189,39.895
55,Rapsani,22.549,39.902
79,Palaiopyrgos,22.682,39.918
192,Pyrgetos,22.59,39.919
46,Drymos,22.147,39.916
28,Kranea,22.564,39.927
39,Valanida,22.046,39.927
79,Aigani,22.612,39.952
112,Kranea Elassonos,21.971,39.952
46,Vothon,23.92,38.177
33,Vranas,23.949,38.125
33,Agios Panteleimon,23.99,38.118
39,Schinias,24.031,38.144
39,Stathmos Afidnon,23.843,38.188
66,Keratea,23.978,37.808
55,Vari,23.803,37.83
24,Kouvaras,23.97,37.828
134,Kalyvia Thorikou,23.928,37.84
33,Voula,23.764,37.847
160,Glyfada,23.752,37.862
66,Ellinikon,23.749,37.889
134,Koropion,23.873,37.9
134,Aianteion,23.468,37.923
33,Palaion Faliron,23.701,37.924
46,Ilioupolis,23.751,37.93
55,Selinia,23.534,37.932
160,Peiraiefs,23.644,37.944
46,Kallithea,23.702,37.956
39,Neos Platanos,22.794,39.163
94,Neochorakion,22.62,39.169
46,Kyparissia,22.549,39.514
46,Sofon,22.501,39.468
79,Rigaion,22.614,39.35
160,Pyrgoi,24.025,41.253
39,Strymonochorion,23.335,41.254
39,Mouriai,22.796,41.254
24,Neochorion,23.088,41.26
66,Rodopolis,23.001,41.26
39,Charopon,23.377,41.264
134,Vyroneia,23.252,41.265
24,Moschaton,23.68,37.95
39,Ampelakia,23.528,37.951
79,Paiania,23.853,37.954
55,Spata,23.914,37.962
79,Salamis,23.492,37.966
94,Perama,23.568,37.965
66,Nikaia,23.647,37.969
112,Artemi,24.008,37.975
24,Kaisariani,23.765,37.967
55,Mavrochori,21.319,40.513
33,Pteria,21.055,40.505
39,Krimni,23.448,40.547
160,Stanos,23.591,40.544
55,Foufas,21.554,40.521
46,Lithia,21.409,40.52
160,Peristera,23.165,40.548
24,Polykarpi,21.321,40.523
160,Oinoi,21.085,40.516
66,Thermi,23.02,40.548
33,Adam,23.302,40.555
46,Lefki,21.207,40.52
46,Kouloura,22.318,40.547
55,Kalamoton,23.374,40.556
55,Droseron,21.604,40.536
39,Agia Kyriaki,21.12,40.525
55,Prodromos,22.396,40.551
79,Marathoussa,23.472,40.559
28,Kleisoura,21.469,40.535
94,Makrochorion,22.252,40.552
46,Anatolikon,21.749,40.545
79,Agkathia,22.47,40.555
66,Varikon,21.503,40.539
55,Kato Vermion,22.025,40.552
94,Varvara,23.659,40.57
33,Koromilea,21.182,40.536
28,Prasinada,22.515,40.562
46,Asprogeia,22.638,39.318
79,Agios Antonios,22.478,39.204
55,Anochorion,22.321,39.317
24,Ellinikon,22.298,39.351
33,Agios Konstantinos,22.469,39.402
94,Dendra,22.338,39.689
39,Platanoulia,22.308,39.677
33,Koulourion,22.441,39.703
39,Dasochorion,22.418,39.692
39,Achilleion,22.675,39.535
94,Agiokampos,22.878,39.699
33,Kokkino Nero,22.795,39.832
112,Paliouria,22.833,39.807
94,Melivoia,22.797,39.75
33,Agia Kyriaki,23.978,37.993
55,Markopoulon,23.933,37.883
33,Koulidas,23.971,37.891
79,Vravrona,24.012,37.919
134,Limin Markopoulou (Porto Rafti),24.01,37.884
46,Karellas,23.862,37.934
55,Kitsi,23.839,37.848
28,Agia Marina,23.845,37.815
33,Zapani,24.01,37.802
39,Myrteza,24.024,37.816
28,Mandrakion,23.141,41.264
276,Paranestion,24.502,41.266
397,Stathmos Mourion,22.839,41.262
46,Akritochorion,23.178,41.271
134,Kato Vrontou,23.756,41.274
24,Agia Paraskevi,22.857,41.269
39,Neon Petritsion,23.294,41.276
55,Kastanoussa,22.894,41.277
134,Ano Poroia,23.034,41.286
79,Kapnofyton,23.502,41.291
94,Damasion,22.188,39.714
331,Agia,22.754,39.717
112,Kalochorion,22.545,39.72
331,Kalampaka,21.626,39.705
79,Zagkliverion,23.289,40.572
33,Platanos,22.549,40.566
66,Kleidion,22.589,40.567
66,Patris,22.187,40.56
112,Fyteia,22.111,40.562
33,Kefalochorion,22.366,40.569
28,Galateia,21.597,40.558
112,Perdikkas,21.697,40.56
33,Trilofon,22.151,40.573
134,Kalamaria,22.95,40.583
160,Olympias,23.783,40.591
46,Kokkinochorion,24.002,40.813
33,Lefkouda,23.546,40.735
46,Vamvakia,23.61,40.689
134,Megali Volvi,23.427,40.696
39,Rentina,23.614,40.657
55,Chrysopigi,23.559,41.168
24,Kato Ampelia,23.399,41.213
66,Faia Petra,23.452,41.27
33,Sidirochorion,24.143,40.842
24,Melissa,24.193,40.864
55,Avli,24.179,40.874
33,Kokkalou,23.493,40.625
39,Stavros,24.044,41.169
28,Ampelakia,24.093,41.117
24,Nea Sevasteia,24.13,41.123
192,Taxiarchai,24.187,41.226
46,Exochi,24.238,40.88
46,Panagia,24.243,40.897
33,Chortokopion,24.24,40.93
55,Palaion Tsiflikion,24.348,40.904
24,Vintzi Daskaleiou,24.052,37.816
79,Pefka,24.059,37.805
33,Skaleza Mitrantoni,24.006,37.789
28,Mitropisi,23.994,37.776
24,Porto Ennia,24.079,37.789
66,Agia Marina Mikrolimanou,24.075,37.762
94,Plaka,24.023,37.763
24,Paliokamariza,24.042,37.752
24,Markati,24.026,37.742
55,Ari,23.981,37.75
33,Lagkadikia,23.247,40.636
33,Asprogeia,21.47,40.614
46,Apollonia,23.486,40.639
230,Naousa,22.068,40.63
33,Asvestochorion,23.025,40.64
94,Mesovounon,21.835,40.628
160,Filotas,21.708,40.625
66,Kalochorion,22.859,40.642
66,Nision,22.389,40.635
66,Kopanos,22.13,40.634
94,Sklithron,21.502,40.623
39,Limnochorion,21.556,40.623
94,Stivos,23.305,40.649
46,Falanna,22.397,39.722
39,Marmarini,22.601,39.723
46,Avra,21.689,39.712
55,Kato Sotiritsa,22.858,39.731
160,Agrelia,21.931,39.72
79,Kastanea,21.381,39.709
24,Kastrakion,21.618,39.717
46,Megalovryson,22.754,39.737
66,Anatoli,22.695,39.745
192,Tyrnavos,22.288,39.739
28,Ossa,22.576,39.746
66,Vlachogiannion,22.087,39.742
66,Ampelon,22.361,39.745
46,Velika,22.862,39.748
160,Sykourion,22.579,39.758
28,Kypselochorion,22.534,39.767
94,Kalomoira,21.411,39.751
39,Pournarion,22.575,39.775
33,Matonerion,21.368,39.759
46,Orthovounion,21.468,39.762
230,Verdikoussa,21.977,39.781
66,Vlachava,21.658,39.774
134,Koniskos,21.799,39.781
112,Spilia,22.647,39.796
94,Domenikon,22.119,39.791
39,Praitorion,22.066,39.792
46,Rodia,22.366,39.799
55,Malakasion,21.283,39.781
79,Makrychorion,22.492,39.804
24,Deleria,22.342,39.802
39,Skeparion,21.631,39.795
39,Trygon,21.412,39.789
33,Agios Stefanos,23.86,38.14
112,Marathon,23.96,38.157
112,Vilia,23.337,38.168
94,Oinoi,23.418,38.165
33,Panorama,24.176,41.155
24,Chamokerasa,24.373,41.189
24,Vathychorion,24.288,41.108
46,Daton,24.322,40.971
46,Vounochorion,24.374,41.07
66,Lykostomon,24.442,41.109
66,Prosfyges,24.374,40.987
33,Monastirakion,23.033,41.225
66,Sykaminea,22.352,39.963
79,Kallipefki,22.46,39.966
46,Lykoudion,22.114,39.967
39,Loutron,21.933,39.968
66,Giannota,22.042,39.98
192,Kallithea,22.191,39.981
160,Karya,22.393,39.983
46,Olympias,22.254,39.987
66,Azoros,22.079,40.001
79,Akri,21.964,39.998
55,Gerania,22.135,40.011
33,Lofos,22.185,40.017
79,Milea,22.076,40.028
55,Kokkinogeion,22.165,40.034
39,Tsapournia,22.029,40.043
55,Dolichi,22.169,40.064
112,Pythion,22.23,40.066
112,Sarantaporon,22.053,40.066
276,Livadi,22.157,40.127
24,Agia Kyriaki,23.069,39.093
94,Palaion Trikerion,23.076,39.155
46,Agios Georgios,23.342,39.174
66,Platania,23.274,39.141
46,Chorton,23.217,39.191
24,Koropi,23.143,39.293
33,Afyssos,23.165,39.272
39,Psychikon,22.3,39.437
39,Dilofon,22.482,39.444
55,Kyparissos,22.356,39.444
230,Mouzakion,21.664,39.43
94,Makrychorion,21.965,39.44
33,Rizovounion,21.867,39.438
55,Magoulitsa,21.761,39.439
46,Kalyvakia,22.075,39.446
33,Gelanthi,21.706,39.44
94,Myra,22.547,39.454
33,Astritsa,22.145,39.446
33,Kranea,21.836,39.446
66,Kerasea,22.922,39.464
112,Mikron Vounon,22.256,39.457
79,Itea,22.165,39.456
160,Stefanovikeion,22.743,39.465
55,Magoula,21.803,39.456
397,Zappeion,22.446,39.464
112,Stournaraiika,21.49,39.452
66,Pyli,21.621,39.459
55,Agia Trias,21.899,39.462
79,Pourion,23.095,39.478
39,Lazarina,21.738,39.462
55,Palaiomonastiron,21.658,39.463
331,Palamas,22.081,39.47
46,Kotronion,21.561,39.464
39,Palaiochorion,21.826,39.469
55,Neon Perivolion,22.603,39.487
24,Agios Vissarion,21.619,39.472
46,Armenion,22.697,39.488
46,Sykeai,22.205,39.486
28,Moschochorion,22.558,39.499
134,Kanalia,22.886,39.497
66,Proastion,21.902,39.489
39,Agnanteron,21.847,39.488
39,Kalogiroi,21.526,39.483
79,Venna,25.515,41.013
24,Salmoni,25.535,41.005
230,Iasmos,25.185,41.127
39,Galini,25.206,41.108
55,Kopteron,25.123,41.119
33,Mosaikon,25.198,41.093
28,Potamia,25.039,41.028
46,Lagos,25.12,41.007
79,Dasochorion,24.84,40.892
66,Evlalon,24.801,40.981
33,Dekarchon,24.83,40.991
28,Kyrnos,24.777,40.987
66,Iliokentima,24.788,40.951
28,Palaion Olvion,24.806,41.016
46,Nea Amisos,24.847,41.042
66,Melissa,24.895,41.017
33,Vanianon,24.847,41.071
33,Pezoula,24.962,41.006
28,Gkiona,24.925,41.023
112,Skala Avdiron,24.961,40.934
55,Vafaiika,24.957,41.089
28,Palaios Zygos,24.918,41.109
39,Peteinos,24.898,41.1
24,Mega Tympanon,24.797,41.078
160,Thalassia,24.776,41.065
28,Agios Athanasios,24.785,41.042
28,Vitoumas,21.614,39.647
1702,Alexandroupolis,25.874,40.845
160,Makri,25.745,40.854
112,Antheia,25.991,40.872
46,Loutros,26.047,40.881
230,Ferai,26.172,40.894
134,Maroneia,25.519,40.907
66,Dorikon,25.98,40.909
33,Neon Erasmion,24.834,40.931
55,Mangana,24.871,40.943
134,Nipsa,26.017,40.93
230,Avas,25.917,40.932
55,Proskynitai,25.473,40.942
230,Fanarion,25.132,40.962
66,Imeros,25.37,40.958
33,Avaton,24.806,40.962
192,Peplos,26.265,40.957
230,Xylagani,25.422,40.974
160,Avdira,24.952,40.981
39,Zografos,23.768,37.978
46,Athinai,23.728,37.984
46,Glyka Nera,23.849,37.99
33,Korydallos,23.653,37.981
66,Aigaleo,23.678,37.992
331,Megara,23.344,37.997
24,Cholargos,23.8,37.998
46,Pikermion,23.941,38.002
24,Pallini,23.881,38.004
28,Chaidarion,23.656,38.012
33,Peristerion,23.695,38.014
66,Nea Peramos,23.419,38.002
46,Gerakas,23.86,38.009
33,Galatsion,23.753,38.013
112,Rafina,24.007,38.02
39,Neon Kostarazion,21.331,40.434
24,Kryovrysi,21.597,40.485
55,Drepanon,21.828,40.348
24,Spinaris,21.824,40.315
55,Pyrgos,21.897,40.222
33,Prosilion,21.944,40.151
33,Kipos,21.848,40.187
66,Lazarades,21.853,40.018
46,Anoixis,21.573,39.914
39,Trifyllion,21.647,39.891
39,Dimitra,21.664,39.947
79,Nision,21.607,40.006
66,Neochorion,21.685,39.986
24,Kolokynthou,21.212,40.505
33,Lachanokipoi,21.215,40.447
66,Ampelochorion,21.26,40.43
33,Velos,21.294,40.38
46,Peponia,21.41,40.293
66,Vronti,21.293,40.293
55,Anthochorion,21.347,40.238
66,Omali,21.266,40.258
39,Klima,21.409,40.242
79,Itea,21.616,40.064
66,Poros,21.528,40.108
24,Asprokampos,21.516,40.15
24,Mikron Seirinion,21.426,40.129
55,Doxaras,21.394,40.064
28,Eleftherochorion,21.482,40.039
46,Aimilianos,21.439,39.962
94,Anthrakia,21.521,39.924
94,Prionia,21.366,39.883
24,Ydraia,22.08,40.961
24,Monastirakion,21.976,40.926
28,Anthoupoli,22.962,40.717
24,Sounion,25.043,41.129
39,Polyanthon,25.223,41.129
55,Seleron,24.995,41.131
1183,Xanthi,24.885,41.138
46,Dytikon,22.531,40.857
28,Lakka,22.243,40.855
66,Palaiokomi,23.899,40.869
46,Mandrai,22.909,40.871
276,Laimos,21.14,40.835
94,Mandalon,22.213,40.857
134,Panagitsa,21.85,40.851
66,Agios Petros,22.583,40.868
79,Sotira,22.046,40.858
112,Kato Kleinai,21.398,40.849
24,Choumnikon,23.584,40.879
46,Stavros,21.972,39.363
55,Zoodochos Pigi,22.402,39.366
55,Oxya,21.596,39.357
112,Drakeia,23.05,39.376
230,Argithea,21.537,39.358
39,Pyrgos Kieriou,22.077,39.368
397,Karditsa,21.922,39.365
24,Agios Theodoros,22.005,39.369
55,Kypseli,22.141,39.375
160,Velestinon,22.745,39.382
33,Kryopigi,21.663,39.37
28,Portaria,22.997,39.389
28,Prodromos,21.975,39.376
33,Palaiokklision,21.863,39.377
24,Skotoussa,22.499,39.388
28,Lefki,22.24,39.385
46,Ergani,25.446,40.994
28,Agra,25.634,41.133
28,Kerasia,25.881,41.219
160,Charadra,25.89,41.189
66,Chloi,25.854,41.288
39,Plagia,25.719,41.131
39,Ipion,25.762,41.082
79,Strofi,25.789,41.093
39,Neda,25.795,41.077
94,Esochi,25.772,41.235
55,Kardamos,25.624,41.278
112,Kymi,25.671,41.304
46,Vyrsini,25.809,41.313
94,Myrtiski,25.779,41.278
39,Smigada,25.734,41.274
55,Drania,25.628,41.243
66,Tychiron,25.464,41.168
55,Ragada,25.729,41.217
39,Darmeni,25.682,41.143
39,Skaloma,25.677,41.123
24,Deilina,25.653,41.111
39,Kinyra,25.717,41.107
24,Evrinos,25.712,41.064
39,Mystakas,25.649,41.082
24,Mikron Piston,25.644,41.066
39,Lykeion,25.687,41.065
33,Amfia,25.615,41.082
24,Vragia,25.56,41.089
55,Passos,25.586,41.097
79,Drosia,25.638,41.164
134,Dokos,25.596,41.138
66,Paterma,25.517,41.203
79,Mega Piston,25.299,41.146
24,Mischos,25.32,41.154
24,Dymi,25.378,41.169
55,Sarakina,21.652,40.026
276,Livaderon,21.942,40.034
55,Ziakas,21.268,40.03
94,Mavranaioi,21.343,40.035
66,Palaiochorion,21.689,40.046
94,Leptokarya,22.564,40.058
55,Kallithea,23.447,40.075
55,Tranovalton,21.866,40.058
55,Polynerion,21.203,40.048
397,Smixi,21.123,40.058
230,Pontini,21.677,40.072
112,Sarti,23.98,40.096
79,Afytos,23.435,40.098
55,Metaxas,21.971,40.084
94,Mikrovalton,21.876,40.082
79,Elatos,21.34,40.079
55,Filippaioi,21.157,40.078
397,Litochoron,22.505,40.105
33,Pyloroi,21.652,40.089
39,Kalirachi,21.29,40.081
79,Knidi,21.592,40.096
46,Kyrakali,21.374,40.097
79,Trigonikon,21.932,40.11
192,Nea Fokaia,23.399,40.134
94,Samarina,21.018,40.104
28,Oropedion,21.316,40.116
79,Mega Seirinion,21.411,40.119
33,Myrsina,21.474,40.125
46,Syndendron,21.351,40.122
66,Rymnion,21.871,40.133
94,Chromion,21.74,40.135
112,Dotsikon,21.137,40.127
94,Agios Dimitrios,22.231,40.156
55,Rodia,21.328,40.146
39,Goulai,21.915,40.159
79,Vatolakkos,21.482,40.152
33,Dion,22.486,40.172
94,Exarchos,21.63,40.159
331,Aiani,21.819,40.165
79,Amygdaleai,21.374,40.156
55,Kaisareia,21.865,40.172
24,Mesianon,22.805,40.944
94,Nikisiani,24.144,40.948
66,Myrrini,23.889,40.951
28,Agia Paraskevi,23.456,40.949
66,Erateinon,24.638,40.95
160,Goumenissa,22.451,40.946
28,Sisamia,23.423,40.957
66,Melanthion,23.056,40.953
33,Megaplatanos,21.971,40.941
160,Pethelinos,23.711,40.96
46,Chrysi,22.116,40.945
46,Amygdaleon,24.359,40.963
112,Nea Karvali,24.511,40.962
55,Theodorakeion,22.192,40.95
94,Kristoni,22.858,40.957
94,Lachanas,23.205,40.962
55,Griva,22.41,40.955
55,Orma,21.927,40.953
33,Gorgopi,22.524,40.961
55,Tsakoi,22.039,40.955
39,Pontolivadon,24.581,40.971
55,Angista,23.962,40.976
33,Chalkeron,24.471,40.978
39,Triantafyllia,23.357,40.976
112,Dimitra,23.869,40.981
33,Kormista,24.056,40.98
33,Polystylon,24.329,40.985
33,Paralimnion,23.67,40.986
276,Chrysoupolis,24.701,40.985
112,Dimitritsion,23.413,40.985
28,Piperiai,22.017,40.97
66,Peponia,23.513,40.989
134,Nea Bafra,24.018,40.99
55,Petropigi,24.614,40.987
79,Loutrakion,21.947,40.971
66,Theodosia,23.127,40.986
24,Kastaneri,22.388,40.979
397,Aridaia,22.061,40.974
66,Exaplatanos,22.131,40.979
39,Krinis,23.985,40.994
33,Axioupoli,22.542,40.986
112,Krini,22.351,39.387
24,Pefkofyton,21.635,39.378
55,Ypereia,22.265,39.389
33,Agios Akakios,21.772,39.382
24,Mouresion,23.162,39.4
28,Makrinitsa,22.987,39.401
39,Kissos,23.132,39.408
94,Chalkiades,22.426,39.396
55,Ellinika,21.392,39.379
66,Karditsomagoula,21.924,39.392
134,Mataragka,22.074,39.39
33,Mikron Perivolakion,22.656,39.408
46,Gorgovitai,22.014,39.402
112,Orfana,22.221,39.406
24,Ellinokastron,21.693,39.397
39,Kanalia,21.799,39.399
24,Drakotrypa,21.599,39.397
24,Artesianon,21.894,39.404
66,Ellinopyrgos,21.735,39.4
28,Polynerion,21.365,39.394
55,Myrina,21.965,39.408
55,Chara,22.43,39.418
39,Makryrrachi,23.124,39.425
112,Agnanteri,22.617,39.42
79,Vatsounia,21.586,39.409
24,Kappas,21.755,39.413
46,Fanarion,21.799,39.416
94,Rizomylos,22.748,39.427
79,Ermitsion,22.105,39.42
24,Charma,21.78,39.42
46,Ropoton,21.541,39.419
39,Mega Monastirion,22.678,39.44
230,Zagora,23.103,39.444
55,Fyllon,22.184,39.431
66,Glafyra,22.888,39.44
24,Mavrommation,21.693,39.423
46,Porti,21.626,39.423
55,Markos,22.044,39.431
66,Thamna,25.36,41.162
28,Foititikes Esties D.P.TH.,25.376,41.143
39,Folea,25.398,41.165
46,Lampron,25.543,41.132
55,Ano Drosini,25.592,41.194
134,Drymi,25.574,41.218
28,Arsakeion,25.676,41.016
112,Velkion,25.653,40.981
33,Vakos,25.528,41.071
28,Pamforon,25.531,41.049
55,Isalon,25.451,41.059
55,Roditis,25.456,41.097
24,Fylakas,25.477,41.057
24,Kikidion,25.433,41.108
33,Stylarion,25.503,41.144
28,Kalamokastron,25.358,41.049
33,Pagouria,25.317,41.03
39,Yfantai,25.36,41.117
33,Scholi Astynomias,25.331,41.105
46,Paradimi,25.334,41.078
55,Palladion,25.235,41.061
66,Porpi,25.238,41.018
66,Meleti,25.299,41.113
28,Glyfada,25.23,40.978
28,Symvola,25.41,41.175
66,Nymfaia,25.453,41.222
39,Avlai,21.963,40.179
94,Nea Poteidaia,23.33,40.195
192,Karitsa,22.48,40.188
39,Milea,21.475,40.18
66,Chrysavgi,21.221,40.168
192,Servia,22,40.185
66,Taxiarchis,21.525,40.176
46,Vrontou,22.433,40.192
46,Kydoniai,21.282,40.173
39,Kranidia,21.958,40.194
46,Kerasea,21.795,40.196
46,Platanorrevma,22.024,40.201
33,Agios Spyridon,22.443,40.206
28,Sparton,21.874,40.202
66,Rodiani,21.752,40.203
134,Agios Georgios,21.409,40.196
112,Palaiokastron,21.6,40.203
46,Metamorfosis,23.604,40.231
39,Kato Komi,21.843,40.21
230,Pentalofos,21.141,40.195
134,Nikiti,23.67,40.224
79,Foteina,22.312,40.22
55,Kokkinia,21.485,40.208
39,Kivotos,21.444,40.207
24,Nea Efesos,22.5,40.227
94,Kontariotissa,22.461,40.226
24,Agia Paraskevi,21.774,40.221
685,Nea Moudania,23.288,40.24
55,Morfi,21.208,40.21
79,Ano Komi,21.829,40.226
66,Agios Nikolaos,23.695,40.25
28,Polydendron,21.481,40.221
66,Lefkopigi,21.749,40.231
134,Lofos,22.381,40.244
476,Karyai,24.246,40.257
46,Agios Mamas,23.336,40.26
94,Eptachori,21.021,40.222
39,Neraida,21.966,40.24
66,Flogita,23.22,40.261
28,Kato Milia,22.343,40.254
33,Protochorion,21.75,40.244
33,Valtotopion,23.596,40.995
46,Koronouda,23,40.99
24,Gravouna,24.653,40.993
79,Karpi,22.421,40.984
39,Vaptistis,22.773,40.992
685,Kilkis,22.876,40.995
112,Chorygion,22.727,40.995
79,Perni,24.636,41.005
28,Isoma,23.163,40.988
94,Tholos,23.782,41
230,Polykastron,22.57,40.996
28,Agia Eleni,23.559,41.005
55,Mesorrachi,23.859,41.004
28,Ellinikon,23.105,41.001
46,Psychikon,23.629,41.004
39,Palaia Kavala,24.415,41.006
39,Lykostomon,21.984,40.989
39,Milea,22.144,40.993
24,Mesokomi,23.651,41.01
24,Konstantia,22.171,41
79,Kalamon,24.213,41.011
134,Krinides,24.295,41.012
39,Megali Vrysi,22.795,41.006
55,Sosandra,22.034,40.999
55,Eptalofos,23.015,41.01
79,Zygos,24.381,41.015
24,Kalokastron,23.336,41.015
192,Skoutari,23.519,41.017
160,Livadia,22.292,41.005
46,Vafiochorion,22.661,41.01
39,Zarkadia,24.641,41.02
24,Kato Kamila,23.483,41.02
66,Toumpa,23.707,41.023
55,Gazoros,23.773,41.022
134,Ida,22.177,41.01
55,Omalon,22.399,40.909
66,Loudias,22.543,40.677
28,Palaiochora,22.498,40.59
24,Monopigadon,23.135,40.433
66,Nea Irakleia,23.015,40.346
39,Agia Anastasia,23.186,40.475
55,Sozopolis,23.147,40.278
24,Archontikon,22.467,40.791
55,Damianon,22.45,40.829
46,Eleftherochorion,22.374,40.884
94,Leptokarya,22.462,40.862
46,Mesianon,22.479,40.78
55,Paralimni,22.453,40.751
33,Nisellion,22.463,40.595
46,Schoinas,22.435,40.648
33,Portes,23.323,40.21
134,Sani,23.314,40.096
55,Siviri,23.36,40.036
46,Fylakai Kassandras,23.341,40.115
46,Molai Kalyvai,23.457,39.971
33,Diastavrosi Palaiokastrou,23.431,40.441
79,Kalyvai Polygyrou,23.392,40.284
46,Vatopedion,23.558,40.258
39,Kato Aigani,22.647,39.95
79,Nea Mesagkala,22.708,39.951
134,Gyrtoni,22.437,39.754
46,Kritiri,22.291,39.756
46,Kleisoura,22.07,39.954
94,Mikron Eleftherochorion,22.164,39.944
46,Ampelia,22.04,39.767
55,Paliampela,22.01,39.752
79,Chalandrion,23.799,38.021
28,Anthousa,23.874,38.027
46,Kato Alepochorion,23.179,38.085
46,Aigosthena,23.226,38.15
46,Agia Trias,23.4,37.976
55,Pachi,23.363,37.974
33,Moni Agiou Ioannou Prodromou,23.181,38.051
160,Aigeirousai,23.151,38.069
94,Vlychada,23.438,38.026
24,Stenon,23.43,37.977
66,Batsi,23.503,38
39,Christoupolis,23.916,37.979
28,Neapoli,23.983,37.967
79,Melas,21.265,40.703
39,Gefyra,22.693,40.733
112,Chalkidon,22.602,40.732
94,Arethousa,23.588,40.744
160,Askos,23.387,40.751
112,Agios Panteleimon,21.75,40.724
134,Polypotamon,21.364,40.719
55,Pentalofos,22.853,40.744
39,Ydroussa,21.461,40.722
66,Liti,22.979,40.746
66,Aspron,22.214,40.734
79,Petrai,21.674,40.729
39,Kariani,23.983,40.751
24,Filadelfion,23.47,40.752
28,Atrapos,21.405,40.725
112,Lagkadas,23.067,40.75
55,Nea Mesimvria,22.77,40.752
46,Eleousa,22.627,40.748
28,Liparon,22.248,40.748
55,Kolchikon,23.132,40.755
33,Sostis,25.277,41.136
79,Lykofos,26.29,41.12
79,Kalchas,25.465,41.142
55,Kimmeria,24.937,41.147
24,Gratini,25.532,41.143
28,Karydia,25.436,41.146
55,Komnina,24.727,41.171
94,Kornofolea,26.297,41.157
134,Stavroupolis,24.706,41.198
822,Souflion,26.303,41.192
39,Dafnon,24.671,41.218
39,Sminthi,24.879,41.229
79,Satrai,25.048,41.244
79,Kechros,25.856,41.235
46,Myki,24.92,41.245
94,Ano Karyofyton,24.664,41.26
685,Organi,25.684,41.253
134,Oraion,24.834,41.274
66,Melivoia,24.932,41.328
39,Mandra,26.33,41.27
230,Lavara,26.386,41.269
55,Kyriaki,26.191,41.294
94,Amorion,26.44,41.299
79,Mikron Dereion,26.1,41.315
39,Kotyli,24.886,41.333
66,Mavrokklision,26.271,41.339
66,Asvestades,26.361,41.35
397,Didymoteichon,26.498,41.35
39,Koufovounon,26.438,41.355
46,Isaakion,26.539,41.362
134,Kyani,26.38,41.376
39,Ellinochorion,26.461,41.373
79,Pythion,26.612,41.381
55,Aspronerion,26.306,41.393
28,Vrysika,26.336,41.4
94,Nea Makrisi,22.35,39.079
39,Karyai,22.424,39.081
66,Polydendrion,22.412,39.099
66,Omvriaki,22.271,39.102
55,Sitochorion,23.618,40.883
39,Axiochorion,22.643,40.875
66,Achlada,21.613,40.862
24,Agios Dimitrios,23.704,40.884
94,Vertiskos,23.228,40.884
46,Polypetron,22.513,40.877
39,Kipia,24.202,40.887
39,Ano Kalliniki,21.452,40.861
66,Mikron Soulion,23.945,40.891
24,Marina,21.492,40.861
39,Nikopolis,23.18,40.888
28,Mesia,22.575,40.882
24,Skopos,21.641,40.867
160,Mavrothalassa,23.75,40.89
66,Mavronerion,22.814,40.886
112,Kalyvia,22.241,40.023
39,Flampouron,22.253,39.97
24,Perataria,22.613,39.899
33,Kouloura,22.688,39.932
79,Kokkinopilos,22.253,40.096
24,Skopia,22.233,39.993
39,Neon Ikonion,22.22,39.274
39,Ampelon,22.168,39.418
55,Psathochorion,21.99,39.475
46,Mavrika,21.942,39.343
24,Trygona,21.633,39.398
55,Platania,21.605,39.382
33,Kalyvia,21.716,39.308
33,Lagkadion,21.456,39.362
46,Metamorfosis,21.465,39.381
24,Achelinada,21.875,39.827
39,Nea Zoi,22.128,39.318
112,Kalochorion,21.75,39.745
66,Xirokampos,21.489,39.802
33,Theotokos,21.604,39.849
28,Synterina,23.991,37.724
28,Charakas,23.966,37.668
33,Megala Pefka,24.005,37.694
55,Legrena,23.996,37.668
28,Kato Sounion,24.024,37.657
94,Kato Poseidonia,24.055,37.68
55,Peraia,21.822,40.737
24,Irakleion,23.036,40.757
39,Stefanina,23.589,40.761
28,Kolchiki,21.484,40.739
39,Tropaiouchos,21.442,40.741
28,Kalyvia,22.219,40.757
134,Galatades,22.278,40.756
39,Chrysavgi,23.081,40.764
112,Flamouria,22.017,40.752
66,Pella,22.526,40.762
39,Melissochorion,22.929,40.768
66,Lofiskos,23.225,40.773
39,Orfanion,23.951,40.776
28,Nea Pella,22.492,40.762
46,Vathylakkos,22.708,40.769
33,Platani,22.05,40.762
94,Vronteron,21.018,40.742
46,Karyotissa,22.313,40.77
55,Perasma,21.467,40.754
55,Dafni,22.233,40.77
28,Melission,22.353,40.775
112,Drymos,22.959,40.78
24,Lazochorion,22.208,40.564
55,Mesi,22.266,40.528
33,Komnineion,22.164,40.518
46,Lefkopetra,22.178,40.429
46,Alyki,22.625,40.379
28,Toxon,22.398,40.342
24,Meliadion,22.351,40.323
33,Nea Chrani,22.542,40.309
66,Olympiaki Akti,22.585,40.24
28,Neon Keramidion,22.462,40.286
39,Karyes,22.294,40.239
24,Mesaia Milia,22.303,40.25
134,Fteri,22.15,40.194
66,Limin Litochorou,22.546,40.154
46,Plaka,22.563,40.099
55,Lefka,22.351,39.105
112,Mantasia,22.444,39.123
476,Domokos,22.302,39.128
55,Vouzion,22.378,39.138
28,Thavmakon,22.284,39.149
28,Velesiotai,22.247,39.151
79,Pournarion,22.307,39.157
94,Petroton,22.388,39.19
39,Paralia Pelasgias,22.856,38.928
33,Agrilia,22.387,38.929
66,Nea Charavgi,21.823,40.326
79,Longades,20.939,39.66
46,Megali Gotista,21.042,39.683
66,Amfithea,20.868,39.688
24,Vounoplagia,20.787,39.69
94,Eleousa,20.794,39.707
55,Rodotopion,20.727,39.707
24,Mega Gardikion,20.756,39.715
160,Mega Peristerion,21.062,39.724
46,Krya,20.835,39.72
46,Anthochorion,21.13,39.734
79,Miliotades,20.963,39.732
33,Karyai,20.932,39.733
79,Ano Lapsista,20.762,39.74
28,Anilion,21.188,39.758
331,Metsovon,21.183,39.77
33,Myrtofyton,24.197,40.824
397,Assiros,23.031,40.821
39,Kastanas,22.661,40.82
24,Palaistra,21.517,40.803
79,Kampanis,22.916,40.889
66,Ivira,23.698,40.895
66,Therma,23.558,40.896
66,Gefyria,22.193,39.292
476,Farsala,22.385,39.296
134,Petrochorion,21.53,39.283
39,Agios Vissarios,22.127,39.3
39,Neochorion,23.218,39.307
66,Kala Nera,23.12,39.307
33,Vlasion,21.581,39.29
79,Perivlepton,22.688,39.309
39,Agios Georgios,21.835,39.297
39,Zaimion,21.939,39.299
66,Ampeleia,22.493,39.31
39,Agia Paraskevi,22.043,39.306
55,Fylakti,21.683,39.303
230,Milies,23.151,39.328
55,Rousson,21.904,39.314
39,Kato Lechonia,23.037,39.331
33,Xinonerion,21.861,39.317
28,Pinakates,23.118,39.336
66,Moschaton,21.795,39.319
112,Aerinon,22.758,39.334
66,Karya,21.491,39.315
46,Vasilis,22.374,39.332
33,Ptelopoula,21.978,39.326
55,Kalamakion,23.212,39.34
79,Agria,23.008,39.341
33,Agios Vlasios,23.068,39.341
112,Vamvakou,22.42,39.336
28,Polydameion,22.59,39.34
79,Thymari,23.941,37.7
39,Thorikon,24.048,37.733
55,Kanakia,23.412,37.906
55,Perani,23.483,37.899
112,Kolones,23.454,37.878
66,Isthmia,23.009,37.92
192,Agioi Theodoroi,23.143,37.928
94,Loutrakion,22.979,37.974
39,Paralia Skotinis,22.588,40.027
24,Nea Xanthogeia,21.848,40.821
55,Neos Agios Athanasios,21.796,40.834
28,Sotir,21.663,40.676
28,Simos Ioannidis,21.359,40.778
79,Foteini,21.341,40.541
39,Metamorfosis,21.32,40.564
33,Chloi,21.258,40.534
33,Aposkepos,21.251,40.559
39,Kefalarion,21.268,40.57
160,Pyli,21.038,40.777
66,Neos Oikismos,21.201,40.623
94,Vyssinea,21.311,40.622
46,Stavropotamos,21.394,40.545
33,Voskochorion,22.007,40.382
66,Sykorrachi,25.72,40.975
79,Mesi,25.211,40.982
55,Kirki,25.791,40.976
24,Strymi,25.543,40.988
39,Armenochorion,21.461,40.803
46,Neos Mylotopos,22.356,40.818
24,Profitis Ilias,22.162,40.812
112,Kali,22.176,40.82
112,Athyra,22.591,40.825
79,Droseron,22.247,40.823
94,Kallithea,21.154,40.797
94,Podochorion,24.025,40.832
276,Nea Peramos,24.304,40.838
160,Ossa,23.204,40.837
66,Nision,21.932,40.823
134,Aidonochorion,23.725,40.843
94,Ampeleiai,22.388,40.835
79,Proti,21.395,40.816
55,Krithia,22.983,40.843
192,Mikrokampos,22.773,40.842
94,Akritas,21.302,40.815
39,Anydron,22.208,40.833
46,Platanotopos,24.059,40.848
33,Tripotamos,21.5,40.825
94,Nea Santa,22.919,40.843
33,Karavangelis,24.162,40.852
24,Achladochorion,22.343,40.837
39,Eleftherai,24.256,40.85
39,Agrosykea,22.508,40.843
28,Kastanochorion,23.676,40.853
24,Neochorakion,21.542,40.828
46,Aravissos,22.304,40.844
28,Kladorrachi,21.396,40.827
160,Meliti,21.583,40.833
55,Dafni,23.654,40.857
46,Anthofyton,22.711,40.853
192,Keramoti,24.704,40.859
28,Xylokeratea,22.841,40.856
94,Moustheni,24.113,40.861
79,Karydia,21.956,40.847
66,Nea Iraklitsa,24.315,40.865
28,Verga,21.446,40.553
39,Dipotamos,22.958,41.023
160,Sofades,22.098,39.337
39,Kato Vasilika,22.542,39.34
46,Kipoi,26.307,40.953
55,Fylakton,26.273,41.053
66,Amfitriti,25.919,40.891
94,Thymaria,26.268,40.996
79,Giannouli,26.204,41.212
79,Sidiro,26.131,41.247
94,Agriani,26.288,41.282
55,Savra,26.299,41.417
66,Neoi Psathades,26.482,41.32
192,Sofikon,26.562,41.421
33,Neos Pyrgos,26.504,41.494
55,Sakkos,26.524,41.538
46,Thyrea,26.515,41.413
134,Lagos,26.462,41.451
24,Lepti,26.468,41.5
24,Patagi,26.43,41.484
46,Kanadas,26.407,41.646
39,Ammovounon,26.283,41.58
46,Keramos,26.349,41.605
46,Palli,26.273,41.688
160,Korymvos,26.196,41.354
160,Roussa,26.018,41.3
46,Gonikon,25.969,41.292
66,Gerikon,26.025,41.258
192,Mega Dereion,26.024,41.233
66,Petrolofos,25.919,41.214
33,Sidirochorion,25.968,41.239
112,Leptokarya,25.905,41.069
46,Dikella,25.697,40.865
28,Ennato,25.77,40.853
33,Paralia Dikellon,25.682,40.854
79,Plaka,25.733,40.89
94,Komaros,25.66,40.91
46,Mesti,25.647,40.953
33,Pisia,22.988,38.021
33,Panormos,24.049,37.701
33,Eirini,23.012,37.955
39,Limni Vouliagmenis,22.872,38.032
192,Perachora,22.949,38.028
94,Agia Sotira,23.025,38.053
39,Vamvakes,23.077,38.057
39,Dionysos,24.021,37.833
276,Karystos,24.419,38.016
94,Platanistos,24.515,38.018
55,Kalyvia,24.408,38.038
94,Marmarion,24.32,38.049
79,Paradeision,24.379,38.079
94,Agios Dimitrios,24.437,38.109
79,Amygdalea,24.575,38.121
94,Mikra Volvi,23.561,40.677
66,Neochorion,22.444,40.666
112,Adendron,22.605,40.672
39,Pedinon,21.588,40.661
134,Aetos,21.556,40.661
39,Rodon,21.632,40.662
112,Profitis,23.278,40.688
33,Giannakochorion,22.057,40.672
66,Angelochorion,22.199,40.678
112,Pyrgoi,21.833,40.669
46,Efkarpia,22.952,40.686
28,Akrolimni,22.266,40.683
55,Filyron,23.005,40.691
46,Nymfopetra,23.329,40.693
39,Evangelismos,23.217,40.694
112,Krya Vrysi,22.303,40.687
55,Episkopi,22.139,40.687
134,Makrochorion,21.262,40.672
33,Vegora,21.716,40.681
39,Nea Vrasna,23.702,40.707
28,Parthenion,22.607,40.699
33,Trifyllion,26.209,40.982
39,Mirana,25.492,41
55,Mandra,24.992,40.996
39,Kremasti,24.767,41.016
39,Kypseli,24.854,41.024
66,Olvion,24.799,41.028
79,Neon Sidirochorion,25.355,41.022
331,Aisymi,25.956,41.017
276,Sapai,25.697,41.023
94,Nea Kessani,25.071,41.032
66,Lofarion,25.573,41.03
33,Nea Kallisti,25.212,41.037
66,Lefkimmi,26.198,41.022
28,Provaton,26.258,41.025
397,Tycheron,26.292,41.028
55,Agioi Theodoroi,25.405,41.044
46,Koutson,25.024,41.05
192,Salpi,25.189,41.052
94,Amaranta,25.499,41.05
160,Genisea,24.962,41.062
55,Selinon,25.073,41.069
33,Thrylorion,25.482,41.077
46,Toxotai,24.791,41.088
134,Aratos,25.553,41.081
39,Lyra,26.27,41.07
24,Diomideia,24.901,41.09
134,Arriana,25.695,41.081
112,Aigeiros,25.285,41.09
39,Amvrosia,25.236,41.089
39,Kosmion,25.41,41.087
79,Lagyna,26.298,41.084
79,Evmoiron,24.858,41.11
24,Nea Santa,25.762,41.103
28,Pigadia,24.945,41.117
94,Amaxades,25.065,41.123
476,Komotini,25.403,41.119
46,Fillyra,25.632,41.122
24,Achladion,22.808,38.888
55,Rachai,22.781,38.891
134,Achinos,22.724,38.893
28,Agioi Theodoroi,22.925,38.998
112,Achilleion,22.963,39.004
112,Pteleos,22.953,39.052
112,Vrynaina,22.81,39.067
276,Anavra,22.55,39.073
46,Drymon,22.866,39.075
33,Kokkotoi,22.775,39.079
331,Trikerion,23.077,39.101
160,Sourpi,22.894,39.103
112,Kofoi,22.721,39.103
79,Skopia,22.468,39.156
134,Amaliapolis,22.888,39.167
134,Milina,23.22,39.171
28,Lafkos,23.247,39.177
33,Anthotopos,22.602,39.184
397,Almyros,22.76,39.183
66,Promyrion,23.286,39.191
55,Krokion,22.751,39.205
230,Argalasti,23.218,39.226
66,Xinovrysi,23.259,39.249
39,Aidinion,22.746,39.246
28,Dilofon,22.455,39.242
112,Narthakion,22.482,39.243
66,Mikrothivai,22.751,39.262
66,Vrysia,22.322,39.26
55,Achilleion,22.42,39.268
276,Nea Anchialos,22.815,39.28
55,Afetai,23.18,39.283
134,Syki,23.26,39.285
46,Leontiton,21.534,39.265
55,Neraida,22.551,39.285
192,Kallifonion,21.962,39.277
46,Agios Georgios,22.277,39.286
46,Petrilon,21.596,39.271
39,Kallithiron,21.906,39.281
66,Eretria,22.616,39.297
55,Ampelos,22.046,39.288
46,Asimenion,26.562,41.401
33,Karoti,26.425,41.407
94,Mani,26.402,41.41
24,Paliourion,26.252,41.414
79,Kryoneri,25.426,40.904
55,Palaia Krovyli,25.563,40.951
66,Dioni,25.563,40.98
24,Exochi,20.829,39.687
28,Agioi Apostoloi,20.793,39.749
66,Analipsi,21.075,39.751
79,Kallithea,21.356,39.847
112,Dasochorion,21.817,39.881
46,Trikokkia,21.62,39.877
39,Katakali,21.687,39.902
331,Kranea,21.28,39.898
55,Paraskevi,21.77,39.909
94,Paliourion,23.663,39.942
397,Deskati,21.809,39.927
94,Nea Skioni,23.531,39.947
33,Agia Paraskevi,23.608,39.955
192,Kalandra,23.4,39.972
160,Karperon,21.62,39.948
66,Paliouria,21.729,39.957
160,Kipoureion,21.361,39.953
28,Neoi Poroi,22.65,39.977
160,Pefkochorion,23.614,39.989
39,Monachition,21.273,39.968
134,Elati,21.822,39.98
39,Panteleimon,22.572,39.993
230,Platamon,22.624,39.991
33,Chaniotis,23.575,39.999
79,Fourka,23.414,40.005
66,Agioi Theodoroi,21.503,39.984
55,Trikomon,21.317,39.98
33,Kassandrinon,23.447,40.013
94,Pigaditsa,21.412,39.984
66,Perivolion,21.117,39.979
66,Polychronon,23.525,40.017
79,Skotina,22.554,40.016
46,Kosmation,21.338,40.002
46,Kryopigi,23.474,40.035
112,Spilaion,21.285,40.004
112,Sykea,23.942,40.039
28,Kentron,21.622,40.018
94,Rodochorion,22.018,40.691
55,Maniakion,21.775,40.693
276,Amyntaion,21.679,40.691
66,Mikron Monastirion,22.547,40.708
39,Xinon Neron,21.624,40.69
55,Drosopigi,21.455,40.69
39,Esovalta,22.263,40.707
28,Anchialos,22.78,40.715
79,Agios Athanasios,22.727,40.714
39,Analipsis,23.174,40.72
28,Ano Ydroussa,21.475,40.7
28,Valtochorion,22.637,40.719
66,Kato Grammatikon,21.894,40.707
28,Lagyna,23.005,40.723
112,Arsenion,22.16,40.713
134,Oraiokastron,22.922,40.725
79,Agios Loukas,22.296,40.72
94,Flampouron,21.523,40.706
39,Evangelismos tis Theotokou,23.558,40.273
55,Psakoudia,23.496,40.26
112,Plana,23.665,40.368
112,Elia,23.737,40.145
28,Koufos,23.918,39.972
230,Toroni,23.903,39.985
112,Dafni,24.224,40.215
134,Moni Vatopediou,24.212,40.315
160,Moni Megistis Lavras,24.382,40.171
28,Rizochorion,22.132,41.007
66,Nea Zoi,22.105,40.851
33,Gypsochorion,22.26,40.808
79,Keraseai,21.963,40.877
33,Margarita,22.031,40.882
39,Zervi,21.82,40.857
39,Ekklisiochorion,22.067,40.815
28,Stavrodromion,22.217,40.712
55,Megali Gefyra,22.526,40.533
39,Roditsa,22.463,38.889
33,Agia Marina,22.583,38.894
39,Agia Paraskevi,22.49,38.9
28,Amourion,22.333,38.9
66,Stavros,22.369,38.901
1702,Lamia,22.434,38.9
55,Avlakion,22.557,38.91
230,Stylis,22.616,38.913
46,Nea Spartia,22.802,38.919
79,Vardali,22.313,39.201
66,Sofiada,22.251,39.206
160,Neon Monastirion,22.275,39.241
24,Neos Palamas,22.38,39.029
24,Spartia,22.78,38.93
46,Leianokladion,22.303,38.916
28,Anydron,22.702,38.924
79,Palaiokerasea,22.731,38.929
39,Zilefton,22.26,38.931
79,Lygaria,22.355,38.938
192,Pelasgia,22.84,38.948
39,Vathykoilon,22.911,38.95
112,Glyfa,22.967,38.953
46,Stirfaka,22.306,38.954
46,Myloi,22.806,38.966
160,Divri,22.454,38.975
55,Kalamakion,22.352,39
66,Moschokarya,22.264,38.998
66,Agios Stefanos,22.254,39.025
28,Agios Georgios,22.335,39.031
39,Neochorion,22.519,39.038
28,Koromilea,22.284,39.036
33,Makrolivadon,22.419,39.037
192,Xynias,22.313,39.044
46,Melitaia,22.452,39.046
55,Fyliadon,22.482,39.059
39,Agios Vartholomaios,21.528,40.761
134,Koufalia,22.577,40.781
112,Akropotamos,24.035,40.79
39,Vevi,21.616,40.768
230,Metaxades,26.225,41.42
28,Thourion,26.559,41.433
55,Elafochorion,26.324,41.44
66,Alepochorion,26.207,41.452
33,Ladi,26.263,41.452
55,Poimenikon,26.385,41.461
192,Doxa,26.283,41.484
55,Ampelakia,26.397,41.48
94,Zoni,26.216,41.503
66,Megali Doxipara,26.281,41.509
3528,Orestias,26.532,41.503
33,Neochorion,26.459,41.511
28,Chandras,26.303,41.517
112,Valtos,26.355,41.538
66,Kavyli,26.514,41.561
55,Sterna,26.459,41.565
276,Kyprinos,26.228,41.576
66,Fylakion,26.313,41.592
39,Komara,26.229,41.593
192,Nea Vyssa,26.543,41.584
33,Elaia,26.314,41.618
160,Rizia,26.426,41.625
46,Arzos,26.374,41.634
160,Pentalofos,26.182,41.646
39,Spilaion,26.31,41.648
66,Kastaneai,26.475,41.645
55,Marasia,26.47,41.668
94,Petrota,26.136,41.694
397,Dikaia,26.295,41.704
66,Ormenion,26.215,41.721
112,Itea,26.188,40.972
39,Kavisos,26.17,40.924
79,Ardanion,26.211,40.932
79,Doriskos,26.118,40.868
39,Monastirakion,26.104,40.853
55,Poros,26.223,40.898
28,Vrysoula,26.24,40.938
33,Gemisti,26.331,40.963
33,Votonosion,21.119,39.768
66,Anthrakitis,20.866,39.766
55,Perivleptos,20.779,39.764
134,Avdella,21.127,40.007
230,Kassandreia,23.413,40.049
112,Fellion,21.533,40.024
55,Myrkinos,23.819,40.901
39,Patrikion,23.61,40.901
33,Chrysopetra,22.983,40.899
94,Evropos,22.554,40.896
28,Polyplatanon,21.408,40.878
192,Apsalos,22.058,40.893
66,Nea Karya,24.709,40.905
55,Agiasma,24.656,40.909
55,Filyria,22.479,40.9
66,Aspros,22.629,40.903
112,Eleftheroupolis,24.253,40.914
112,Mesochorion,21.513,40.884
33,Karterai,23.082,40.91
66,Neon Gynaikokastron,22.747,40.921
46,Pedinon,22.873,40.909
24,Neos Kafkasos,21.471,40.89
230,Rodolivos,23.973,40.922
46,Achinos,23.654,40.92
79,Draviskos,23.872,40.923
55,Kokkinochoma,24.308,40.93
66,Lefkochorion,23.07,40.925
230,Xylopolis,23.179,40.927
66,Flampouron,23.565,40.93
46,Sarakinoi,21.954,40.915
134,Chrysochorion,24.712,40.932
55,Nikokleia,23.427,40.933
28,Ryzia,22.57,40.93
276,Niki,21.419,40.909
685,Kavala,24.406,40.938
66,Proti,24,40.945
66,Toumpa,22.544,40.935
28,Palaiochorion,24.178,40.944
66,Polykarpion,22.018,40.926
24,Sevastiana,22.123,40.77
39,Lipochorio,22.181,40.756
46,Rizon,22.138,40.735
33,Loutrochorion,22.109,40.724
24,Polla Nera,22.088,40.718
39,Ano Zervochorion,22.215,40.656
24,Rapsomanikion,22.35,40.561
33,Neos Prodromos,22.435,40.536
28,Paliampela,22.504,40.511
46,Agia Foteini,22,40.713
55,Xirolivadon,22.082,40.467
46,Agia Varvara,22.246,40.496
46,Agios Dimitrios,21.549,39.776
24,Neos Kleitos,21.737,40.256
24,Apostoloi,21.729,39.579
46,Kalonerion,21.586,39.636
24,Z.E.P.,21.757,40.274
46,Rogkia,21.712,39.561
24,Antallaxima,21.607,39.608
55,Ampelia,21.518,39.693
28,Kallithea,21.474,39.466
46,Agios Ioannis,21.558,39.436
24,Longiai,21.567,39.445
79,Elafion,21.47,39.713
33,Nea Zoi,21.792,39.726
79,Mourgkani,21.541,39.738
28,Skopia,21.409,40.763
79,Antartikon,21.206,40.758
28,Palaifyton,22.275,40.782
46,Nea Kerdylia,23.842,40.794
46,Rizarion,22.088,40.784
66,Nea Filadelfeia,22.84,40.797
33,Galipsos,23.952,40.8
476,Giannitsa,22.411,40.793
46,Kallipolis,22.234,40.79
112,Mavrouda,23.468,40.805
134,Alona,21.302,40.777
39,Xirochorion,22.779,40.803
1419,Florina,21.414,40.783
94,Folea,24.157,40.809
112,Kella,21.688,40.788
46,Skepaston,23.518,40.81
24,Mesimerion,22.026,40.793
66,Ammochorion,21.483,40.783
94,Pente Vrysai,23.156,40.808
39,Axos,22.362,40.801
46,Neon Agionerion,22.706,40.813
397,Edessa,22.05,40.801
192,Arnissa,21.836,40.798
39,Sitaria,21.543,40.791
55,Kryonerion,23.281,40.815
46,Vryta,21.913,40.801
230,Sochos,23.356,40.817
94,Lofoi,21.588,40.796
55,Rachona,22.54,40.811
66,Elaiochorion,24.241,40.821
55,Agras,22.003,40.805
24,Lefkon,21.139,40.79
55,Amfipolis,23.846,40.825
112,Pefkos,20.954,40.39
24,Chionaton,21.015,40.477
39,Krepeni,21.324,40.493
79,Chrysovitsa,21.074,39.779
55,Grevenition,21.004,39.806
55,Doliani,20.951,39.822
160,Fragkades,20.883,39.831
134,Milea,21.23,39.852
94,Flampourarion,20.991,39.854
66,Kipoi,20.792,39.864
160,Tsepelovon,20.82,39.905
24,Skamnellion,20.85,39.912
160,Vovousa,21.049,39.937
46,Laista,20.955,39.972
112,Vrysochorion,20.887,39.999
94,Distraton,21.018,40.027
79,Mazion,20.667,40.04
397,Konitsa,20.747,40.045
94,Eleftheron,20.855,40.057
33,Iliorrachi,20.703,40.056
66,Pigi,20.785,40.068
55,Molyvdoskepastos,20.57,40.062
79,Agia Paraskevi,20.895,40.145
55,Fourka,20.943,40.161
276,Pyrgos,20.784,40.16
46,Amarantos,20.726,40.162
55,Drosopigi,20.915,40.213
55,Lagkada,20.86,40.213
33,Pyrsogianni,20.81,40.212
160,Kefalochori,20.886,40.24
66,Plikation,20.769,40.296
230,Aetomilitsa,20.856,40.31
33,Agios Nikolaos,21.391,39.28
112,Aidonia,21.421,39.293
28,Sitsaina,21.043,39.763
46,Ampelakia,21.065,39.705
94,Baltouma,20.994,39.696
33,Kardamitsia,20.818,39.678
33,Gallikos,22.881,40.858
55,Pappagiannis,21.498,40.839
28,Mesoropi,24.083,40.865
33,Domiros,23.922,40.946
66,Anthi,23.506,40.944
46,Xifiani,22.081,40.93
55,Karpochorion,22.01,39.335
66,Dasolofos,22.492,39.344
134,Kryonerion,21.687,39.333
66,Sesklo,22.834,39.355
94,Mitropolis,21.837,39.34
39,Polynerion,22.265,39.349
55,Dimini,22.894,39.358
55,Mesovounion,21.521,39.339
24,Mesenikolas,21.759,39.342
33,Agios Lavrentios,23.059,39.361
55,Xorychtion,23.186,39.364
94,Paschalitsa,22.209,39.356
24,Alli Meria,22.984,39.371
66,Anthiron,21.459,39.348
55,Morfovounion,21.75,39.353
24,Agios Georgios Feron,22.777,39.369
39,Fragkon,21.844,39.355
33,Anakasia,22.975,39.381
55,Anthochorion,21.662,39.357
66,Gavrio,24.737,37.884
24,Pagos,24.907,37.418
55,Manna,24.944,37.422
55,Galissas,24.884,37.422
986,Ermoupolis,24.941,37.445
397,Plomarion,26.369,38.976
28,Plagia,26.397,38.984
39,Palaiochorion,26.32,39
55,Megalochorion,26.366,39.019
55,Akrasion,26.309,39.027
230,Mykonos,25.331,37.446
66,Ano Mera,25.396,37.446
476,Megalo Chorio,26.972,37.458
331,Karkinagrion,26.02,37.518
331,Tinos,25.163,37.538
79,Manganitis,26.118,37.559
112,Steni,25.199,37.577
112,Fournoi,26.481,37.577
24,Komi,25.142,37.604
46,Agapi,25.163,37.608
79,Kalloni,25.12,37.61
112,Christos,26.079,37.601
39,Ysternia,25.054,37.621
28,Agios Polykarpos,26.091,37.612
39,Arethousa,26.221,37.614
571,Agios Kirykos,26.294,37.614
33,Ioulida,24.342,37.64
192,Panormos,25.042,37.639
112,Evdilos,26.178,37.631
39,Karavostamon,26.217,37.633
192,Korissia,24.312,37.658
112,Perdikion,26.304,37.662
46,Pagondas,26.832,37.672
24,Spatharaioi,26.801,37.679
33,Myloi,26.858,37.681
28,Skouraiika,26.773,37.694
66,Pythagoreio,26.943,37.691
39,Koumaradaioi,26.838,37.706
55,Chora,26.904,37.703
39,Koumaiika,26.748,37.71
79,Pyrgos,26.804,37.709
33,Mavratzaioi,26.864,37.719
160,Marathokampos,26.689,37.727
33,Korthion,24.942,37.756
94,Kallithea,26.583,37.733
94,Mytilinioi,26.906,37.727
28,Pandroson,26.83,37.731
55,Platanos,26.746,37.738
33,Kapparia,24.911,37.772
160,Ormos Korthiou,24.95,37.772
39,Palaiokastron,27.001,37.739
55,Kastanea,26.684,37.753
79,Drakaioi,26.611,37.76
39,Kontaiika,26.74,37.757
134,Samos,26.974,37.757
55,Leka,26.687,37.773
24,Ydroussa,26.749,37.78
79,Kokkarion,26.891,37.778
79,Pitrofos,24.876,37.814
33,Vourliotai,26.848,37.785
33,Palaiopoli,24.834,37.818
1183,Neon Karlovasion,26.704,37.791
33,Mesaria,24.91,37.823
46,Kontakaiika,26.745,37.802
39,Ano Aprovatou,24.812,37.835
39,Agios Konstantinos,26.821,37.806
476,Andros,24.936,37.837
28,Apoikia,24.909,37.85
192,Batsi,24.787,37.857
33,Myrteai,26.932,36.99
46,Panormos,26.936,36.976
79,Pserimos,27.135,36.933
160,Panormitis,27.848,36.549
55,Masticharion,27.076,36.849
66,Marmari,27.146,36.88
46,Lagoudi - Zia,27.201,36.848
24,Tigkakion,27.183,36.889
24,Linopotis,27.176,36.87
33,Paloi,27.171,36.618
94,Analipsis,26.386,36.577
397,Agia Marina,26.912,35.412
55,Diafanion,27.21,35.756
46,Kipos Afiarti,27.149,35.452
397,Chalki,27.611,36.222
28,Sgourou,28.202,36.402
46,Kampos,26.672,37.71
24,Ormos Marathokampou,26.7,37.711
24,Potokaki,26.919,37.687
24,Pountes,26.961,37.697
134,Iraion,26.881,37.665
24,Agia Zoni,27.007,37.752
39,Kamara,27.008,37.761
28,Kedron,26.925,37.77
55,Mesokampos,26.973,37.711
28,Karfas,26.153,38.321
28,Lefkonia,26.144,38.335
28,Dafnon,26.08,38.347
28,Pagis,26.078,38.259
66,Katarraktis,26.102,38.265
39,Armolia,26.031,38.252
55,Komi,26.046,38.202
39,Emporeios,26.028,38.189
55,Limenas,25.931,38.287
33,Limia,25.918,38.471
46,Karyai,26.099,38.391
397,Marmaron,26.108,38.544
55,Zefyria,24.49,36.7
33,Triovasalos,24.432,36.742
94,Apollonia,24.526,36.763
46,Agios Georgios,25.468,36.861
24,Ormos Aigialis,25.977,36.901
397,Folegandros,24.92,36.628
24,Karavostasis,24.949,36.616
39,Alopronoia,25.144,36.677
397,Ios,25.282,36.723
24,Mylopotas,25.294,36.716
46,Paradeisos,25.391,36.48
46,Monolithos,25.48,36.412
55,Kamarion,25.479,36.376
24,Perissa,25.474,36.355
39,Exomytis,25.437,36.336
55,Kamarai,24.676,36.989
94,Platys Gialos,24.73,36.932
39,Faros,24.751,36.945
331,Livadion,24.512,37.142
66,Loutra,24.425,37.441
160,Kanala,24.436,37.346
79,Merichas,24.397,37.388
55,Otzias,24.354,37.675
46,Kato Meria,24.32,37.587
160,Pissai,24.278,37.599
24,Kalafati,25.422,37.442
134,Dilos,25.267,37.399
33,Klouvas,25.365,37.451
94,Faros Armenistis,25.319,37.484
33,Tourlos,25.33,37.461
55,Ornos,25.324,37.425
24,Azolimnos,24.962,37.411
94,Ai Michalis,24.92,37.488
24,Episkopeion,24.915,37.435
46,Kinion,24.901,37.446
33,Ormos Panormou,25.052,37.652
28,Kionia,25.139,37.553
28,Tripotamos,25.168,37.57
46,Agia Varvara,25.201,37.543
24,Kalamion,25.166,37.113
46,Kamares,25.192,37.118
33,Krotiri,25.141,37.099
24,Kakapetra,25.147,37.073
46,Kampos,25.135,37.032
79,Aspron Chorion,25.198,37.006
39,Ampelas,25.266,37.104
28,Agia Anna,25.356,37.067
24,Agioi Pantes,25.372,37.054
55,Stelida,25.344,37.084
33,Agkidia,25.402,37.098
112,Trachy,24.503,38.959
112,Arkasa,27.12,35.477
55,Menetai,27.168,35.492
2042,Karpathos,27.212,35.507
55,Pylai,27.134,35.532
24,Othos,27.152,35.543
79,Aperion,27.17,35.55
276,Mesochorion,27.11,35.632
33,Spoa,27.142,35.639
571,Olympos,27.173,35.74
160,Apollon,25.551,37.181
79,Alyki,25.133,37
79,Piso Meria,24.924,37.746
24,Strapouriai,24.904,37.835
28,Epano Episkopi,26.075,35.132
112,Sykea,26.058,35.104
24,Makrygialos,25.973,35.039
66,Stavrochorion,25.942,35.077
33,Samothraki,25.525,40.474
28,Alonia,25.513,40.462
112,Therma,25.603,40.498
94,Lakkoma,25.53,40.428
822,Kamariotissa,25.474,40.476
94,Agia Roumeli,23.96,35.23
55,Nteres,23.844,35.436
24,Choumerion,25.247,35.162
24,Paralia Rachon,22.776,38.882
331,Neos Marmaras,23.784,40.095
160,Megaron,21.265,40.113
134,Nea Gonia,23.094,40.363
160,Nestorion,21.059,40.416
55,Antigonos,21.762,40.64
94,Ofrynion,23.91,40.797
55,Efkarpia,23.773,40.863
24,Mavrolofos,23.868,40.913
39,Vergi,23.398,40.954
24,Georgiani,24.147,40.958
46,Ampeloi,23.371,41.008
33,Agia Paraskevi,24.16,41.02
66,Dafnoudion,23.747,41.061
46,Lithotopos,23.223,41.135
79,Kali Vrysi,23.905,41.146
134,Platania,24.41,41.186
160,Lefkogeia,23.895,41.406
55,Argyroupolis,22.928,40.991
230,Kattavia,27.768,35.954
79,Lachania,27.861,35.967
79,Mesanagros,27.821,36.012
230,Gennadion,27.923,36.024
24,Arnitha,27.814,36.06
55,Vation,27.883,36.06
134,Apolakkia,27.788,36.067
94,Asklipieion,27.93,36.072
79,Lindos,28.086,36.092
79,Profilia,27.846,36.099
986,Lardos,28.016,36.094
46,Pylon,28.046,36.107
160,Monolithos,27.741,36.131
39,Kalathos,28.058,36.121
79,Siana,27.779,36.154
112,Laerma,27.939,36.155
55,Agios Isidoros,27.849,36.166
112,Masari,28.073,36.178
1702,Megisti,29.591,36.149
55,Malon,28.071,36.201
230,Archangelos,28.118,36.214
230,Emponas,27.857,36.226
46,Kritinia,27.831,36.249
39,Platania,28.018,36.258
134,Apollona,27.966,36.26
79,Archipolis,28.06,36.266
55,Dimylia,28.008,36.281
66,Salakos,27.945,36.29
397,Anafi,25.768,36.352
39,Akrotirion,25.397,36.357
66,Ilion,23.708,38.031
33,Gazion,25.066,35.325
685,Leonidion,22.861,37.166
66,Elefsis,23.542,38.043
134,Aigeira,22.356,38.148
986,Chalkis,23.597,38.46
134,Stavros,22.238,39.315
112,Tsagkarada,23.173,39.388
986,Grevena,21.428,40.083
55,Platy,22.532,40.64
112,Vourvourou,23.791,40.187
94,Mandra,22.26,39.615
39,Vryotopos,22.375,39.758
39,Marina,22.101,40.691
79,Kavallarion,23.043,40.712
134,Asprovalta,23.707,40.722
112,Strymonikon,23.315,41.043
39,Arisvi,25.591,41.07
94,Vyron,23.755,37.959
66,Matala,24.749,34.992
24,Moni Kalyvianis,24.834,35.053
39,Anissaras,25.374,35.337
28,Agriana,25.345,35.31
134,Myrtos,25.583,35.004
685,Ierapetra,25.739,35.008
134,Goudouras,26.094,35.013
79,Koutsounari,25.828,35.017
28,Mourniai,25.565,35.026
79,Mythoi,25.573,35.036
160,Koutsouras,25.944,35.034
33,Anatoli,25.643,35.045
55,Kato Chorion,25.791,35.049
46,Makrylia,25.718,35.063
134,Kalamafka,25.657,35.074
46,Armenoi,26.092,35.073
94,Malai,25.585,35.08
46,Lithinai,26.046,35.075
134,Ziros,26.14,35.076
28,Oreinon,25.914,35.08
46,Meseleroi,25.711,35.083
24,Chandras,26.099,35.081
94,Chrysopigi,25.949,35.105
79,Pacheia Ammos,25.802,35.11
28,Kalon Chorion,25.724,35.117
192,Zakros,26.218,35.114
55,Kavousion,25.858,35.122
39,Kroustas,25.661,35.139
66,Lastros,25.899,35.139
66,Maronia,26.081,35.142
33,Kaminakion,25.467,35.157
112,Kritsa,25.645,35.159
55,Moutsouna,25.586,37.079
134,Kastraki,25.389,37.004
55,Kato Fellos,24.724,37.908
39,Kato Katakoilos,24.813,37.868
331,Farmakonision,27.085,37.291
134,Theologos,24.692,40.66
46,Mariai,24.621,40.691
24,Kallirachi,24.555,40.695
134,Potamia,24.73,40.718
39,Skala Sotiros,24.548,40.729
33,Panagia,24.729,40.731
55,Rachonion,24.636,40.757
276,Thasos,24.709,40.779
46,Skala Rachoniou,24.612,40.779
39,Ormos Prinou,24.577,40.758
134,Prinos,24.577,40.741
79,Skala Kallirachis,24.534,40.708
39,Skala Marion,24.516,40.643
331,Limenaria,24.575,40.627
55,Koinyra,24.764,40.665
28,Potos,24.606,40.611
230,Skopelos,23.728,39.122
66,Neo Klima,23.645,39.139
331,Skiathos,23.489,39.163
112,Glossa,23.616,39.175
28,Agnontas,23.712,39.083
79,Stafylos,23.744,39.085
66,Kentrion,25.752,35.033
46,Mochlos,25.905,35.183
55,Achlia,25.891,35.027
112,Istron,25.737,35.126
33,Vathy,25.718,35.151
66,Ammoudara,25.711,35.165
24,Xirokampos,25.704,35.203
55,Katsikia,25.704,35.216
39,Ellinika,25.723,35.229
39,Gra Lygia,25.692,35.015
33,Kalogeroi,25.671,35.032
24,Nea Anatoli,25.66,35.011
46,Plaka,25.728,35.299
28,Paralia Milatou,25.565,35.32
55,Panormos,23.665,39.11
230,Steni Vala,23.926,39.193
46,Troullos,23.421,39.143
55,Kalyvia,23.497,39.184
24,Xanemos,23.505,39.173
79,Sision,25.526,35.304
397,Afantou,28.162,36.294
134,Emporeion,25.445,36.357
2042,Skyros,24.566,38.906
66,Aspous,24.568,38.878
571,Amorgos,25.899,36.832
112,Antimacheia,27.098,36.809
192,Schoinoussa,25.519,36.87
192,Pylion,27.157,36.843
79,Ziparion,27.205,36.875
230,Lagkada,25.999,36.906
160,Linaria,24.539,38.842
39,Polysitos,25.023,41.11
94,Dadia,26.225,41.129
33,Prangion,26.576,41.346
28,Petrades,26.608,41.343
66,Neon Cheimonion,26.553,41.451
112,Plati,26.335,41.628
33,Ptelea,26.241,41.702
24,Chionades,26.319,41.493
79,Dialampi,25.148,41.09
24,Palaion Katramion,24.914,41.075
55,Skaramagkas,23.604,38.011
66,Grammatikon,23.967,38.203
39,Chalkoutsion,23.734,38.332
134,Kineta,23.213,37.969
46,Kalopigado,24.081,37.779
79,Askri,23.111,38.314
134,Asminion,23.198,39.003
331,Varda,21.364,38.031
46,Kaminia,21.62,38.148
28,Rododafni,22.051,38.264
33,Stadion,22.436,37.459
33,Filothei,21.436,38.384
66,Peta,21.035,39.165
94,Efpalion,21.927,38.419
66,Psinthos,28.096,36.315
33,Megalochorion,25.43,36.377
112,Kalythiai,28.174,36.336
79,Kalavarda,27.949,36.34
28,Mesaria,25.45,36.397
33,Fanai,27.983,36.351
192,Soroni,28.002,36.361
66,Maritsa,28.116,36.36
46,Theologos,28.038,36.372
79,Thirasia,25.344,36.434
39,Damatria,28.082,36.38
79,Pastida,28.137,36.387
66,Koskinou,28.215,36.387
476,Livadia,27.385,36.416
134,Oia,25.375,36.462
39,Paradeision,28.083,36.4
33,Kremasti,28.118,36.411
112,Ialysos,28.156,36.413
79,Megalon Chorion,27.346,36.454
2042,Rodos,28.228,36.444
822,Astypalaia (Chora),26.352,36.547
66,Nikia,27.179,36.575
33,Ano Meria,24.883,36.644
230,Mandrakion,27.132,36.612
571,Symi,27.839,36.613
160,Sikinos,25.12,36.696
1183,Adamas,24.445,36.726
476,Kefalos,26.96,36.746
230,Kimolos,24.575,36.793
160,Arkesini,25.803,36.788
46,Kardamaina,27.142,36.782
24,Gouria,21.262,38.474
46,Zevgarakion,21.412,38.536
33,Nea Avorani,21.443,38.609
112,Kalyvia,21.292,38.619
79,Sardinia,21.202,38.889
28,Nerokouros,24.039,35.476
112,Patitirion,23.863,39.145
55,Plati,25.439,35.17
79,Agios Georgios,25.485,35.167
24,Mesa Mouliana,25.97,35.161
134,Tourloti,25.94,35.159
33,Stavromenos,26.114,35.162
24,Myrsini,25.947,35.166
46,Exo Mouliana,25.989,35.167
24,Agios Konstantinos,25.503,35.175
66,Skopi,26.04,35.177
79,Piskokefalon,26.097,35.179
33,Roussa Ekklisia,26.147,35.178
33,Flamouriana,25.661,35.189
331,Agios Nikolaos,25.716,35.191
112,Tzermiadon,25.488,35.2
39,Exo Lakkonia,25.659,35.204
160,Palaikastron,26.253,35.198
230,Siteia,26.106,35.208
28,Vrysai,25.615,35.24
33,Limnai,25.638,35.248
112,Neapolis,25.606,35.256
33,Fourni,25.662,35.258
160,Schisma,25.723,35.261
33,Vrachasion,25.564,35.273
46,Milatos,25.565,35.309
134,Vrouchas,25.734,35.317
55,Agia Fotia,26.151,35.192
94,Petra,26.176,39.328
28,Pelopi,26.281,39.326
46,Kapi,26.311,39.334
24,Falirakion,28.204,36.34
39,Kleio,26.322,39.347
46,Argennos,26.263,39.361
24,Sykaminea,26.295,39.362
476,Mithymna,26.175,39.368
571,Agios Efstratios,24.989,39.539
160,Skandalion,25.335,39.804
28,Platy,25.074,39.861
94,Kontias,25.149,39.865
55,Kaminia,25.322,39.864
24,Tsimandria,25.173,39.868
1183,Myrina,25.063,39.874
230,Moudros,25.27,39.875
55,Portianon,25.179,39.882
39,Roussopoulion,25.312,39.883
28,Nea Koutali,25.205,39.893
66,Romanon,25.29,39.906
24,Livadochorion,25.2,39.909
66,Agios Dimitrios,25.156,39.913
94,Kaspakas,25.084,39.914
28,Lychna,25.267,39.916
28,Kornos,25.119,39.919
24,Repanidion,25.3,39.923
112,Kontopoulion,25.334,39.927
46,Varos,25.263,39.93
24,Karpasion,25.233,39.934
79,Sardai,25.141,39.94
160,Atsiki,25.225,39.947
33,Dafni,25.167,39.95
397,Panagia,25.406,39.981
66,Plaka,25.427,40.005
33,Patmos,26.548,37.309
79,Lisvorion,26.218,39.105
28,Evreiaki,26.487,39.062
24,Agios Isidoros,26.398,38.966
28,Thymaina,26.452,37.582
2450,Mytilini,26.555,39.104
94,Ippeion,26.413,39.117
79,Mesotopos,26.004,39.131
397,Pyrgion,25.999,38.226
39,Kalamoti,26.046,38.234
66,Nenita,26.094,38.24
66,Olympoi,25.942,38.247
28,Mesta,25.922,38.26
112,Elata,25.988,38.286
66,Kallimasia,26.101,38.293
33,Vessa,26.008,38.296
24,Neochorion,26.114,38.307
134,Thymiana,26.133,38.313
134,Lithion,26,38.331
33,Chalkeion,26.098,38.333
1183,Chios,26.136,38.37
94,Vrontados,26.128,38.412
24,Kerameia,26.423,39.125
55,Moria,26.517,39.132
134,Agra,26.06,39.158
112,Pamfila,26.521,39.156
685,Eresos,25.934,39.167
112,Parakoila,26.141,39.169
39,Loutropolis Thermis,26.485,39.18
94,Pigi,26.417,39.183
55,Chidira,26.026,39.203
94,Sigrion,25.852,39.212
28,Pterounta,26.055,39.213
39,Keramion,26.207,39.216
24,Mistegna,26.462,39.212
66,Vatoussa,26.05,39.226
192,Antissa,25.98,39.233
94,Neai Kydoniai,26.44,39.226
66,Kalloni,26.207,39.233
230,Agia Paraskevi,26.27,39.248
39,Skalochorion,26.075,39.26
66,Filia,26.14,39.263
66,Napi,26.286,39.27
112,Skoutaros,26.133,39.292
39,Lafionas,26.179,39.303
55,Stypsi,26.22,39.312
160,Mantamados,26.336,39.311
24,Ypsilometopon,26.245,39.314
66,Kolympia,28.143,36.258
28,Charakion,28.095,36.167
55,Pefkoi,28.058,36.066
46,Kiotari,27.955,36.047
94,Mandrikon,27.857,36.289
46,Skala Eresou,25.932,39.135
160,Lagkada,26.123,38.478
230,Volissos,25.926,38.484
66,Pityous,26.057,38.489
79,Parparia,25.885,38.521
112,Oinoussai,26.222,38.515
46,Kardamyla,26.092,38.529
822,Psara,25.563,38.54
160,Kourounia,25.913,38.567
94,Amades,26.036,38.573
24,Vikion,26.015,38.58
94,Skopelos,26.448,39.029
94,Vrisa,26.201,39.04
79,Kampos,26.557,37.353
192,Arkoi,26.735,37.383
24,Alinda,26.833,37.163
94,Kampos,25.992,39.273
24,Anaxos Skoutarou,26.147,39.318
46,Vafeios,26.222,39.341
46,Vatera,26.199,39.02
46,Nyfida,26.14,39.088
46,Skala,26.17,39.102
112,Skala Sykamineas,26.303,39.373
33,Pyrgion,26.518,39.096
55,Vareia,26.577,39.079
55,Agia Paraskevi,26.595,39.055
55,Agrilia Kratigou,26.613,39.03
24,Skala Loutron,26.531,39.046
24,Marmaro,26.514,39.031
134,Chrysomilea,26.511,37.63
79,Vrakades,26.03,37.574
28,Profitis Ilias,26.078,37.589
46,Gialiskarion,26.104,37.63
28,Avlakion,26.138,37.635
66,Akamatra,26.169,37.607
28,Therma,26.304,37.624
66,Xylosyrtis,26.253,37.593
46,Fanarion,26.348,37.674
28,Pappados,26.457,39.04
39,Perama,26.506,39.043
94,Ampelikon,26.313,39.058
66,Palaiokipos,26.45,39.056
112,Loutra,26.544,39.057
24,Taxiarchai,26.571,39.069
94,Polichnitos,26.181,39.079
160,Agiasos,26.373,39.083
55,Kato Tritos,26.433,39.087
39,Asomatos,26.389,39.101
28,Drymon,26.824,37.142
39,Lakkion,26.852,37.133
79,Xirokampos,26.87,37.111
39,Argos,26.944,36.958
79,Vathys,27.021,36.976
33,Vothynoi,26.966,36.94
230,Emporeios,26.93,37.047
112,Irakleia,25.456,36.837
1419,Kos,27.288,36.893
230,Koufonision,25.601,36.933
571,Apollonia,24.723,36.972
28,Artemon,24.724,36.983
160,Kalymnos (Pothaia),26.982,36.952
134,Antiparos,25.082,37.04
33,Ano Sagkrion,25.434,37.041
134,Marpissa,25.249,37.044
160,Filotion,25.498,37.05
46,Lefkai,25.209,37.057
24,Chalkeion,25.49,37.066
66,Agios Arsenios,25.391,37.062
28,Glinadon,25.402,37.071
66,Aperathos,25.519,37.071
66,Kostos,25.219,37.077
276,Paros,25.148,37.083
33,Moni,25.498,37.082
79,Melanes,25.438,37.091
39,Kinidaros,25.479,37.101
685,Naxos,25.376,37.106
571,Donousa,25.794,37.101
55,Galini,25.426,37.118
192,Koronos,25.536,37.119
134,Naousa,25.239,37.123
28,Serifos,24.507,37.155
66,Koronis,25.529,37.146
24,Mesi,25.553,37.148
276,Leipsoi,26.769,37.295
397,Skala,26.544,37.323
33,Dryopis,24.431,37.383
46,Poseidonia,24.891,37.389
24,Chrousa,24.924,37.398
28,Foinix,24.886,37.402
55,Vari,24.949,37.399
476,Kythnos,24.431,37.413
46,Kato Zalongon,20.531,39.615
28,Vasilikos,20.348,39.455
46,Machairadon,20.81,37.758
66,Ampelokipoi,20.872,37.758
39,Lagkadakia,20.804,37.774
134,Agios Leon,20.718,37.77
476,Zakynthos,20.896,37.783
24,Agia Marina,20.774,37.791
46,Vanaton,20.851,37.793
66,Skoulikadon,20.781,37.8
46,Exo Chora,20.685,37.801
24,Tragakion,20.832,37.813
66,Planos,20.864,37.817
28,Pigadakia,20.764,37.817
94,Mariai,20.676,37.819
112,Katastarion,20.757,37.83
39,Alikanas,20.789,37.843
66,Anafonitria,20.651,37.847
28,Orthoniai,20.693,37.851
276,Volimai,20.658,37.875
24,Mavrata,20.726,38.073
24,Valerianos,20.717,38.083
55,Pastra,20.75,38.095
33,Spartia,20.562,38.111
79,Agia Eirini,20.752,38.122
46,Kouvelas,21.877,37.375
39,Elaia,21.691,37.375
55,Platania,21.825,37.383
331,Astros,22.722,37.404
55,Thermisia,23.324,37.412
230,Giannitsochorion,21.689,37.393
331,Megalopolis,22.135,37.401
66,Koilas,23.126,37.414
46,Paralion Astros,22.766,37.417
94,Asea,22.261,37.421
66,Fournoi,23.178,37.431
112,Iliokastron,23.266,37.444
39,Petralona,21.832,37.438
55,Neochorion,21.658,37.434
55,Lepreon,21.723,37.436
134,Nea Figaleia,21.774,37.442
79,Agios Sostis,21.955,37.443
112,Elaiochorion,22.567,37.455
192,Didyma,23.173,37.464
33,Linistaina,21.858,37.447
28,Pallantion,22.36,37.459
66,Zoni,22.12,37.462
66,Kakovatos,21.644,37.457
55,Makri,22.325,37.472
46,Parthenion,22.516,37.474
94,Thanas,22.368,37.473
230,Iria,23.012,37.485
28,Kalidona,21.703,37.469
94,Xiropigadon,22.725,37.485
94,Karitaina,22.041,37.485
28,Schinoi,21.677,37.481
134,Andritsaina,21.905,37.484
28,Stenon,22.463,37.497
24,Agiorgitika,22.485,37.497
79,Lykochia,22.165,37.495
230,Zacharo,21.649,37.484
39,Myronia,21.819,37.491
24,Rodina,21.717,37.491
39,Fanarion,21.866,37.494
28,Neochorion,22.454,37.509
33,Arini,21.699,37.5
66,Koliakion,23.159,37.593
94,Adamion,23.073,37.573
66,Kantia,22.961,37.53
33,Achladitsa,23.282,37.405
79,Agioi Anargyroi,23.246,37.353
39,Petrothalassa (Flampoura),23.195,37.344
66,Kosta,23.163,37.297
24,Loukaition,23.236,37.457
66,Kokla,22.676,37.614
55,Akova,22.687,37.645
24,Panorama,22.687,37.682
66,Agrilitsa,22.598,37.623
39,Chouni,22.654,37.633
33,Ellinikon,22.666,37.586
66,Myloi,22.717,37.553
28,Kalamakion,22.694,37.534
33,Stathaiika,22.676,37.665
33,Karterion,22.407,37.845
24,Dourvationa,22.739,38.001
33,Mentourgianika,22.439,38.116
39,Kalentzion,22.771,37.877
55,Alamannos,22.91,37.845
28,Archaio Limani,22.898,37.931
28,Kato Examilia,22.94,37.908
39,Kechriai,22.984,37.885
134,Loutra Oraias Elenis,22.997,37.867
66,Ryton,22.992,37.818
28,Polynerion,20.327,39.404
24,Potamia,20.587,39.32
24,Agios Donatos,20.509,39.475
24,Kaminion,20.548,39.416
46,Agora,20.566,39.38
24,Mesovounion,20.396,39.428
55,Agios Georgios,20.349,39.529
24,Kato Koritiani,20.387,39.516
55,Neraida,20.438,39.526
46,Antirrion,21.763,38.331
134,Erateini,22.229,38.36
55,Kato Vasiliki,21.625,38.352
55,Agioi Pantes,22.295,38.368
33,Tolofon,22.195,38.368
79,Evinochorion,21.537,38.36
160,Galaxidion,22.384,38.377
230,Mesolongion,21.431,38.369
55,Glyfada,22.076,38.381
55,Gavrolimni,21.63,38.383
79,Marathias,22.015,38.395
46,Agios Thomas,21.472,38.387
276,Nafpaktos,21.831,38.394
94,Agios Georgios,21.542,38.395
66,Penteoria,22.316,38.411
24,Monastirakion,21.943,38.407
94,Amygdalia,22.223,38.417
66,Trikorfon,21.64,38.41
24,Kastrakion,21.895,38.418
55,Svoronata,20.522,38.116
66,Vlachata,20.624,38.123
192,Poros,20.774,38.151
66,Digaleton,20.694,38.17
66,Valsamata,20.585,38.174
39,Soullaroi,20.416,38.186
55,Faraklata,20.523,38.201
46,Lixourion,20.438,38.202
46,Chavdata,20.386,38.204
66,Grizata,20.641,38.222
112,Dilinata,20.515,38.225
46,Kaminarata,20.379,38.223
46,Farsa,20.476,38.229
39,Poulata,20.606,38.236
24,Damoulianata,20.376,38.237
112,Sami,20.646,38.249
94,Agia Thekli,20.385,38.246
28,Livadion,20.426,38.245
112,Kardakata,20.468,38.277
192,Agia Effimia,20.597,38.302
66,Agkon,20.485,38.301
33,Makriotika,20.557,38.309
24,Zola,20.47,38.311
94,Atheras,20.417,38.318
55,Divarata,20.55,38.331
39,Perachorion,20.716,38.348
476,Ithaki,20.718,38.364
94,Asos,20.54,38.378
112,Vasilikiades,20.562,38.411
192,Stavros,20.647,38.447
685,Tripolis,22.372,37.51
134,Kiverion,22.731,37.523
46,Vreston,21.8,37.509
66,Xirochorion,21.654,37.509
94,Achladokampos,22.581,37.522
46,Agios Konstantinos,22.398,37.526
94,Ellinikon,22.073,37.52
28,Milea,21.731,37.516
66,Kato Amygdalies,21.845,37.519
66,Drepanon,22.892,37.541
55,Matesion,21.926,37.53
39,Asini,22.863,37.546
24,Livadakion,21.814,37.53
33,Merkovounion,22.375,37.542
33,Artemida,21.705,37.531
39,Alifeira,21.862,37.539
112,Chrysovitsion,22.211,37.546
112,Kato Samikon,21.596,37.545
33,Lefkakia,22.86,37.559
55,Platiana,21.756,37.544
79,Skopi,22.392,37.558
46,Smerna,21.677,37.546
55,Tracheia,23.151,37.566
79,Stemnitsa,22.081,37.555
24,Skafidakion,22.687,37.566
79,Kallithea,21.82,37.551
160,Nafplion,22.801,37.565
112,Loukas,22.46,37.566
28,Aria,22.831,37.572
46,Graikas,21.697,37.562
55,Pyrgiotika,22.878,37.579
39,Trypiti,21.784,37.571
46,Vrina,21.637,37.57
55,Nea Kios,22.744,37.584
55,Samikon,21.586,37.573
112,Diasella,21.735,37.576
39,Kakouraiika,21.923,37.584
39,Mapsos,22.86,37.842
79,Spathovounion,22.801,37.849
33,Kavos,23.011,37.907
24,Vlasaiika,23.032,37.837
55,Pefkali,23.117,37.831
46,Glyfa,21.144,37.842
55,Agioi Theodoroi,21.32,37.944
28,Ano Kourtesion,21.329,37.966
39,Marathea,21.31,37.796
33,Agios Ioannis,21.36,37.826
39,Panagia,21.363,37.78
28,Palouki,21.306,37.756
28,Kouroutas,21.297,37.768
33,Analipsis,21.436,37.809
28,Aetorrachi,21.468,37.926
28,Thanasoulaiika,21.342,38.013
66,Borsion,21.439,37.927
28,Oraia,21.493,37.857
66,Koryfi,21.434,37.76
33,Prodromos,21.61,37.864
55,Nea Persaina,21.69,37.758
55,Kalyvia Astra,21.865,37.894
33,Chanakia,21.369,37.726
24,Keramidia,21.404,37.706
24,Anthopyrgos,21.439,37.687
39,Kato Afroxylia,21.782,38.416
28,Dafni,21.864,38.422
55,Kato Retsina,21.43,38.43
46,Vounichora,22.306,38.449
33,Pitsinaiika,21.743,38.435
79,Milea,22.147,38.449
66,Trikorfon,21.908,38.448
46,Filothei,21.967,38.45
46,Tritaia,22.365,38.457
46,Mastron,21.278,38.437
94,Aitolikon,21.354,38.437
134,Malandrinon,22.238,38.456
33,Kampos,22.006,38.452
28,Chrisso,22.466,38.475
28,Ano Mousoura,21.406,38.457
79,Lesinion,21.231,38.454
94,Delfoi,22.494,38.48
79,Agia Efthymia,22.358,38.481
33,Sernikakion,22.406,38.488
134,Potidaneia,22.056,38.487
79,Pentapolis,22.209,38.491
66,Kato Makrinou,21.628,38.486
66,Palaiopyrgos,21.842,38.5
39,Analipsis,21.707,38.493
55,Ano Kerasovon,21.444,38.489
94,Pentalofon,21.246,38.485
33,Agios Ilias,21.288,38.488
39,Agios Georgios,22.385,38.511
79,Chrysovergion,21.352,38.501
39,Kapsorachi,21.612,38.505
160,Sitaralona,21.661,38.511
112,Katafygion,21.912,38.517
822,Amfissa,22.379,38.527
134,Lidorikion,22.204,38.527
46,Kionion,20.691,38.447
33,Platreithias,20.644,38.461
66,Fiskardon,20.575,38.46
24,Antipata,20.549,38.465
192,Kastos,20.91,38.571
112,Kalamos,20.929,38.622
230,Vasiliki,20.609,38.627
39,Marantochorion,20.65,38.629
94,Poros,20.708,38.642
112,Katomerion,20.789,38.656
28,Fternon,20.686,38.656
39,Katochorion,20.693,38.667
66,Agios Petros,20.601,38.665
28,Syvros,20.647,38.671
66,Vlychon,20.697,38.683
39,Agios Ilias,20.647,38.69
331,Nydrion,20.71,38.707
33,Perigialion,20.723,38.72
46,Chortata,20.604,38.717
66,Egklouvi,20.647,38.73
55,Nikiana,20.718,38.765
33,Kalamitsion,20.604,38.757
94,Karya,20.649,38.759
33,Agios Nikitas,20.614,38.789
112,Lygia,20.721,38.787
24,Kariotai,20.714,38.799
46,Apolpaina,20.687,38.816
24,Tsoukalades,20.655,38.823
331,Lefkas,20.707,38.833
79,Lakka,20.136,39.235
24,Vitalades,20.022,39.411
46,Perivolion,20.015,39.421
94,Kavos,20.115,39.383
33,Gryllos,21.67,37.58
33,Kefalarion,22.702,37.596
79,Sekoulas,21.878,37.585
79,Metochion,22.946,37.606
24,Rachai,21.562,37.587
276,Dimitsana,22.041,37.595
112,Nea Tiryns,22.82,37.608
28,Kallikomon,21.586,37.589
39,Raftis,21.964,37.598
397,Lygourio,23.039,37.613
230,Krestena,21.621,37.592
33,Neon Roeinon,22.858,37.616
28,Neo Chorio,21.717,37.601
160,Nestani,22.468,37.613
39,Dalamanara,22.768,37.618
134,Kapsas,22.348,37.614
55,Arachova,21.988,37.611
66,Nea Skillountia,21.666,37.611
39,Makrisia,21.604,37.61
24,Laloukas,22.781,37.633
79,Aspra Spitia,21.776,37.615
39,Paloumpa,21.947,37.62
112,Archaia Epidavros,23.156,37.638
94,Alonistaina,22.222,37.626
397,Argos,22.729,37.635
66,Agia Triada,22.806,37.637
24,Frixa,21.703,37.621
28,Nea Kalyvakia,21.672,37.635
79,Karya,22.547,37.639
94,Epitalion,21.495,37.626
79,Simiades,22.336,37.647
55,Sarakinion,21.933,37.64
46,Pikernis,22.425,37.65
24,Ira,22.762,37.654
28,Livadakion,21.828,37.639
24,Kato Varvasaina,21.49,37.657
24,Kato Strefi,21.556,37.658
24,Krounoi,21.616,37.577
24,Agios Georgios,21.567,37.722
24,Krana,21.837,37.479
28,Panorama,21.645,37.472
28,Agios Nikolaos,21.654,37.496
24,Dimitra,21.925,37.785
55,Mouria,22.019,37.762
66,Milea,22.406,37.603
28,Terpsithea,21.636,37.231
55,Memi,21.698,37.276
24,Chochlasti,21.604,37.066
33,Agia Kyriaki,21.577,37.12
46,Agrilos,21.595,37.211
24,Dafni,21.909,37.018
24,Agios Konstantinos,21.994,37.019
66,Perivolakia,22.179,37.048
28,Palaiochorion,20.068,39.39
276,Gaios (Paxoi),20.186,39.197
28,Platanos,20.163,39.21
94,Antipaxos,20.224,39.152
94,Agios Nikolaos,20.705,37.907
33,Alonia,20.801,37.828
24,Psarou,20.817,37.835
46,Akrotiri,20.902,37.804
33,Laganas,20.865,37.724
33,Margaraiika,20.897,37.742
66,Limni Keriou,20.826,37.685
55,Theoktiston,22.127,37.797
