rs,name,lon,lat,r1
39,Argyroupolis,24.334,35.285,28
66,Rodovanion,23.782,35.288,28
46,Skalanion,25.188,35.284,33
39,Kato Kalesia,25.056,35.287,24
33,Epano Vatheia,25.241,35.285,20
331,Malia,25.464,35.283,134
33,Sellion,24.52,35.29,24
230,Anogeia,24.883,35.291,112
39,Goniai,24.927,35.293,28
24,Zoniana,24.83,35.294,20
94,Tylisos,25.019,35.297,28
55,Kalonyktis,24.393,35.302,20
55,Armenoi,24.461,35.304,28
28,Anopolis,25.257,35.303,20
79,Livadia,24.808,35.307,55
94,Elaia,25.232,35.304,24
33,Axos,24.842,35.309,20
33,Paralia Kourna,24.299,35.351,28
28,Chersonisos,25.371,35.308,20
39,Kallithea,25.173,35.314,20
46,Kourna,24.297,35.314,24
39,Gouvai,25.313,35.311,20
55,Astyrakion,24.947,35.315,20
46,Gonia,24.418,35.324,20
46,Limin Chersonisou,25.391,35.318,46
33,Agios Mamas,24.761,35.324,20
230,Kandanos,23.741,35.327,79
24,Vlychada,24.783,35.399,20
24,Exantis,24.748,35.402,20
79,Balion,24.782,35.412,33
24,Kampos Apladianon,24.819,35.349,20
24,Dafnedes,24.757,35.356,20
33,Kissou Kampos,24.554,35.187,20
28,Archontiki,24.337,35.315,20
28,Violi Charaki,24.44,35.36,24
66,Kali Sykea,24.381,35.238,28
24,Pale,24.469,35.239,20
24,Myrthianos Plakias,24.399,35.189,20
55,Varetada,21.286,38.869,39
28,Kampos,21.188,38.917,20
46,Boukka,21.142,38.927,20
46,Aktion,20.772,38.933,20
28,Agia Varvara,20.746,38.836,20
39,Pogonia,20.839,38.793,28
39,Agios Stefanos,21.205,38.724,20
55,Rivion,21.199,38.743,28
33,Kouvaras,21.224,38.695,24
46,Manina Vlizianon,21.19,38.536,28
55,Triantaiika,21.382,38.655,20
66,Lefka,21.38,38.588,20
28,Platanos,21.323,38.61,20
28,Kefalovrysos,21.307,38.505,20
24,Kato Ellinika,21.401,38.484,20
28,Bouza,21.31,38.429,20
55,Kefalovryson,21.365,38.461,20
28,Chalikion,21.355,38.477,20
28,Magoula,21.265,38.394,20
55,Potamia,21.309,39.003,20
39,Achyra,21.031,38.78,24
94,Rentina,21.974,39.065,46
55,Aidonochorion,21.969,39.093,24
134,Loutropigi,22.046,39.118,55
66,Vathylakkos,21.952,39.13,28
55,Kato Ktimeni,22.119,39.134,33
66,Neraida,21.79,39.141,46
112,Molocha,21.871,39.153,46
24,Asimochorion,22.164,39.173,20
66,Thrapsimion,22.006,39.173,33
134,Leontarion,22.133,39.182,79
55,Karoplesion,21.758,39.174,24
39,Anavra,22.093,39.191,24
160,Apidea,21.938,39.199,24
28,Argyrion,21.417,39.192,20
94,Kedros,22.043,39.21,33
46,Paliourion,21.982,39.219,39
24,Loutron,22.017,39.221,20
24,Dafnospilia,21.947,39.228,24
66,Rachoula,21.874,39.239,28
66,Kastanea,21.797,39.238,24
39,Grammatikon,22.214,39.245,28
94,Vragkiana,21.434,39.24,55
66,Filia,22.054,39.255,24
33,Katafygion,21.83,39.251,20
39,Belokomiti,21.734,39.256,20
79,Kappadokikon,22.141,39.265,55
28,Mavrachades,22.073,39.267,20
24,Dasochorion,22.034,39.268,20
46,Marathos,21.434,39.262,20
24,Lamperon,21.78,39.271,20
39,Ampelikon,21.857,39.278,28
160,Neochorion,21.733,39.276,66
79,Myrofyllon,21.325,39.366,46
112,Mesochora,21.325,39.473,66
39,Kallirroi,21.293,39.628,33
24,Sarantaporon,21.835,39.158,24
33,Agios Athanasios,21.779,39.282,28
39,Rogkia,21.443,39.218,20
79,Palaiochorio,21.299,39.525,39
685,Kastrion,24.086,34.835,276
192,Antiskarion,24.879,34.959,39
55,Paranymfoi,25.129,34.974,28
46,Agios Kyrillos,24.912,34.979,20
39,Pigaidakia,24.85,34.985,24
66,Vasiliki,24.993,34.985,24
39,Achentrias,25.224,34.991,20
28,Staviai,25.033,35.004,24
66,Plora,24.935,35.007,20
66,Pyrgos,25.153,35.006,46
24,Vasilika Anogeia,24.968,35.008,20
66,Sternai,25.087,35.009,24
79,Pompia,24.867,35.01,33
28,Charakas,25.12,35.009,24
79,Vagionia,25,35.014,33
79,Pitsidia,24.781,35.017,33
24,Dionysion,25.06,35.014,20
55,Mesochorion,25.209,35.015,33
24,Sivas,24.807,35.019,20
24,Kouses,24.831,35.019,20
24,Platanos,24.924,35.024,20
55,Sykologos,25.512,35.02,33
33,Petrokefalion,24.834,35.031,24
39,Kamilarion,24.79,35.033,20
55,Chondros,25.38,35.03,24
39,Choustouliana,24.936,35.033,24
46,Demation,25.291,35.033,20
55,Praitoria,25.147,35.038,24
28,Amiras,25.447,35.041,24
230,Asimion,25.094,35.045,79
476,Moirai,24.876,35.051,230
46,Stoloi,25.048,35.052,33
46,Kato Symi,25.49,35.047,20
94,Skinias,25.305,35.053,55
134,Ano Viannos,25.411,35.053,112
94,Agioi Deka,24.962,35.059,46
28,Gkagkalai,25.011,35.06,24
46,Kalyvia,25.228,35.059,20
33,Sokaras,25.109,35.06,20
39,Voroi,24.812,35.068,28
94,Tympakion,24.767,35.072,79
33,Ligortynos,25.177,35.074,20
55,Galia,24.87,35.077,20
46,Garipa,25.246,35.078,20
66,Karavados,25.338,35.081,28
112,Tefelion,25.163,35.093,46
55,Moronion,24.917,35.094,28
55,Agia Galini,24.688,35.096,55
79,Inion,25.282,35.094,28
46,Emparos,25.385,35.095,28
33,Kasanos,25.313,35.104,20
46,Laranion,25.068,35.107,28
66,Skourvoula,24.843,35.107,20
79,Klima,24.76,35.11,28
46,Ano Moulia,24.996,35.114,20
28,Charakion,25.136,35.112,20
24,Lefkochorion,25.249,35.113,20
28,Saktouria,24.615,35.121,24
55,Partira,25.226,35.118,28
55,Panagia,25.342,35.119,46
192,Melampes,24.653,35.127,28
39,Magarikarion,24.825,35.128,20
160,Zaros,24.903,35.13,66
66,Metaxochorion,25.142,35.13,28
46,Gergeri,24.948,35.132,28
134,Episkopi,24.336,35.329,39
66,Aimonas,24.867,35.329,20
24,Eleftherna,24.67,35.329,20
66,Roussospition,24.496,35.335,24
33,Margaritai,24.686,35.339,20
66,Kyrianna,24.602,35.343,28
66,Emprosneros,24.188,35.345,28
66,Prines,24.425,35.345,20
66,Garazon,24.789,35.345,28
33,Choumerion,24.732,35.346,24
24,Maroulas,24.55,35.347,20
55,Marathos,24.973,35.347,28
24,Geranion,24.4,35.354,20
46,Damasta,24.923,35.353,28
24,Adele,24.56,35.358,20
28,Vafes,24.174,35.361,20
39,Alfa,24.67,35.358,20
39,Erfoi,24.635,35.359,20
134,Elos,23.637,35.361,66
24,Georgioupolis,24.26,35.363,24
66,Aloides,24.875,35.365,24
24,Agia,24.767,35.366,20
476,Rethymnon,24.476,35.369,331
134,Rodia,25.022,35.366,33
192,Perama,24.703,35.371,134
28,Prases,23.85,35.376,24
134,Vryses,24.201,35.378,55
24,Damania,25.116,35.134,20
112,Agia Varvara,25.001,35.136,66
39,Nipiditos,25.332,35.14,20
33,Agios Thomas,25.036,35.148,20
55,Vorizia,24.847,35.15,39
28,Panorama,25.196,35.147,20
94,Platanos,24.764,35.152,39
28,Kamarai,24.819,35.153,20
276,Arkalochorion,25.265,35.149,134
24,Apodoulou,24.736,35.157,20
28,Gerakion,25.352,35.152,20
28,Patsideros,25.228,35.156,24
55,Kerames,24.518,35.161,39
46,Prinias,24.993,35.159,20
79,Akoumia,24.582,35.165,39
33,Nithavris,24.734,35.172,24
24,Lefkogeia,24.444,35.178,20
28,Alagnion,25.211,35.174,20
66,Mathia,25.365,35.174,20
46,Ano Meros,24.662,35.187,28
39,Kouroutai,24.738,35.189,20
24,Asomatos,24.454,35.192,20
55,Thrapsanon,25.281,35.188,33
28,Kyparissos,25.077,35.192,20
46,Choudetsion,25.179,35.193,20
39,Mariou,24.417,35.2,24
24,Voni,25.247,35.195,24
33,Kastamonitsa,25.378,35.193,28
28,Veneraton,25.04,35.197,20
33,Nipos,24.169,35.38,20
33,Melidonion,24.737,35.379,20
33,Sempronas,23.814,35.38,28
28,Kalamitsion Amygdalion,24.231,35.382,20
66,Fres,24.145,35.381,33
66,Fodele,24.958,35.383,33
66,Vlatos,23.66,35.39,24
24,Melidonion,24.115,35.388,20
24,Lakkoi,23.939,35.395,20
230,Sisai,24.884,35.395,79
160,Palaia Roumata,23.778,35.401,55
28,Litsarda,24.222,35.404,20
46,Meskla,23.956,35.403,24
28,Therison,23.984,35.404,20
28,Kaina,24.164,35.406,20
24,Roumeli,24.7,35.404,20
39,Chora Sfakion,24.137,35.202,28
112,Sellia,24.382,35.204,55
39,Patsianos,24.232,35.203,20
24,Petrochorion,24.684,35.205,20
33,Zoforoi,25.271,35.206,20
46,Kato Asitai,24.998,35.203,20
79,Profitis Ilias,25.1,35.208,33
230,Fourfouras,24.713,35.212,79
276,Anopolis,24.094,35.217,112
46,Gerakarion,24.607,35.213,20
112,Kastellion,25.339,35.208,55
46,Dafnes,25.05,35.215,33
160,Spilion,24.532,35.22,79
39,Askoi,25.386,35.218,20
33,Apostoloi,25.298,35.219,20
33,Agiai Paraskiai,25.205,35.211,33
66,Koxare,24.468,35.226,28
24,Monastirakion,24.667,35.228,20
66,Vamos,24.197,35.409,24
24,Skepasti,24.722,35.413,20
94,Panormos,24.691,35.417,33
39,Neon Chorion,24.142,35.422,28
39,Gavalochorion,24.212,35.425,20
685,Palaiochora,23.681,35.231,192
28,Platania,24.704,35.23,20
112,Krouson,24.982,35.229,79
79,Meronas,24.629,35.233,55
28,Agios Myron,25.029,35.232,20
55,Goniai,25.443,35.23,24
24,Agkouseliana,24.436,35.24,24
39,Kato Rodakinon,24.317,35.199,39
28,Gournai,25.093,35.297,20
28,Knosos,25.159,35.299,20
28,Marathitis,25.142,35.288,20
28,Foinikia,25.106,35.282,24
24,Agios Vlasios,25.132,35.255,20
39,Avli,25.308,35.121,20
55,Tsoutsouros,25.288,34.986,39
24,Roussochoria,25.298,35.158,20
24,Amourgellai,25.181,35.132,24
33,Patsides,25.182,35.269,20
33,Plakiotissa,25.153,35.063,20
112,Arvi,25.454,34.992,46
55,Syndonia,25.498,34.985,28
79,Kastri,25.374,35,39
46,Skines,23.913,35.432,20
24,Fournes,23.941,35.438,20
66,Kalathenai,23.671,35.435,20
39,Deliana,23.739,35.449,24
39,Plaka,24.21,35.453,20
160,Kalyvai,24.171,35.455,66
134,Alikianos,23.912,35.454,46
28,Voulgaro,23.699,35.453,20
39,Varypetron,23.962,35.466,24
66,Platanos,23.601,35.468,33
24,Koufos,23.9,35.466,20
94,Voukoliai,23.8,35.467,46
39,Aptera,24.133,35.463,24
33,Manoliopoulon,23.856,35.47,24
46,Potamida,23.695,35.468,20
46,Agia,23.931,35.473,20
66,Mournies,24.012,35.482,24
28,Kaloudiana,23.688,35.486,24
46,Souda,24.072,35.488,33
55,Vrysai,23.89,35.492,20
331,Kissamos,23.654,35.496,192
24,Agios Georgios,23.612,35.497,20
24,Nochia,23.755,35.508,20
28,Agioi Theodoroi,25.093,35.32,20
33,Kavrochorion,25.046,35.309,20
79,Agia Pelagia,25.017,35.408,33
24,Ammoudi,25.032,35.394,20
24,Pantanassa,25.042,35.354,20
24,Loukia,25.019,34.99,20
39,Valis,25.028,35.074,20
39,Lentas,24.924,34.932,33
94,Kato Gouvai,25.314,35.33,55
24,Chanion tou Kokkini,25.256,35.33,24
39,Karteros,25.2,35.329,24
66,Kalon Chorion,25.341,35.278,24
33,Makrai,24.932,35.109,20
28,Atsipades,25.076,35.071,20
39,Kastellion,25.105,35.084,20
24,Inia,25.049,35.078,20
24,Krasion,25.469,35.234,20
33,Stalis,25.43,35.293,24
79,Kaloi Limenes,24.801,34.932,46
39,Polemarchion,23.816,35.51,20
46,Sternai,24.146,35.512,39
55,Spilia,23.778,35.515,24
66,Agia Marina,23.927,35.515,33
39,Pitharion,24.087,35.517,20
33,Tavronitis,23.82,35.528,28
66,Kounoupidiana,24.076,35.536,28
28,Mouzouras,24.153,35.539,20
33,Ravdoucha,23.734,35.541,20
134,Kolymvari,23.779,35.544,79
55,Chordakion,24.164,35.551,28
28,Rodopos,23.753,35.562,20
24,Afrata,23.766,35.571,20
24,Trachilos,23.631,35.51,20
46,Astrikas,23.749,35.476,28
39,Karave,24.118,34.849,20
94,Sfinarion,23.568,35.418,46
94,Moni Chrysoskalitissis,23.536,35.308,55
46,Gialos,23.638,35.238,28
66,Prines,23.819,35.324,55
28,Palaion Geranion,23.874,35.51,28
33,Daratsos,23.975,35.5,28
39,Lygides,23.969,35.484,20
24,Kampos,25.109,35.256,20
24,Malades,25.107,35.27,20
28,Tsagkarakion,25.101,35.23,20
24,Kalos,25.074,35.164,20
55,Karkadiotissa,25.123,35.161,20
24,Roukanion,25.095,35.169,20
134,Epano Archanai,25.16,35.235,66
28,Myrtia,25.211,35.235,20
46,Karinai,24.526,35.245,20
66,Patsos,24.573,35.247,28
28,Agios Syllas,25.115,35.242,24
46,Vistagi,24.677,35.247,28
66,Sougia,23.811,35.25,55
28,Sgourokefalion,25.236,35.244,20
24,Pentamodion,25.027,35.248,20
79,Smarion,25.306,35.249,28
33,Myriokefala,24.3,35.254,20
39,Apostoloi,24.628,35.255,20
28,Kato Archanai,25.171,35.252,20
55,Stavrakia,25.062,35.254,33
24,Pantanassa,24.595,35.257,20
28,Potamiai,25.387,35.255,24
46,Episkopi,25.239,35.257,39
24,Korfai,25.007,35.26,20
28,Galifa,25.281,35.262,20
55,Voleones,24.588,35.27,20
55,Mochos,25.423,35.264,24
39,Koumoi,24.441,35.274,28
134,Asi Gonia,24.284,35.274,46
66,Vasileiai,25.138,35.271,24
24,Mountros,24.368,35.277,24
24,Kathiana,24.117,35.534,20
46,Stavros,24.091,35.585,20
55,Chorafakia,24.092,35.562,24
33,Tsivaras,24.178,35.436,20
28,Drapanos,24.232,35.436,20
39,Mourion,24.284,35.334,20
66,Katochorion,24.062,35.44,24
33,Fones,24.228,35.356,20
39,Loutron,24.078,35.2,20
112,Kares,24.186,35.297,39
39,Vouvas,24.189,35.212,33
94,Fragkokastello,24.233,35.182,66
24,Gallos,24.452,35.347,20
24,Xiron Chorion,24.513,35.351,20
33,Somatas,24.458,35.325,20
39,Ampelakion,24.482,35.28,20
33,Adelianos Kampos,24.54,35.372,28
79,Sfakaki,24.584,35.381,66
55,Petrochorion,24.842,41.086,20
24,Neochorion,24.634,41.221,24
46,Sydini,25.023,41.074,20
94,Echinos,24.972,41.274,39
39,Kyknos,24.871,41.259,24
46,Revma,24.796,41.29,24
46,Metamorfosis,21.678,40.25,33
24,Karyditsa,21.798,40.253,20
276,Velventos,22.069,40.257,192
94,Avgerinos,21.164,40.24,39
28,Dionysiou,23.269,40.273,20
55,Vathylakkos,21.914,40.258,33
39,Moschochorion,22.397,40.266,20
39,Svoronos,22.465,40.269,28
822,Katerini,22.511,40.269,276
66,Krokos,21.817,40.262,28
24,Peristasis,22.541,40.274,20
55,Kallithea,22.578,40.271,33
39,Vria,22.323,40.274,20
55,Portaria,23.296,40.285,39
192,Siatista,21.551,40.261,134
28,Roditis,21.939,40.268,20
39,Olynthos,23.343,40.292,28
112,Tsotylion,21.324,40.261,46
28,Mikrokastron,21.503,40.267,20
28,Lefkovrysi,21.78,40.271,24
134,Ormylia,23.544,40.293,79
33,Aronas,22.433,40.29,20
94,Ritini,22.284,40.289,66
55,Lagorrachi,22.351,40.295,28
66,Nea Triglia,23.209,40.306,55
94,Lefkara,21.971,40.292,20
55,Imera,22.04,40.295,28
66,Petrana,21.866,40.291,28
33,Agios Theodoros,21.218,40.281,33
79,Chrysi,20.975,40.274,39
46,Vateron,21.736,40.292,20
46,Kalonerion,21.491,40.288,33
112,Nea Kallikrateia,23.063,40.313,94
685,Kozani,21.789,40.3,230
94,Xirolimni,21.66,40.295,46
112,Korinos,22.587,40.315,46
66,Neos Skopos,23.61,41.025,46
33,Filippoi,24.341,41.026,24
33,Livadochorion,23.362,41.025,20
66,Symvoli,24.041,41.029,24
24,Stathmos Lefkotheas,23.932,41.014,24
33,Lydia,24.282,41.03,20
276,Nea Zichni,23.829,41.03,134
33,Kastaneai,22.764,41.025,20
28,Stavrochorion,22.798,41.036,20
33,Mandilion,23.912,41.041,20
33,Makrychorion,24.614,41.041,20
94,Promachoi,22.007,41.026,39
66,Neos Xerias,24.707,41.024,33
55,Voreinon,22.081,41.028,28
55,Terpyllos,22.955,41.039,33
33,Nerofraktis,24.133,41.044,33
24,Agios Christoforos,23.774,41.045,20
24,Garefeion,22.046,41.025,20
46,Filoteia,22.151,41.035,20
94,Pefkodasos,22.577,41.039,33
33,Pentapolis,23.689,41.049,24
94,Elafochorion,24.551,41.052,33
46,Neochorion,23.579,41.052,24
66,Kalampakion,24.187,41.05,33
112,Anavryton,23.05,41.05,33
24,Mavrolefki,24.1,41.057,24
66,Chryson,23.65,41.06,28
28,Ano Kamila,23.423,41.057,20
66,Sfelinos,23.873,41.058,28
66,Fotolivos,24.047,41.06,55
24,Monovrysi,23.605,41.06,20
112,Alistrati,23.956,41.065,66
33,Dialekton,24.727,41.063,28
55,Provatas,23.39,41.068,28
46,Foustani,22.174,41.054,20
39,Anastasia,23.808,41.069,20
66,Mitrousion,23.461,41.071,24
55,Koskinas,22.012,39.494,28
46,Mouria,21.717,39.487,20
94,Kileler,22.639,39.504,39
39,Sotirion,22.705,39.506,20
66,Petrinon,22.158,39.497,33
66,Vounaina,22.245,39.501,24
24,Filyra,21.61,39.492,20
28,Lygaria,21.684,39.494,20
112,Megala Kalyvia,21.784,39.497,46
55,Neai Karyai,22.469,39.51,39
39,Metamorfosis,22.053,39.507,24
33,Servota,21.908,39.504,20
28,Niki,22.684,39.516,20
55,Elati,21.539,39.501,33
55,Pialeia,21.595,39.505,33
39,Glinos,21.864,39.512,20
33,Krannon,22.319,39.518,28
39,Droseron,21.74,39.511,20
55,Pigi,21.701,39.512,28
112,Vlochos,22.093,39.52,39
66,Pedinon,21.953,39.517,28
79,Agioi Anargyroi,22.366,39.525,46
39,Agia Kyriaki,21.803,39.516,20
134,Fiki,21.656,39.517,46
55,Mavrovounion,22.269,39.53,24
46,Nea Lefki,22.497,39.536,24
39,Marathea,21.996,39.531,24
24,Nomi,21.935,39.529,20
24,Longos,21.837,39.529,20
46,Patoulia,21.864,39.536,20
33,Parapotamos,21.698,39.533,20
134,Neraidochori,21.439,39.529,55
79,Loutron,22.209,39.544,33
28,Xyloparoikon,21.582,39.534,20
46,Melissa,22.646,39.555,24
28,Faneromeni,21.891,39.546,20
33,Pertoulion,21.466,39.541,20
134,Nikaia,22.465,39.562,55
33,Isaia,24.833,41.224,20
276,Dimarion,24.844,41.352,39
79,Pachni,24.894,41.305,28
94,Ano Thermai,24.968,41.358,28
55,Medousa,25.051,41.337,55
39,Temenos,25.038,41.226,20
94,Alma,24.861,41.215,33
192,Kentavros,24.952,41.229,66
24,Aiora,24.871,41.201,20
66,Sirokon,24.891,41.18,20
39,Glafki,24.929,41.267,24
39,Avra,25.683,40.925,20
24,Skala Fourkas,23.384,39.997,20
24,Mikro Evydrio,22.338,39.346,24
24,Kastri Loutro,22.679,39.967,20
28,Agios Ioannis,23.582,41.1,20
33,Lakkia,23.109,40.515,24
28,Drakontio,23.158,40.737,20
55,Vrasna,23.652,40.704,28
33,Neokastro,22.936,40.708,20
33,Egnatia,22.917,40.694,20
33,Agia Sofia,22.862,40.665,20
33,Limani Karra,23.795,40.077,20
66,Stefani,23.547,38.176,28
66,Pyli,23.497,38.214,33
55,Palaion Keramidion,22.467,40.313,33
112,Ouranopolis,23.981,40.326,39
94,Metagkitsion,23.655,40.324,55
46,Kypseli,21.029,40.289,33
55,Nea Tenedos,23.241,40.328,20
94,Polykastanon,21.137,40.294,39
28,Alonakia,21.67,40.308,20
55,Nea Silata,23.133,40.329,39
39,Ammouliani,23.921,40.332,39
24,Elatochorion,22.267,40.32,24
39,Pyrgadikia,23.723,40.336,39
24,Kato Agios Ioannis,22.531,40.323,24
24,Elaiochoria,23.172,40.337,24
79,Moschopotamos,22.309,40.326,33
33,Oinoi,21.914,40.321,24
112,Galatini,21.553,40.318,46
134,Neapolis,21.385,40.314,94
28,Agios Pavlos,23.061,40.341,24
39,Nea Trapezous,22.526,40.335,20
33,Aliakmon,21.428,40.319,28
112,Simantra,23.311,40.345,55
28,Nea Nikopolis,21.741,40.327,28
33,Ptelea,21.879,40.331,28
39,Daskion,22.172,40.337,24
46,Chorigos,21.33,40.32,24
28,Lygeri,21.712,40.329,20
33,Koila,21.79,40.33,20
79,Anthotopos,21.671,40.335,24
39,Exochi,22.429,40.349,20
55,Katalonia,22.367,40.351,20
230,Rizomata,22.211,40.35,55
39,Sevasti,22.544,40.359,20
39,Asproula,21.286,40.336,24
39,Eratyra,21.511,40.342,28
112,Damaskinia,21.18,40.336,66
46,Petralona,23.16,40.369,24
66,Vrastama,23.536,40.371,39
46,Koilas,21.928,40.358,24
112,Agios Athanasios,24.246,41.074,46
134,Efkarpia,22.908,41.073,66
39,Kokkinia,23.008,41.073,28
66,Mikron Dasos,22.572,41.07,24
33,Agiochorion,23.955,41.082,20
55,Ftelia,24.191,41.083,24
24,Emmanouil Pappas,23.71,41.086,20
39,Vamvakia,23.343,41.083,20
28,Trias,23.254,41.085,20
46,Zevgolation,23.283,41.085,20
55,Agriani,23.829,41.09,33
79,Plagia,22.497,41.08,33
39,Pontokerasea,23.129,41.089,39
1183,Serrai,23.55,41.09,397
66,Skopia,23.897,41.09,24
33,Doxaton,24.23,41.093,20
94,Neon Soulion,23.644,41.094,55
192,Archangelos,22.28,41.082,66
160,Cherso,22.781,41.09,66
94,Platamon,24.533,41.097,55
66,Kyria,24.289,41.099,24
46,Kala Dendra,23.426,41.101,24
33,Megali Sterna,22.725,41.09,20
55,Lefkon,23.496,41.099,33
24,Agion Pnevma,23.681,41.101,20
24,Mikrochorion,24.176,41.102,20
66,Skra,22.383,41.095,66
112,Kalos Agros,24.085,41.106,39
134,Anagennisis,23.335,41.108,20
66,Gerakarion,22.922,41.104,28
55,Plagia,22.845,41.105,39
46,Sitagroi,24.028,41.111,33
46,Fyska,22.994,41.11,24
66,Valtinon,21.659,39.549,24
94,Melia,22.607,39.567,33
66,Keramidion,22.083,39.559,24
66,Chalki,22.539,39.569,46
571,Trikala,21.768,39.556,397
46,Gorgogyrion,21.588,39.548,33
112,Keramidion,22.91,39.572,66
112,Kalamakion,22.746,39.571,66
39,Klokotos,22.008,39.565,28
28,Petroporos,21.929,39.56,24
66,Megalochorion,21.844,39.56,46
28,Elafos,22.783,39.579,24
134,Koilada,22.304,39.573,39
33,Prodromos,21.59,39.566,20
28,Eleftherai,22.338,39.577,20
94,Desi,21.368,39.561,39
46,Taxiarchai,21.892,39.576,28
24,Genesion,21.585,39.579,20
39,Kato Amygdali,22.712,39.596,24
46,Petroton,21.963,39.585,20
33,Chrysavgi,21.852,39.585,20
46,Kefalovryson,21.693,39.581,46
66,Pineias,22.175,39.591,33
46,Krinitsa,21.795,39.588,20
79,Farkadon,22.068,39.592,55
24,Mega Kefalovryson,21.729,39.589,20
66,Sklithron,22.874,39.609,28
28,Dialekton,21.651,39.596,20
33,Rachoula,22.295,39.608,24
24,Panagitsa,22.052,39.605,20
28,Glafki,22.575,39.611,24
46,Zarkos,22.124,39.609,33
192,Oichalia,21.98,39.607,94
94,Palaiopyrgos,21.815,39.607,33
55,Namata,22.624,39.623,28
55,Terpsithea,22.351,39.62,39
112,Platykampos,22.536,39.621,39
134,Skourta,23.552,38.214,55
79,Dafni,23.417,38.241,39
66,Agios Thomas,23.588,38.277,33
33,Loutoufion,23.27,38.277,20
46,Neochorakion,23.389,38.295,33
94,Asopia,23.501,38.299,39
55,Ampelochorion,23.266,38.301,20
46,Kallithea,23.443,38.309,39
55,Oinofyta,23.637,38.311,39
331,Thivai,23.318,38.323,160
46,Tanagra,23.537,38.328,24
160,Schimatarion,23.579,38.346,79
112,Arma,23.486,38.351,55
46,Eleon,23.443,38.363,28
79,Paralia Avlidos,23.629,38.382,33
66,Ypaton,23.393,38.388,28
39,Vathy,23.604,38.407,20
94,Mourikion,23.356,38.424,55
134,Loukisia,23.448,38.479,66
55,Drosia,23.548,38.483,33
55,Plaka Dilesi,23.664,38.346,28
112,Ritsona,23.523,38.411,46
33,Oinoi,23.609,38.323,20
28,Anthidona,23.471,38.49,20
39,Platanakia,23.407,38.436,28
24,Vrilissia,23.83,38.039,20
39,Nea Ionia,23.754,38.043,28
24,Penteli,23.869,38.049,20
24,Melissia,23.839,38.055,20
33,Kamateron,23.713,38.056,20
39,Amarousion,23.805,38.054,28
55,Kapnochorion,21.977,40.359,20
331,Polygyros,23.441,40.378,134
39,Nea Roda,23.924,40.38,33
94,Trilofos,22.457,40.37,46
94,Kitros,22.578,40.375,33
28,Velanidia,21.331,40.351,20
55,Elafos,22.397,40.373,39
94,Lagka,21.081,40.349,39
112,Polymylos,22.069,40.371,94
66,Molocha,21.355,40.363,39
24,Koukkos,22.515,40.385,20
79,Pelekanos,21.466,40.367,33
66,Gomation,23.795,40.396,46
33,Lakkoma,23.054,40.391,28
276,Ierissos,23.876,40.397,192
66,Krini,23.159,40.397,46
66,Sfikia,22.209,40.386,28
55,Mavrodendrion,21.77,40.381,24
39,Alonia,22.543,40.393,20
46,Tetralofon,21.964,40.386,28
66,Sideras,21.695,40.384,39
28,Skalochorion,21.238,40.375,24
66,Ryakia,22.393,40.403,24
33,Platania,21.348,40.38,20
33,Mesimerion,23.009,40.413,20
46,Nostimon,21.204,40.388,28
94,Kastanea,22.122,40.407,33
46,Sfendamio,22.547,40.413,28
160,Makrygialos,22.606,40.415,66
112,Taxiarchis,23.522,40.425,46
66,Vavdos,23.323,40.426,33
66,Kato Scholarion,23.03,40.428,39
79,Palaiostani,22.464,40.417,39
160,Epanomi,22.929,40.427,66
55,Melanthion,21.129,40.396,39
192,Pontokomi,21.761,40.411,46
160,Polydendron,22.24,40.42,28
46,Agios Dimitrios,21.923,40.412,20
39,Agios Antonios,23.093,40.438,28
79,Asprokklisia,21.256,40.406,39
33,Namata,21.522,40.417,20
39,Mavrovatos,24.145,41.112,33
55,Cheimarros,23.257,41.112,28
94,Pontoirakleia,22.622,41.105,94
55,Evzonoi,22.558,41.105,24
24,Nea Tyroloi,23.377,41.113,20
33,Perikleia,22.265,41.101,20
79,Notia,22.209,41.102,33
55,Kallithea,23.918,41.117,24
39,Pigadia,24.305,41.118,20
33,Kato Christos,23.46,41.12,20
24,Argyroupolis,24.042,41.121,20
46,Skotoussa,23.381,41.129,46
66,Choristi,24.21,41.131,28
39,Eidomeni,22.512,41.122,28
39,Antigoneia,22.877,41.129,24
28,Karperi,23.306,41.133,20
46,Mikrokampos,24.004,41.135,20
46,Adriani,24.267,41.136,28
79,Elaion,23.582,41.141,33
39,Ammoudia,23.335,41.142,28
134,Vathi,22.971,41.143,66
39,Kato Theodorakion,23.007,41.145,20
46,Mylopotamos,24.073,41.149,33
331,Drama,24.147,41.15,192
55,Akritas,22.745,41.146,33
33,Agios Minas,23.025,39.317,20
24,Chorefton,23.121,39.454,20
46,Chania,23.062,39.396,20
55,Veneton,22.982,39.543,46
94,Stouppaioi,24.313,38.123,46
46,Kallianos,24.489,38.125,33
39,Styra,24.24,38.156,24
230,Nea Styra,24.208,38.181,112
39,Plataiai,23.266,38.212,33
79,Kaparellion,23.214,38.236,66
46,Mesochoria,24.211,38.251,33
33,Xironomi,23.075,38.25,24
33,Lefktra,23.181,38.254,24
160,Domvraina,22.982,38.253,79
55,Prodromos,22.91,38.26,46
94,Ellopia,23.114,38.261,39
66,Melissochorion,23.236,38.266,24
24,Almyropotamos,24.189,38.271,20
28,Neochorion,23.109,38.297,20
160,Zarakes,24.192,38.303,94
39,Thespiai,23.151,38.303,20
39,Argyron,24.149,38.309,28
79,Agia Anna,22.905,38.316,33
94,Vagia,23.178,38.317,55
24,Mavrommation,23.141,38.328,24
55,Evangelistria,23.023,38.343,24
79,Kalentzi,24.101,38.354,20
192,Kyriakion,22.788,38.353,79
79,Agia Trias,22.909,38.355,33
33,Koroneia,22.959,38.359,24
66,Koskina,24.184,38.367,33
79,Kechrokampos,24.636,41.156,39
39,Palaiokastron,23.411,41.157,20
192,Lekani,24.549,41.16,79
28,Gefyroudion,23.364,41.16,20
39,Charitomeni,23.851,41.166,20
66,Nikiforos,24.308,41.166,28
55,Kentrikon,22.894,41.165,46
66,Kallifytos,24.216,41.173,33
160,Drosaton,22.803,41.166,66
134,Prosotsani,23.972,41.179,112
28,Valteron,23.32,41.179,24
28,Chrysochorafa,23.234,41.18,28
39,Doirani,22.761,41.178,28
94,Vamvakofyton,23.394,41.179,39
24,Krini,22.012,39.615,20
39,Aidon,21.467,39.605,20
55,Kastrion,22.682,39.624,24
46,Raxa,21.745,39.612,20
134,Chrysomilea,21.501,39.607,79
79,Megarchi,21.641,39.611,33
24,Palaiochorion,21.423,39.609,24
66,Grizanon,22.054,39.632,33
33,Glykomilea,21.53,39.62,20
2042,Larisa,22.419,39.639,822
276,Kranea,21.347,39.622,46
39,Ardanion,21.788,39.63,20
112,Vasiliki,21.705,39.64,55
79,Amygdalea,22.264,39.654,24
33,Peristera,21.645,39.645,20
79,Potamia,22.787,39.662,39
33,Kalogriani,21.489,39.648,24
33,Afidnai,23.837,38.206,24
192,Kapandrition,23.877,38.216,55
230,Erythrai,23.323,38.216,79
28,Varnavas,23.924,38.224,28
66,Malakasa,23.796,38.239,28
397,Avlon,23.696,38.25,94
28,Kalamos,23.864,38.285,20
55,Markopoulon,23.824,38.29,24
55,Oropos,23.752,38.302,20
134,Nea Palatia,23.795,38.321,55
39,Agioi Dimitrios kai Panteleimon,23.973,38.267,39
39,Sesi,23.997,38.245,20
94,Agia Marina,24.056,38.182,24
55,Agioi Anargyroi,23.894,38.255,24
46,Agioi Apostoloi,23.9,38.294,46
28,Milesion,23.795,38.28,20
24,Nea Politeia,23.786,38.303,20
46,Asprochorion,23.751,38.277,20
33,Neo Sykamino,23.699,38.316,20
33,Avra,24.03,38.181,20
46,Kato Soulion,24.015,38.161,33
33,Ano Soulion,23.978,38.183,20
79,Vergina,22.318,40.486,46
46,Ardassa,21.634,40.478,33
33,Petra,23.057,38.372,20
39,Dystos,24.126,38.377,20
46,Ypsilantis,23.013,38.373,46
192,Aliartos,23.101,38.373,94
28,Antikyra,22.63,38.377,20
46,Velos,24.091,38.388,28
79,Amarynthos,23.883,38.393,55
160,Eretria,23.791,38.392,79
79,Agios Georgios,22.93,38.393,39
46,Krieza,24.138,38.398,33
33,Ano Vatheia,23.91,38.406,20
24,Petriai,24.168,38.407,20
28,Lepoura,24.108,38.406,20
39,Nea Lykogianni,22.237,40.572,20
39,Panorama,23.026,40.587,28
55,Vasileias,21.43,40.565,33
79,Olympias,21.6,40.57,55
79,Ardamerion,23.182,40.594,28
46,Melissourgos,23.475,40.599,24
28,Nea Nikomideia,22.25,40.588,28
66,Stavros,22.308,40.59,33
94,Loutros,22.401,40.589,33
28,Episkopi,22.365,40.59,20
46,Pylaia,22.986,40.601,20
46,Arkochorion,22.073,40.589,28
79,Trikala,22.557,40.599,28
66,Komnina,21.776,40.591,39
160,Lechovon,21.492,40.585,94
39,Koryfi,22.503,40.603,33
134,Toichion,21.304,40.583,46
46,Chortiatis,23.1,40.61,39
112,Ieropigi,21.081,40.578,46
46,Dendrochorion,21.141,40.583,33
46,Stenimachos,22.127,40.603,24
112,Agios Georgios,22.194,40.602,39
28,Kampochorion,22.371,40.607,20
46,Giannouli,22.396,39.665,20
33,Platanos,21.769,39.66,24
55,Eleftherion,22.578,39.676,33
94,Anavra,22.701,39.679,39
94,Omorfochorion,22.475,39.675,33
55,Rizoma,21.734,39.665,24
55,Skiti,22.826,39.682,24
55,Sarakina,21.637,39.662,28
24,Lioprason,21.839,39.672,24
24,Aetolofos,22.725,39.687,20
39,Theopetra,21.684,39.674,24
39,Dimitra,22.632,39.688,33
112,Kleinon,21.454,39.669,46
79,Mega Eleftherochorion,22.078,39.691,39
94,Ellinokastron,21.798,39.689,24
46,Diava,21.58,39.691,28
66,Chalikion,21.192,39.684,46
46,Diasellon,22.017,39.704,39
33,Spathades,21.716,39.698,20
33,Metamorfosis,23.757,38.062,20
94,Aspropyrgos,23.59,38.063,46
46,Drosopigi,23.832,38.165,20
28,Pefkofyton,23.869,38.155,20
28,Neos Voutzas,23.977,38.039,20
28,Dioni,23.933,38.022,20
94,Ntrafi,23.905,38.022,28
24,Kallitechnoupolis,23.958,38.027,20
46,Diodia,23.495,38.045,24
55,Agios Sotir,23.424,38.106,46
28,Pournari,23.441,38.152,20
28,Palaiochorion,23.407,38.123,20
94,Palaiochora,23.451,40.501,55
24,Angelochorion,22.834,40.497,24
28,Agia Trias,22.876,40.5,24
46,Neochorion,23.679,40.509,20
66,Tripotamos,22.18,40.493,24
24,Sana,23.376,40.507,20
39,Proastion,21.711,40.489,24
39,Dispilion,21.289,40.481,24
94,Doumpia,23.351,40.513,33
230,Aiginion,22.542,40.502,94
230,Stratonion,23.825,40.514,79
24,Neokastron,22.415,40.504,20
46,Ermakia,21.852,40.498,46
79,Anarrachi,21.571,40.492,66
46,Petrokerasa,23.285,40.516,33
39,Kalochorion,21.134,40.486,20
28,Chiliodendron,21.193,40.487,24
46,Livadion,23.222,40.523,39
46,Maniakoi,21.244,40.501,20
46,Stratoniki,23.763,40.527,39
79,Dipotamia,20.986,40.489,55
134,Meliki,22.398,40.518,94
39,Nea Raidestos,23.052,40.525,24
24,Milochorion,21.538,40.505,24
94,Koumaria,22.089,40.518,39
39,Korisos,21.377,40.505,39
397,Ptolemais,21.679,40.513,160
55,Agios Christoforos,21.756,40.515,24
476,Veroia,22.206,40.521,230
66,Mesopotamia,21.158,40.504,55
46,Ano Vrontou,23.686,41.294,46
46,Platanakia,22.952,41.291,33
24,Makrinitsa,22.986,41.297,20
46,Ochyron,23.85,41.306,33
39,Kymina,22.693,40.615,24
66,Nea Madytos,23.561,40.623,66
28,Modion,23.609,40.627,24
66,Anargyroi,21.611,40.602,28
160,Nea Apollonia,23.441,40.626,79
55,Gerakarou,23.218,40.627,55
33,Monospita,22.175,40.62,20
24,Vrysakion,22.403,40.62,20
112,Chalastra,22.734,40.627,46
39,Pelargos,21.755,40.614,20
276,Alexandreia,22.446,40.628,134
94,Agios Antonios,23.059,41.111,39
28,Theodoreion,22.933,41.263,20
28,Parapotamos,22.989,41.239,20
28,Agios Charalampos,22.814,41.205,20
33,Chaidefton,24.706,40.875,20
33,Cheimadion,22.895,41.091,20
28,Agia Kyriaki,22.831,41.121,20
39,Koromilea,22.855,41.076,20
66,Examilion,23.004,40.865,20
46,Zacharaton,22.887,41.027,24
24,Metallikon,22.817,41.02,20
39,Akropotamia,22.974,40.931,20
55,Laodikinon,22.996,40.91,33
24,Peristerion,22.958,40.868,20
24,Pyrgotos,22.944,40.881,20
33,Panteleimon,22.892,40.831,20
112,Korona,22.667,41.163,39
39,Palaia Fokaia,23.947,37.718,20
79,Anavyssos,23.95,37.736,66
39,Saronis,23.911,37.748,28
66,Kifisia,23.812,38.077,20
94,Mandra,23.497,38.075,33
24,Magoula,23.522,38.079,20
24,Nea Makri,23.979,38.083,20
160,Acharnai,23.737,38.084,66
33,Nea Erythraia,23.822,38.092,20
24,Dionysos,23.882,38.103,20
94,Fyli,23.669,38.101,33
28,Ekali,23.835,38.106,20
46,Drosia,23.862,38.115,20
55,Thrakomakedones,23.758,38.129,39
24,Kryonerion,23.829,38.14,20
28,Vogatsiko,21.381,40.415,28
66,Megali Panagia,23.68,40.444,66
112,Akrini,21.906,40.435,79
55,Methoni,22.588,40.446,24
39,Galarinos,23.183,40.46,33
46,Sisanion,21.499,40.435,20
39,Lakkomata,21.202,40.429,20
55,Sykea,22.376,40.455,24
79,Agios Prodromos,23.379,40.465,33
24,Nea Agathoupolis,22.583,40.459,20
55,Kastanea,22.451,40.458,20
55,Nea Michaniona,22.861,40.465,39
112,Galatista,23.281,40.467,94
66,Trilofon,22.97,40.468,33
66,Mavropigi,21.733,40.449,28
24,Souroti,23.092,40.473,24
39,Katachas,22.541,40.467,28
79,Perithorion,23.781,41.314,46
66,Volax,24.002,41.317,66
160,Achladochorion,23.54,41.32,94
331,Kato Nevrokopion,23.867,41.344,112
55,Dasoton,23.801,41.347,28
55,Vathytopos,23.711,41.352,46
55,Promachon,23.359,41.362,46
192,Prasinada,24.551,41.361,79
112,Sidironeron,24.233,41.368,79
79,Agkistron,23.441,41.375,66
66,Chrysokefalos,23.868,41.377,24
160,Potamoi,24.099,41.395,79
46,Pagonerion,24.029,41.401,39
94,Skaloti,24.283,41.412,39
55,Exochi,23.827,41.411,28
66,Mikromilea,24.157,41.418,33
66,Dorkas,23.103,40.886,39
24,Polydendrion,23.117,40.817,24
24,Avgi,23.314,40.813,20
55,Limni,23.528,40.781,20
112,Lagkadion,23.56,40.85,24
28,Kefalochorion,23.277,40.993,24
55,Evangelistria,23.236,40.984,20
94,Rizana,23.215,41.019,24
24,Kato Mitrousion,23.457,41.059,20
24,Areti,23.254,40.758,20
46,Kato Metochion,23.522,41.127,24
33,Xirotopos,23.545,41.195,28
331,Paralia Ofryniou,23.905,40.762,79
55,Nea Mesolakkia,23.854,40.848,24
33,Anoixia,23.447,40.759,20
55,Xiropotamos,23.484,40.763,33
94,Loutra Eleftheron,24.091,40.737,39
28,Elateia,22.535,39.812,24
94,Gavros,21.596,39.799,46
55,Longa,21.904,39.805,28
112,Panagia,21.329,39.798,66
33,Metamorfosis,22.659,41.118,20
24,Eleftherochorion,22.761,41.074,20
39,Kalindria,22.791,41.114,20
66,Iliolouston,22.732,41.063,28
24,Ano Apostoloi,22.804,40.903,20
46,Palaion Gynaikokastron,22.745,40.95,24
24,Kato Apostoloi,22.758,40.907,20
33,Nea Kavala,22.617,40.989,24
55,Sitaria,22.656,40.958,28
46,Chamilon,22.482,41.104,20
28,Melissatika,22.909,39.39,24
46,Fytokon,22.937,39.407,20
33,Chloi,22.731,39.402,20
46,Kokkina,22.696,39.333,20
24,Eleftherochorio,22.643,39.284,20
46,Marathos,22.894,39.291,46
24,Pigadion,22.977,39.037,20
66,Gavriani,22.875,39.001,33
94,Vlasti,21.525,40.454,33
24,Nea Kerasia,22.868,40.475,20
94,Germas,21.429,40.456,39
39,Asvestopetra,21.673,40.46,24
24,Avgi,21.175,40.449,20
55,Georgianoi,22.168,40.468,20
160,Vasilika,23.136,40.479,55
39,Agia Paraskevi,23.049,40.483,33
134,Argos Orestikon,21.259,40.455,55
192,Arnaia,23.595,40.486,55
79,Pentavryson,21.141,40.454,33
66,Kolindros,22.484,40.479,33
46,Palaiochorion,23.648,40.492,33
24,Kranochorion,21.099,40.458,24
28,Ampelokipoi,21.309,40.465,20
66,Neon Rysion,22.989,40.496,24
24,Palatitsia,22.343,40.484,20
39,Flampouresion,21.761,39.804,24
46,Pefki,21.381,39.796,24
39,Gerakarion,21.85,39.807,28
33,Magoula,22.081,39.814,20
112,Argyropouleion,22.307,39.826,55
24,Korydallos,21.342,39.809,20
46,Parapotamos,22.469,39.83,20
28,Evangelismos,22.516,39.834,20
55,Sykea,22.054,39.829,28
39,Karitsa,22.762,39.843,24
160,Oxyneia,21.49,39.827,39
134,Evangelismos,22.104,39.839,55
46,Stefanovounon,22.181,39.845,33
33,Kakoplevrion,21.432,39.829,33
66,Mavrelion,21.867,39.838,46
79,Foteinon,21.79,39.842,66
79,Ampelakia,22.556,39.854,33
112,Gonnoi,22.475,39.86,79
39,Itea,22.518,39.863,24
192,Asprokklisia,21.664,39.852,66
112,Stomion,22.731,39.868,55
79,Agiofyllon,21.561,39.863,66
39,Peristerona,23.343,40.661,20
55,Pefka,22.989,40.657,20
160,Stavros,23.701,40.663,160
39,Valtonera,21.587,40.637,20
46,Chariessa,22.165,40.651,20
94,Agios Vasileios,23.114,40.665,46
33,Lefkadia,22.118,40.652,20
66,Anatolikon,22.711,40.663,24
39,Levaia,21.702,40.645,20
28,Vrachia,22.64,40.661,24
33,Arachos,22.51,40.66,20
134,Krystallopigi,21.085,40.637,66
39,Nymfaion,21.493,40.644,20
33,Scholarion,23.256,40.672,20
66,Evosmon,22.916,40.673,28
28,Agrapideai,21.536,40.648,20
134,Sindos,22.802,40.673,28
79,Pigi,22.498,41.011,28
24,Valtotopion,22.573,40.941,20
33,Monolofon,22.909,40.804,20
28,Petroton,22.873,40.814,20
39,Akropotamos,22.66,40.838,20
66,Prochoma,22.668,40.799,28
24,Stathis,22.5,40.951,20
46,Pentalofon,22.412,40.929,20
134,Irakleia,23.282,41.182,55
28,Monastirakion,24.168,41.189,28
112,Mikropolis,23.822,41.191,94
24,Kokkinogeia,23.933,41.191,24
79,Xiropotamos,24.104,41.192,33
134,Oreini,23.592,41.196,66
55,Amaranta,22.815,41.191,20
46,Petroussa,24.016,41.195,24
33,Kamaroton,23.372,41.197,20
46,Grammeni,23.893,41.206,28
46,Limnochorion,23.207,41.206,20
55,Pontismenon,23.285,41.21,24
39,Ypsili Rachi,24.348,41.208,39
66,Ptelea,24.447,41.213,24
28,Chorteron,23.369,41.22,20
112,Kerkini,23.084,41.219,94
79,Myriofyton,22.828,41.223,33
55,Anatoli,22.948,41.239,24
46,Panorama,23.821,41.244,39
46,Megalochorion,23.224,41.245,20
55,Livadia,23.076,41.252,24
39,Tsaritsani,22.228,39.88,24
79,Agnantia,21.464,39.867,28
46,Omolion,22.642,39.896,33
66,Kefalovryson,22.072,39.891,28
476,Elasson,22.189,39.895,112
46,Rapsani,22.549,39.902,24
79,Palaiopyrgos,22.682,39.918,24
160,Pyrgetos,22.59,39.919,66
46,Drymos,22.147,39.916,28
28,Kranea,22.564,39.927,20
39,Valanida,22.046,39.927,39
79,Aigani,22.612,39.952,24
112,Kranea Elassonos,21.971,39.952,94
46,Vothon,23.92,38.177,28
39,Vranas,23.949,38.125,24
46,Agios Panteleimon,23.99,38.118,20
28,Schinias,24.031,38.144,20
33,Stathmos Afidnon,23.843,38.188,20
46,Keratea,23.978,37.808,33
55,Vari,23.803,37.83,28
24,Kouvaras,23.97,37.828,20
112,Kalyvia Thorikou,23.928,37.84,46
28,Voula,23.764,37.847,20
134,Glyfada,23.752,37.862,66
55,Ellinikon,23.749,37.889,20
112,Koropion,23.873,37.9,66
134,Aianteion,23.468,37.923,39
28,Palaion Faliron,23.701,37.924,24
39,Ilioupolis,23.751,37.93,33
46,Selinia,23.534,37.932,28
134,Peiraiefs,23.644,37.944,46
39,Kallithea,23.702,37.956,24
33,Neos Platanos,22.794,39.163,24
79,Neochorakion,22.62,39.169,66
28,Kyparissia,22.549,39.514,20
46,Sofon,22.501,39.468,28
39,Rigaion,22.614,39.35,24
134,Pyrgoi,24.025,41.253,46
33,Strymonochorion,23.335,41.254,24
33,Mouriai,22.796,41.254,24
55,Rodopolis,23.001,41.26,24
33,Charopon,23.377,41.264,24
112,Vyroneia,23.252,41.265,24
55,Paiania,23.853,37.954,39
55,Spata,23.914,37.962,39
66,Salamis,23.492,37.966,46
79,Perama,23.568,37.965,46
46,Nikaia,23.647,37.969,20
112,Artemi,24.008,37.975,112
46,Mavrochori,21.319,40.513,39
28,Pteria,21.055,40.505,20
33,Krimni,23.448,40.547,20
112,Stanos,23.591,40.544,39
46,Foufas,21.554,40.521,20
39,Lithia,21.409,40.52,20
112,Peristera,23.165,40.548,46
192,Oinoi,21.085,40.516,46
55,Thermi,23.02,40.548,33
28,Adam,23.302,40.555,20
46,Lefki,21.207,40.52,24
39,Kouloura,22.318,40.547,33
55,Kalamoton,23.374,40.556,55
46,Droseron,21.604,40.536,20
33,Agia Kyriaki,21.12,40.525,20
55,Prodromos,22.396,40.551,24
79,Marathoussa,23.472,40.559,33
24,Kleisoura,21.469,40.535,20
79,Makrochorion,22.252,40.552,28
39,Anatolikon,21.749,40.545,33
66,Agkathia,22.47,40.555,39
55,Varikon,21.503,40.539,33
55,Kato Vermion,22.025,40.552,33
66,Varvara,23.659,40.57,39
24,Koromilea,21.182,40.536,20
24,Prasinada,22.515,40.562,20
39,Asprogeia,22.638,39.318,33
66,Agios Antonios,22.478,39.204,28
46,Anochorion,22.321,39.317,33
24,Ellinikon,22.298,39.351,20
28,Agios Konstantinos,22.469,39.402,24
94,Dendra,22.338,39.689,33
33,Platanoulia,22.308,39.677,20
28,Koulourion,22.441,39.703,20
39,Dasochorion,22.418,39.692,24
33,Achilleion,22.675,39.535,20
79,Agiokampos,22.878,39.699,55
28,Kokkino Nero,22.795,39.832,20
94,Paliouria,22.833,39.807,28
79,Melivoia,22.797,39.75,33
28,Agia Kyriaki,23.978,37.993,20
55,Markopoulon,23.933,37.883,33
28,Koulidas,23.971,37.891,24
66,Vravrona,24.012,37.919,28
112,Limin Markopoulou (Porto Rafti),24.01,37.884,46
39,Karellas,23.862,37.934,20
46,Kitsi,23.839,37.848,20
55,Agia Marina,23.845,37.815,24
28,Zapani,24.01,37.802,20
33,Myrteza,24.024,37.816,20
24,Mandrakion,23.141,41.264,20
276,Paranestion,24.502,41.266,134
331,Stathmos Mourion,22.839,41.262,192
39,Akritochorion,23.178,41.271,33
112,Kato Vrontou,23.756,41.274,33
33,Neon Petritsion,23.294,41.276,33
46,Kastanoussa,22.894,41.277,33
94,Ano Poroia,23.034,41.286,46
66,Kapnofyton,23.502,41.291,28
79,Damasion,22.188,39.714,55
331,Agia,22.754,39.717,160
79,Kalochorion,22.545,39.72,33
276,Kalampaka,21.626,39.705,112
79,Zagkliverion,23.289,40.572,79
33,Platanos,22.549,40.566,24
55,Kleidion,22.589,40.567,24
66,Patris,22.187,40.56,28
46,Fyteia,22.111,40.562,24
28,Kefalochorion,22.366,40.569,20
24,Galateia,21.597,40.558,20
94,Perdikkas,21.697,40.56,39
33,Trilofon,22.151,40.573,24
112,Kalamaria,22.95,40.583,46
134,Olympias,23.783,40.591,55
39,Kokkinochorion,24.002,40.813,20
33,Lefkouda,23.546,40.735,24
39,Vamvakia,23.61,40.689,24
79,Megali Volvi,23.427,40.696,39
39,Rentina,23.614,40.657,33
46,Chrysopigi,23.559,41.168,20
24,Kato Ampelia,23.399,41.213,20
55,Faia Petra,23.452,41.27,28
28,Sidirochorion,24.143,40.842,20
46,Avli,24.179,40.874,33
24,Kokkalou,23.493,40.625,20
33,Stavros,24.044,41.169,20
24,Ampelakia,24.093,41.117,20
160,Taxiarchai,24.187,41.226,33
39,Exochi,24.238,40.88,20
39,Panagia,24.243,40.897,20
28,Chortokopion,24.24,40.93,20
46,Palaion Tsiflikion,24.348,40.904,33
66,Pefka,24.059,37.805,33
24,Mitropisi,23.994,37.776,20
55,Agia Marina Mikrolimanou,24.075,37.762,33
79,Plaka,24.023,37.763,33
24,Paliokamariza,24.042,37.752,20
39,Markati,24.026,37.742,20
39,Ari,23.981,37.75,20
24,Lagkadikia,23.247,40.636,20
28,Asprogeia,21.47,40.614,20
39,Apollonia,23.486,40.639,24
192,Naousa,22.068,40.63,94
28,Asvestochorion,23.025,40.64,24
79,Mesovounon,21.835,40.628,33
134,Filotas,21.708,40.625,46
55,Kalochorion,22.859,40.642,33
55,Nision,22.389,40.635,33
55,Kopanos,22.13,40.634,39
79,Sklithron,21.502,40.623,33
33,Limnochorion,21.556,40.623,28
79,Stivos,23.305,40.649,28
39,Falanna,22.397,39.722,24
33,Marmarini,22.601,39.723,20
46,Avra,21.689,39.712,33
55,Kato Sotiritsa,22.858,39.731,24
134,Agrelia,21.931,39.72,55
66,Kastanea,21.381,39.709,33
39,Megalovryson,22.754,39.737,20
55,Anatoli,22.695,39.745,33
160,Tyrnavos,22.288,39.739,94
24,Ossa,22.576,39.746,20
55,Vlachogiannion,22.087,39.742,55
55,Ampelon,22.361,39.745,46
33,Velika,22.862,39.748,20
134,Sykourion,22.579,39.758,94
24,Kypselochorion,22.534,39.767,24
79,Kalomoira,21.411,39.751,55
33,Pournarion,22.575,39.775,20
33,Matonerion,21.368,39.759,28
39,Orthovounion,21.468,39.762,33
192,Verdikoussa,21.977,39.781,112
66,Vlachava,21.658,39.774,39
112,Koniskos,21.799,39.781,46
94,Spilia,22.647,39.796,39
94,Domenikon,22.119,39.791,39
39,Praitorion,22.066,39.792,28
39,Rodia,22.366,39.799,39
46,Malakasion,21.283,39.781,28
66,Makrychorion,22.492,39.804,46
33,Skeparion,21.631,39.795,20
33,Trygon,21.412,39.789,20
66,Agios Stefanos,23.86,38.14,39
66,Marathon,23.96,38.157,46
94,Vilia,23.337,38.168,39
94,Oinoi,23.418,38.165,46
28,Panorama,24.176,41.155,20
24,Chamokerasa,24.373,41.189,20
33,Daton,24.322,40.971,20
66,Vounochorion,24.374,41.07,39
66,Lykostomon,24.442,41.109,39
55,Prosfyges,24.374,40.987,20
28,Monastirakion,23.033,41.225,24
55,Sykaminea,22.352,39.963,24
79,Kallipefki,22.46,39.966,46
39,Lykoudion,22.114,39.967,24
39,Loutron,21.933,39.968,24
55,Giannota,22.042,39.98,20
192,Kallithea,22.191,39.981,66
160,Karya,22.393,39.983,94
46,Olympias,22.254,39.987,28
55,Azoros,22.079,40.001,20
66,Akri,21.964,39.998,28
55,Gerania,22.135,40.011,33
28,Lofos,22.185,40.017,20
66,Milea,22.076,40.028,28
46,Kokkinogeion,22.165,40.034,20
33,Tsapournia,22.029,40.043,20
55,Dolichi,22.169,40.064,39
79,Pythion,22.23,40.066,33
94,Sarantaporon,22.053,40.066,55
230,Livadi,22.157,40.127,94
79,Palaion Trikerion,23.076,39.155,46
46,Agios Georgios,23.342,39.174,39
55,Platania,23.274,39.141,24
39,Chorton,23.217,39.191,20
28,Afyssos,23.165,39.272,20
28,Psychikon,22.3,39.437,28
33,Dilofon,22.482,39.444,20
55,Kyparissos,22.356,39.444,46
192,Mouzakion,21.664,39.43,112
79,Makrychorion,21.965,39.44,39
33,Rizovounion,21.867,39.438,20
46,Magoulitsa,21.761,39.439,24
39,Kalyvakia,22.075,39.446,20
33,Gelanthi,21.706,39.44,20
79,Myra,22.547,39.454,33
24,Astritsa,22.145,39.446,20
33,Kranea,21.836,39.446,24
55,Kerasea,22.922,39.464,28
112,Mikron Vounon,22.256,39.457,33
79,Itea,22.165,39.456,55
134,Stefanovikeion,22.743,39.465,66
79,Magoula,21.803,39.456,28
331,Zappeion,22.446,39.464,55
112,Stournaraiika,21.49,39.452,46
55,Pyli,21.621,39.459,28
46,Agia Trias,21.899,39.462,20
66,Pourion,23.095,39.478,24
39,Lazarina,21.738,39.462,20
46,Palaiomonastiron,21.658,39.463,24
276,Palamas,22.081,39.47,94
39,Kotronion,21.561,39.464,28
33,Palaiochorion,21.826,39.469,20
46,Neon Perivolion,22.603,39.487,20
39,Armenion,22.697,39.488,33
39,Sykeai,22.205,39.486,28
28,Moschochorion,22.558,39.499,28
112,Kanalia,22.886,39.497,79
66,Proastion,21.902,39.489,33
33,Agnanteron,21.847,39.488,33
33,Kalogiroi,21.526,39.483,20
66,Venna,25.515,41.013,28
24,Salmoni,25.535,41.005,20
192,Iasmos,25.185,41.127,134
33,Galini,25.206,41.108,20
46,Kopteron,25.123,41.119,33
33,Mosaikon,25.198,41.093,20
28,Potamia,25.039,41.028,20
33,Lagos,25.12,41.007,33
79,Dasochorion,24.84,40.892,28
66,Evlalon,24.801,40.981,20
28,Dekarchon,24.83,40.991,20
24,Kyrnos,24.777,40.987,20
55,Iliokentima,24.788,40.951,46
24,Palaion Olvion,24.806,41.016,20
33,Nea Amisos,24.847,41.042,20
55,Melissa,24.895,41.017,33
28,Vanianon,24.847,41.071,20
28,Pezoula,24.962,41.006,20
24,Gkiona,24.925,41.023,20
94,Skala Avdiron,24.961,40.934,39
55,Vafaiika,24.957,41.089,20
24,Palaios Zygos,24.918,41.109,20
33,Peteinos,24.898,41.1,24
134,Thalassia,24.776,41.065,20
24,Agios Athanasios,24.785,41.042,20
24,Vitoumas,21.614,39.647,20
1419,Alexandroupolis,25.874,40.845,1419
134,Makri,25.745,40.854,79
94,Antheia,25.991,40.872,66
46,Loutros,26.047,40.881,33
192,Ferai,26.172,40.894,160
112,Maroneia,25.519,40.907,33
55,Dorikon,25.98,40.909,20
33,Neon Erasmion,24.834,40.931,20
55,Mangana,24.871,40.943,20
112,Nipsa,26.017,40.93,33
192,Avas,25.917,40.932,55
46,Proskynitai,25.473,40.942,33
276,Fanarion,25.132,40.962,94
55,Imeros,25.37,40.958,28
28,Avaton,24.806,40.962,20
160,Peplos,26.265,40.957,55
192,Xylagani,25.422,40.974,112
134,Avdira,24.952,40.981,66
39,Zografos,23.768,37.978,20
33,Athinai,23.728,37.984,20
39,Glyka Nera,23.849,37.99,28
28,Korydallos,23.653,37.981,20
55,Aigaleo,23.678,37.992,20
134,Megara,23.344,37.997,94
39,Pikermion,23.941,38.002,20
28,Chaidarion,23.656,38.012,20
33,Peristerion,23.695,38.014,24
55,Nea Peramos,23.419,38.002,46
28,Galatsion,23.753,38.013,20
94,Rafina,24.007,38.02,39
39,Neon Kostarazion,21.331,40.434,33
46,Drepanon,21.828,40.348,20
55,Pyrgos,21.897,40.222,20
28,Prosilion,21.944,40.151,20
28,Kipos,21.848,40.187,20
66,Lazarades,21.853,40.018,33
39,Anoixis,21.573,39.914,33
33,Trifyllion,21.647,39.891,20
33,Dimitra,21.664,39.947,28
66,Nision,21.607,40.006,20
46,Neochorion,21.685,39.986,28
28,Lachanokipoi,21.215,40.447,24
55,Ampelochorion,21.26,40.43,20
46,Velos,21.294,40.38,28
33,Peponia,21.41,40.293,20
55,Vronti,21.293,40.293,24
46,Anthochorion,21.347,40.238,20
66,Omali,21.266,40.258,28
39,Klima,21.409,40.242,24
66,Itea,21.616,40.064,24
66,Poros,21.528,40.108,33
24,Asprokampos,21.516,40.15,20
24,Mikron Seirinion,21.426,40.129,20
46,Doxaras,21.394,40.064,20
24,Eleftherochorion,21.482,40.039,24
39,Aimilianos,21.439,39.962,20
79,Anthrakia,21.521,39.924,46
79,Prionia,21.366,39.883,46
24,Monastirakion,21.976,40.926,20
33,Polyanthon,25.223,41.129,24
46,Seleron,24.995,41.131,39
986,Xanthi,24.885,41.138,685
46,Dytikon,22.531,40.857,28
24,Lakka,22.243,40.855,20
94,Palaiokomi,23.899,40.869,39
33,Mandrai,22.909,40.871,20
276,Laimos,21.14,40.835,112
79,Mandalon,22.213,40.857,33
112,Panagitsa,21.85,40.851,46
46,Agios Petros,22.583,40.868,20
66,Sotira,22.046,40.858,28
112,Kato Kleinai,21.398,40.849,46
24,Choumnikon,23.584,40.879,20
28,Stavros,21.972,39.363,20
55,Zoodochos Pigi,22.402,39.366,24
46,Oxya,21.596,39.357,39
46,Drakeia,23.05,39.376,33
192,Argithea,21.537,39.358,46
33,Pyrgos Kieriou,22.077,39.368,20
331,Karditsa,21.922,39.365,134
24,Agios Theodoros,22.005,39.369,20
55,Kypseli,22.141,39.375,33
134,Velestinon,22.745,39.382,79
28,Kryopigi,21.663,39.37,20
28,Prodromos,21.975,39.376,28
33,Palaiokklision,21.863,39.377,24
24,Lefki,22.24,39.385,20
39,Ergani,25.446,40.994,20
24,Agra,25.634,41.133,20
24,Kerasia,25.881,41.219,20
134,Charadra,25.89,41.189,24
55,Chloi,25.854,41.288,46
33,Plagia,25.719,41.131,24
33,Ipion,25.762,41.082,20
79,Strofi,25.789,41.093,55
33,Neda,25.795,41.077,20
94,Esochi,25.772,41.235,33
55,Kardamos,25.624,41.278,28
94,Kymi,25.671,41.304,39
46,Vyrsini,25.809,41.313,33
79,Myrtiski,25.779,41.278,55
39,Smigada,25.734,41.274,24
46,Drania,25.628,41.243,28
33,Tychiron,25.464,41.168,20
46,Ragada,25.729,41.217,24
33,Darmeni,25.682,41.143,20
39,Skaloma,25.677,41.123,28
39,Kinyra,25.717,41.107,20
33,Mystakas,25.649,41.082,20
24,Mikron Piston,25.644,41.066,24
39,Lykeion,25.687,41.065,20
33,Amfia,25.615,41.082,20
39,Passos,25.586,41.097,20
66,Drosia,25.638,41.164,24
112,Dokos,25.596,41.138,55
55,Paterma,25.517,41.203,33
66,Mega Piston,25.299,41.146,46
33,Asomatoi,25.343,41.156,24
66,Dymi,25.378,41.169,20
46,Sarakina,21.652,40.026,20
230,Livaderon,21.942,40.034,66
46,Ziakas,21.268,40.03,20
79,Mavranaioi,21.343,40.035,28
55,Palaiochorion,21.689,40.046,20
79,Leptokarya,22.564,40.058,39
39,Kallithea,23.447,40.075,20
55,Tranovalton,21.866,40.058,46
46,Polynerion,21.203,40.048,33
331,Smixi,21.123,40.058,160
230,Pontini,21.677,40.072,79
112,Sarti,23.98,40.096,46
66,Afytos,23.435,40.098,28
46,Metaxas,21.971,40.084,28
79,Mikrovalton,21.876,40.082,20
66,Elatos,21.34,40.079,33
46,Filippaioi,21.157,40.078,20
331,Litochoron,22.505,40.105,134
28,Pyloroi,21.652,40.089,20
39,Kalirachi,21.29,40.081,24
66,Knidi,21.592,40.096,55
46,Kyrakali,21.374,40.097,20
66,Trigonikon,21.932,40.11,33
160,Nea Fokaia,23.399,40.134,66
94,Samarina,21.018,40.104,66
24,Oropedion,21.316,40.116,20
66,Mega Seirinion,21.411,40.119,28
24,Myrsina,21.474,40.125,24
39,Syndendron,21.351,40.122,20
55,Rymnion,21.871,40.133,24
79,Chromion,21.74,40.135,46
112,Dotsikon,21.137,40.127,39
79,Agios Dimitrios,22.231,40.156,39
46,Rodia,21.328,40.146,28
39,Goulai,21.915,40.159,28
66,Vatolakkos,21.482,40.152,39
28,Dion,22.486,40.172,20
79,Exarchos,21.63,40.159,33
230,Aiani,21.819,40.165,79
66,Amygdaleai,21.374,40.156,28
46,Kaisareia,21.865,40.172,28
79,Nikisiani,24.144,40.948,66
55,Myrrini,23.889,40.951,20
28,Agia Paraskevi,23.456,40.949,20
55,Erateinon,24.638,40.95,28
134,Goumenissa,22.451,40.946,66
24,Sisamia,23.423,40.957,20
55,Melanthion,23.056,40.953,20
28,Megaplatanos,21.971,40.941,20
134,Pethelinos,23.711,40.96,28
39,Chrysi,22.116,40.945,20
39,Amygdaleon,24.359,40.963,33
94,Nea Karvali,24.511,40.962,55
46,Theodorakeion,22.192,40.95,39
79,Kristoni,22.858,40.957,33
79,Lachanas,23.205,40.962,33
46,Griva,22.41,40.955,24
46,Orma,21.927,40.953,20
46,Gorgopi,22.524,40.961,24
46,Tsakoi,22.039,40.955,20
39,Pontolivadon,24.581,40.971,20
46,Angista,23.962,40.976,20
33,Chalkeron,24.471,40.978,28
33,Triantafyllia,23.357,40.976,33
94,Dimitra,23.869,40.981,20
28,Kormista,24.056,40.98,24
33,Polystylon,24.329,40.985,20
33,Paralimnion,23.67,40.986,28
276,Chrysoupolis,24.701,40.985,134
94,Dimitritsion,23.413,40.985,39
24,Piperiai,22.017,40.97,20
55,Peponia,23.513,40.989,24
134,Nea Bafra,24.018,40.99,39
46,Petropigi,24.614,40.987,20
79,Loutrakion,21.947,40.971,46
66,Theodosia,23.127,40.986,39
24,Kastaneri,22.388,40.979,20
331,Aridaia,22.061,40.974,134
55,Exaplatanos,22.131,40.979,39
33,Krinis,23.985,40.994,20
28,Axioupoli,22.542,40.986,20
55,Krini,22.351,39.387,46
46,Ypereia,22.265,39.389,28
28,Agios Akakios,21.772,39.382,20
79,Makrinitsa,22.987,39.401,20
112,Chalkiades,22.426,39.396,46
46,Ellinika,21.392,39.379,33
55,Karditsomagoula,21.924,39.392,24
94,Mataragka,22.074,39.39,39
33,Mikron Perivolakion,22.656,39.408,28
46,Gorgovitai,22.014,39.402,24
112,Orfana,22.221,39.406,24
24,Ellinokastron,21.693,39.397,20
33,Kanalia,21.799,39.399,20
24,Artesianon,21.894,39.404,20
55,Ellinopyrgos,21.735,39.4,28
24,Polynerion,21.365,39.394,20
39,Myrina,21.965,39.408,24
46,Chara,22.43,39.418,20
33,Makryrrachi,23.124,39.425,20
94,Agnanteri,22.617,39.42,24
66,Vatsounia,21.586,39.409,46
33,Kappas,21.755,39.413,20
39,Fanarion,21.799,39.416,28
79,Rizomylos,22.748,39.427,28
66,Ermitsion,22.105,39.42,28
39,Ropoton,21.541,39.419,28
33,Mega Monastirion,22.678,39.44,33
192,Zagora,23.103,39.444,94
46,Fyllon,22.184,39.431,20
55,Glafyra,22.888,39.44,24
24,Mavrommation,21.693,39.423,20
39,Porti,21.626,39.423,24
46,Markos,22.044,39.431,28
24,Foititikes Esties D.P.TH.,25.376,41.143,20
24,Folea,25.398,41.165,20
46,Lampron,25.543,41.132,33
46,Ano Drosini,25.592,41.194,20
112,Drymi,25.574,41.218,66
24,Arsakeion,25.676,41.016,20
94,Velkion,25.653,40.981,28
24,Pamforon,25.531,41.049,20
46,Isalon,25.451,41.059,20
46,Roditis,25.456,41.097,33
33,Stylarion,25.503,41.144,24
28,Kalamokastron,25.358,41.049,20
33,Pagouria,25.317,41.03,24
39,Yfantai,25.36,41.117,24
33,Scholi Astynomias,25.331,41.105,20
39,Paradimi,25.334,41.078,24
46,Palladion,25.235,41.061,24
55,Porpi,25.238,41.018,33
55,Meleti,25.299,41.113,20
24,Glyfada,25.23,40.978,20
33,Symvola,25.41,41.175,20
55,Nymfaia,25.453,41.222,39
28,Avlai,21.963,40.179,20
79,Nea Poteidaia,23.33,40.195,33
160,Karitsa,22.48,40.188,66
39,Milea,21.475,40.18,20
55,Chrysavgi,21.221,40.168,39
160,Servia,22,40.185,66
55,Taxiarchis,21.525,40.176,24
39,Vrontou,22.433,40.192,28
46,Kydoniai,21.282,40.173,33
33,Kranidia,21.958,40.194,28
39,Kerasea,21.795,40.196,24
39,Platanorrevma,22.024,40.201,20
28,Agios Spyridon,22.443,40.206,20
24,Sparton,21.874,40.202,20
55,Rodiani,21.752,40.203,24
112,Agios Georgios,21.409,40.196,55
94,Palaiokastron,21.6,40.203,39
39,Metamorfosis,23.604,40.231,39
28,Kato Komi,21.843,40.21,20
230,Pentalofos,21.141,40.195,112
134,Nikiti,23.67,40.224,79
66,Foteina,22.312,40.22,33
46,Kokkinia,21.485,40.208,24
33,Kivotos,21.444,40.207,20
24,Nea Efesos,22.5,40.227,24
79,Kontariotissa,22.461,40.226,28
685,Nea Moudania,23.288,40.24,230
46,Morfi,21.208,40.21,28
66,Ano Komi,21.829,40.226,28
55,Agios Nikolaos,23.695,40.25,24
24,Polydendron,21.481,40.221,20
112,Lefkopigi,21.749,40.231,33
112,Lofos,22.381,40.244,39
397,Karyai,24.246,40.257,160
39,Agios Mamas,23.336,40.26,24
94,Eptachori,21.021,40.222,79
33,Neraida,21.966,40.24,20
66,Flogita,23.22,40.261,33
28,Kato Milia,22.343,40.254,24
28,Protochorion,21.75,40.244,20
28,Valtotopion,23.596,40.995,20
46,Koronouda,23,40.99,20
66,Karpi,22.421,40.984,24
33,Vaptistis,22.773,40.992,20
571,Kilkis,22.876,40.995,276
94,Chorygion,22.727,40.995,79
66,Perni,24.636,41.005,39
24,Isoma,23.163,40.988,20
39,Tholos,23.782,41,20
192,Polykastron,22.57,40.996,160
28,Agia Eleni,23.559,41.005,24
46,Mesorrachi,23.859,41.004,20
24,Ellinikon,23.105,41.001,20
39,Psychikon,23.629,41.004,20
39,Palaia Kavala,24.415,41.006,20
33,Lykostomon,21.984,40.989,20
33,Milea,22.144,40.993,20
66,Kalamon,24.213,41.011,28
112,Krinides,24.295,41.012,79
33,Megali Vrysi,22.795,41.006,33
46,Sosandra,22.034,40.999,20
46,Eptalofos,23.015,41.01,39
66,Zygos,24.381,41.015,46
24,Kalokastron,23.336,41.015,20
160,Skoutari,23.519,41.017,66
160,Livadia,22.292,41.005,55
39,Vafiochorion,22.661,41.01,39
33,Zarkadia,24.641,41.02,20
24,Kato Kamila,23.483,41.02,24
55,Toumpa,23.707,41.023,20
46,Gazoros,23.773,41.022,33
94,Ida,22.177,41.01,28
46,Omalon,22.399,40.909,20
55,Loudias,22.543,40.677,24
28,Palaiochora,22.498,40.59,20
24,Monopigadon,23.135,40.433,24
55,Nea Irakleia,23.015,40.346,33
33,Agia Anastasia,23.186,40.475,20
46,Sozopolis,23.147,40.278,33
79,Damianon,22.45,40.829,33
134,Eleftherochorion,22.374,40.884,39
46,Leptokarya,22.462,40.862,28
39,Mesianon,22.479,40.78,20
55,Paralimni,22.453,40.751,24
28,Nisellion,22.463,40.595,24
39,Schoinas,22.435,40.648,20
28,Portes,23.323,40.21,20
94,Sani,23.314,40.096,20
46,Siviri,23.36,40.036,28
46,Fylakai Kassandras,23.341,40.115,33
46,Molai Kalyvai,23.457,39.971,28
33,Diastavrosi Palaiokastrou,23.431,40.441,33
66,Kalyvai Polygyrou,23.392,40.284,55
39,Vatopedion,23.558,40.258,28
33,Kato Aigani,22.647,39.95,20
24,Nea Mesagkala,22.708,39.951,24
112,Gyrtoni,22.437,39.754,28
39,Kritiri,22.291,39.756,20
39,Kleisoura,22.07,39.954,20
79,Mikron Eleftherochorion,22.164,39.944,24
39,Ampelia,22.04,39.767,24
55,Paliampela,22.01,39.752,20
55,Chalandrion,23.799,38.021,33
28,Anthousa,23.874,38.027,20
39,Kato Alepochorion,23.179,38.085,20
46,Aigosthena,23.226,38.15,46
55,Agia Trias,23.4,37.976,24
39,Pachi,23.363,37.974,20
28,Moni Agiou Ioannou Prodromou,23.181,38.051,20
160,Aigeirousai,23.151,38.069,79
94,Vlychada,23.438,38.026,20
55,Batsi,23.503,38,28
33,Christoupolis,23.916,37.979,20
24,Neapoli,23.983,37.967,20
66,Melas,21.265,40.703,24
39,Gefyra,22.693,40.733,24
94,Chalkidon,22.602,40.732,39
94,Arethousa,23.588,40.744,79
134,Askos,23.387,40.751,46
79,Agios Panteleimon,21.75,40.724,39
134,Polypotamon,21.364,40.719,39
46,Pentalofos,22.853,40.744,46
55,Ydroussa,21.461,40.722,20
39,Liti,22.979,40.746,20
46,Aspron,22.214,40.734,20
79,Petrai,21.674,40.729,28
39,Kariani,23.983,40.751,24
24,Atrapos,21.405,40.725,20
94,Lagkadas,23.067,40.75,66
46,Nea Mesimvria,22.77,40.752,33
39,Eleousa,22.627,40.748,20
24,Liparon,22.248,40.748,20
55,Kolchikon,23.132,40.755,39
28,Sostis,25.277,41.136,20
66,Lykofos,26.29,41.12,28
66,Kalchas,25.465,41.142,33
46,Kimmeria,24.937,41.147,28
24,Karydia,25.436,41.146,20
46,Komnina,24.727,41.171,20
79,Kornofolea,26.297,41.157,28
112,Stavroupolis,24.706,41.198,79
685,Souflion,26.303,41.192,160
39,Dafnon,24.671,41.218,24
33,Sminthi,24.879,41.229,20
66,Satrai,25.048,41.244,46
66,Kechros,25.856,41.235,39
39,Myki,24.92,41.245,20
94,Ano Karyofyton,24.664,41.26,33
571,Organi,25.684,41.253,94
112,Oraion,24.834,41.274,33
55,Melivoia,24.932,41.328,24
39,Mandra,26.33,41.27,28
192,Lavara,26.386,41.269,79
55,Kyriaki,26.191,41.294,46
79,Amorion,26.44,41.299,28
79,Mikron Dereion,26.1,41.315,46
39,Kotyli,24.886,41.333,20
55,Mavrokklision,26.271,41.339,46
55,Asvestades,26.361,41.35,24
331,Didymoteichon,26.498,41.35,134
39,Koufovounon,26.438,41.355,39
39,Isaakion,26.539,41.362,24
112,Kyani,26.38,41.376,39
33,Ellinochorion,26.461,41.373,20
66,Pythion,26.612,41.381,39
46,Aspronerion,26.306,41.393,46
24,Vrysika,26.336,41.4,20
79,Nea Makrisi,22.35,39.079,33
33,Karyai,22.424,39.081,20
55,Polydendrion,22.412,39.099,24
55,Omvriaki,22.271,39.102,24
46,Sitochorion,23.618,40.883,39
33,Axiochorion,22.643,40.875,20
66,Achlada,21.613,40.862,28
79,Vertiskos,23.228,40.884,33
33,Polypetron,22.513,40.877,20
33,Kipia,24.202,40.887,20
33,Ano Kalliniki,21.452,40.861,28
55,Mikron Soulion,23.945,40.891,24
24,Marina,21.492,40.861,20
33,Nikopolis,23.18,40.888,28
24,Mesia,22.575,40.882,20
24,Skopos,21.641,40.867,20
134,Mavrothalassa,23.75,40.89,112
55,Mavronerion,22.814,40.886,33
94,Kalyvia,22.241,40.023,39
33,Flampouron,22.253,39.97,20
28,Kouloura,22.688,39.932,20
66,Kokkinopilos,22.253,40.096,28
33,Neon Ikonion,22.22,39.274,20
33,Ampelon,22.168,39.418,20
46,Psathochorion,21.99,39.475,20
39,Mavrika,21.942,39.343,20
39,Trygona,21.633,39.398,20
55,Platania,21.605,39.382,20
28,Kalyvia,21.716,39.308,20
28,Lagkadion,21.456,39.362,20
46,Metamorfosis,21.465,39.381,28
28,Valamandrion,21.699,39.548,20
33,Nea Zoi,22.128,39.318,20
79,Kalochorion,21.75,39.745,33
55,Xirokampos,21.489,39.802,20
33,Theotokos,21.604,39.849,24
24,Synterina,23.991,37.724,24
24,Charakas,23.966,37.668,20
28,Megala Pefka,24.005,37.694,20
55,Legrena,23.996,37.668,39
28,Kato Sounion,24.024,37.657,20
66,Kato Poseidonia,24.055,37.68,28
46,Peraia,21.822,40.737,39
24,Irakleion,23.036,40.757,20
33,Stefanina,23.589,40.761,20
24,Kolchiki,21.484,40.739,20
24,Tropaiouchos,21.442,40.741,20
55,Kalyvia,22.219,40.757,33
112,Galatades,22.278,40.756,55
33,Chrysavgi,23.081,40.764,20
94,Flamouria,22.017,40.752,39
55,Pella,22.526,40.762,28
33,Melissochorion,22.929,40.768,20
55,Lofiskos,23.225,40.773,39
39,Orfanion,23.951,40.776,24
24,Nea Pella,22.492,40.762,20
39,Vathylakkos,22.708,40.769,28
28,Platani,22.05,40.762,20
79,Vronteron,21.018,40.742,28
39,Karyotissa,22.313,40.77,20
55,Perasma,21.467,40.754,24
33,Dafni,22.233,40.77,20
28,Melission,22.353,40.775,20
112,Drymos,22.959,40.78,46
46,Mesi,22.266,40.528,20
28,Komnineion,22.164,40.518,20
46,Lefkopetra,22.178,40.429,28
46,Alyki,22.625,40.379,28
24,Toxon,22.398,40.342,20
24,Meliadion,22.351,40.323,24
28,Nea Chrani,22.542,40.309,20
66,Olympiaki Akti,22.585,40.24,24
28,Neon Keramidion,22.462,40.286,20
33,Karyes,22.294,40.239,20
24,Mesaia Milia,22.303,40.25,20
112,Fteri,22.15,40.194,55
66,Limin Litochorou,22.546,40.154,39
39,Plaka,22.563,40.099,33
46,Lefka,22.351,39.105,20
94,Mantasia,22.444,39.123,46
397,Domokos,22.302,39.128,134
55,Vouzion,22.378,39.138,28
39,Velesiotai,22.247,39.151,33
66,Pournarion,22.307,39.157,24
79,Petroton,22.388,39.19,46
33,Paralia Pelasgias,22.856,38.928,20
28,Agrilia,22.387,38.929,20
55,Nea Charavgi,21.823,40.326,24
79,Longades,20.939,39.66,33
39,Megali Gotista,21.042,39.683,33
79,Eleousa,20.794,39.707,39
46,Rodotopion,20.727,39.707,39
112,Mega Peristerion,21.062,39.724,46
39,Krya,20.835,39.72,24
39,Anthochorion,21.13,39.734,24
66,Miliotades,20.963,39.732,55
28,Karyai,20.932,39.733,20
66,Ano Lapsista,20.762,39.74,20
24,Anilion,21.188,39.758,20
276,Metsovon,21.183,39.77,160
28,Myrtofyton,24.197,40.824,24
94,Assiros,23.031,40.821,39
39,Kastanas,22.661,40.82,20
192,Kampanis,22.916,40.889,39
55,Ivira,23.698,40.895,33
66,Therma,23.558,40.896,28
55,Gefyria,22.193,39.292,24
397,Farsala,22.385,39.296,276
134,Petrochorion,21.53,39.283,55
33,Agios Vissarios,22.127,39.3,20
33,Neochorion,23.218,39.307,28
55,Kala Nera,23.12,39.307,20
33,Vlasion,21.581,39.29,33
66,Perivlepton,22.688,39.309,39
33,Agios Georgios,21.835,39.297,20
33,Zaimion,21.939,39.299,20
66,Ampeleia,22.493,39.31,28
33,Agia Paraskevi,22.043,39.306,20
46,Fylakti,21.683,39.303,24
192,Milies,23.151,39.328,66
46,Rousson,21.904,39.314,28
33,Kato Lechonia,23.037,39.331,20
33,Xinonerion,21.861,39.317,20
24,Pinakates,23.118,39.336,20
55,Moschaton,21.795,39.319,24
94,Aerinon,22.758,39.334,28
55,Karya,21.491,39.315,24
39,Vasilis,22.374,39.332,28
28,Ptelopoula,21.978,39.326,20
39,Kalamakion,23.212,39.34,20
79,Agria,23.008,39.341,39
28,Agios Vlasios,23.068,39.341,20
94,Vamvakou,22.42,39.336,39
39,Thymari,23.941,37.7,20
46,Kanakia,23.412,37.906,33
46,Perani,23.483,37.899,20
94,Kolones,23.454,37.878,20
66,Isthmia,23.009,37.92,39
160,Agioi Theodoroi,23.143,37.928,112
79,Loutrakion,22.979,37.974,33
33,Paralia Skotinis,22.588,40.027,20
46,Neos Agios Athanasios,21.796,40.834,28
28,Sotir,21.663,40.676,20
28,Simos Ioannidis,21.359,40.778,28
66,Foteini,21.341,40.541,24
33,Metamorfosis,21.32,40.564,20
28,Chloi,21.258,40.534,20
28,Aposkepos,21.251,40.559,20
33,Kefalarion,21.268,40.57,20
134,Pyli,21.038,40.777,55
66,Neos Oikismos,21.201,40.623,66
79,Vyssinea,21.311,40.622,33
46,Stavropotamos,21.394,40.545,20
33,Voskochorion,22.007,40.382,20
55,Sykorrachi,25.72,40.975,33
66,Mesi,25.211,40.982,33
46,Kirki,25.791,40.976,39
33,Armenochorion,21.461,40.803,20
39,Neos Mylotopos,22.356,40.818,39
94,Kali,22.176,40.82,39
94,Athyra,22.591,40.825,39
55,Droseron,22.247,40.823,24
79,Kallithea,21.154,40.797,28
79,Podochorion,24.025,40.832,33
230,Nea Peramos,24.304,40.838,55
192,Ossa,23.204,40.837,46
46,Nision,21.932,40.823,20
112,Aidonochorion,23.725,40.843,24
39,Ampeleiai,22.388,40.835,20
66,Proti,21.395,40.816,24
46,Krithia,22.983,40.843,33
134,Mikrokampos,22.773,40.842,39
79,Akritas,21.302,40.815,28
33,Anydron,22.208,40.833,20
39,Platanotopos,24.059,40.848,20
28,Tripotamos,21.5,40.825,20
79,Nea Santa,22.919,40.843,46
28,Karavangelis,24.162,40.852,20
24,Achladochorion,22.343,40.837,20
33,Eleftherai,24.256,40.85,33
33,Agrosykea,22.508,40.843,20
24,Kastanochorion,23.676,40.853,20
24,Neochorakion,21.542,40.828,24
39,Aravissos,22.304,40.844,33
24,Kladorrachi,21.396,40.827,20
134,Meliti,21.583,40.833,94
39,Dafni,23.654,40.857,24
46,Anthofyton,22.711,40.853,28
160,Keramoti,24.704,40.859,55
24,Xylokeratea,22.841,40.856,20
79,Moustheni,24.113,40.861,66
66,Karydia,21.956,40.847,24
55,Nea Iraklitsa,24.315,40.865,24
24,Verga,21.446,40.553,20
33,Dipotamos,22.958,41.023,20
160,Sofades,22.098,39.337,112
39,Kato Vasilika,22.542,39.34,28
39,Kipoi,26.307,40.953,24
46,Fylakton,26.273,41.053,20
55,Amfitriti,25.919,40.891,33
79,Thymaria,26.268,40.996,20
79,Giannouli,26.204,41.212,46
66,Sidiro,26.131,41.247,66
79,Agriani,26.288,41.282,66
55,Savra,26.299,41.417,20
55,Neoi Psathades,26.482,41.32,24
160,Sofikon,26.562,41.421,55
28,Neos Pyrgos,26.504,41.494,20
46,Sakkos,26.524,41.538,20
39,Thyrea,26.515,41.413,24
112,Lagos,26.462,41.451,39
24,Patagi,26.43,41.484,20
33,Kanadas,26.407,41.646,20
33,Ammovounon,26.283,41.58,20
39,Keramos,26.349,41.605,20
39,Palli,26.273,41.688,20
134,Korymvos,26.196,41.354,55
134,Roussa,26.018,41.3,55
39,Gonikon,25.969,41.292,28
55,Gerikon,26.025,41.258,20
160,Mega Dereion,26.024,41.233,134
55,Petrolofos,25.919,41.214,24
33,Sidirochorion,25.968,41.239,33
94,Leptokarya,25.905,41.069,39
46,Dikella,25.697,40.865,33
28,Ennato,25.77,40.853,20
28,Paralia Dikellon,25.682,40.854,20
66,Plaka,25.733,40.89,24
55,Komaros,25.66,40.91,33
46,Mesti,25.647,40.953,24
33,Pisia,22.988,38.021,24
28,Panormos,24.049,37.701,20
28,Eirini,23.012,37.955,24
33,Limni Vouliagmenis,22.872,38.032,33
160,Perachora,22.949,38.028,39
79,Agia Sotira,23.025,38.053,46
33,Vamvakes,23.077,38.057,33
33,Dionysos,24.021,37.833,24
276,Karystos,24.419,38.016,230
79,Platanistos,24.515,38.018,66
46,Kalyvia,24.408,38.038,20
79,Marmarion,24.32,38.049,66
66,Paradeision,24.379,38.079,28
94,Agios Dimitrios,24.437,38.109,55
66,Amygdalea,24.575,38.121,55
94,Mikra Volvi,23.561,40.677,46
79,Neochorion,22.444,40.666,33
112,Adendron,22.605,40.672,39
33,Pedinon,21.588,40.661,20
134,Aetos,21.556,40.661,39
66,Rodon,21.632,40.662,20
94,Profitis,23.278,40.688,55
28,Giannakochorion,22.057,40.672,24
55,Angelochorion,22.199,40.678,39
112,Pyrgoi,21.833,40.669,55
39,Efkarpia,22.952,40.686,20
28,Akrolimni,22.266,40.683,24
55,Filyron,23.005,40.691,28
39,Nymfopetra,23.329,40.693,33
39,Evangelismos,23.217,40.694,28
112,Krya Vrysi,22.303,40.687,94
46,Episkopi,22.139,40.687,39
112,Makrochorion,21.262,40.672,33
28,Vegora,21.716,40.681,24
33,Nea Vrasna,23.702,40.707,20
28,Parthenion,22.607,40.699,24
28,Trifyllion,26.209,40.982,20
33,Mirana,25.492,41,20
46,Mandra,24.992,40.996,24
39,Kremasti,24.767,41.016,20
39,Kypseli,24.854,41.024,24
33,Olvion,24.799,41.028,20
66,Neon Sidirochorion,25.355,41.022,46
397,Aisymi,25.956,41.017,66
230,Sapai,25.697,41.023,134
79,Nea Kessani,25.071,41.032,39
55,Lofarion,25.573,41.03,33
28,Nea Kallisti,25.212,41.037,20
55,Lefkimmi,26.198,41.022,33
28,Provaton,26.258,41.025,20
331,Tycheron,26.292,41.028,112
46,Agioi Theodoroi,25.405,41.044,28
46,Koutson,25.024,41.05,33
160,Salpi,25.189,41.052,46
79,Amaranta,25.499,41.05,33
134,Genisea,24.962,41.062,55
46,Selinon,25.073,41.069,28
33,Thrylorion,25.482,41.077,20
46,Toxotai,24.791,41.088,33
134,Aratos,25.553,41.081,94
33,Lyra,26.27,41.07,20
112,Arriana,25.695,41.081,46
94,Aigeiros,25.285,41.09,66
39,Amvrosia,25.236,41.089,28
39,Kosmion,25.41,41.087,24
66,Lagyna,26.298,41.084,28
66,Evmoiron,24.858,41.11,24
24,Pigadia,24.945,41.117,20
94,Amaxades,25.065,41.123,46
397,Komotini,25.403,41.119,331
39,Fillyra,25.632,41.122,24
55,Rachai,22.781,38.891,33
112,Achinos,22.724,38.893,66
24,Agioi Theodoroi,22.925,38.998,24
94,Achilleion,22.963,39.004,39
94,Pteleos,22.953,39.052,46
94,Vrynaina,22.81,39.067,46
230,Anavra,22.55,39.073,112
46,Drymon,22.866,39.075,24
28,Kokkotoi,22.775,39.079,24
276,Trikerion,23.077,39.101,66
134,Sourpi,22.894,39.103,94
160,Kofoi,22.721,39.103,55
66,Skopia,22.468,39.156,28
112,Amaliapolis,22.888,39.167,55
112,Milina,23.22,39.171,46
24,Lafkos,23.247,39.177,20
24,Anthotopos,22.602,39.184,20
331,Almyros,22.76,39.183,160
55,Promyrion,23.286,39.191,24
46,Krokion,22.751,39.205,20
192,Argalasti,23.218,39.226,134
55,Xinovrysi,23.259,39.249,24
33,Aidinion,22.746,39.246,20
24,Dilofon,22.455,39.242,20
94,Narthakion,22.482,39.243,55
55,Mikrothivai,22.751,39.262,39
55,Vrysia,22.322,39.26,28
46,Achilleion,22.42,39.268,24
230,Nea Anchialos,22.815,39.28,79
46,Afetai,23.18,39.283,24
112,Syki,23.26,39.285,55
33,Leontiton,21.534,39.265,20
55,Neraida,22.551,39.285,39
160,Kallifonion,21.962,39.277,66
39,Agios Georgios,22.277,39.286,28
39,Petrilon,21.596,39.271,20
39,Kallithiron,21.906,39.281,33
66,Eretria,22.616,39.297,20
55,Ampelos,22.046,39.288,33
39,Asimenion,26.562,41.401,20
28,Karoti,26.425,41.407,20
79,Mani,26.402,41.41,28
79,Kryoneri,25.426,40.904,39
94,Palaia Krovyli,25.563,40.951,39
55,Dioni,25.563,40.98,20
24,Agioi Apostoloi,20.793,39.749,20
55,Analipsi,21.075,39.751,24
79,Kallithea,21.356,39.847,28
79,Dasochorion,21.817,39.881,33
39,Trikokkia,21.62,39.877,28
33,Katakali,21.687,39.902,33
276,Kranea,21.28,39.898,39
46,Paraskevi,21.77,39.909,24
79,Paliourion,23.663,39.942,39
331,Deskati,21.809,39.927,192
112,Nea Skioni,23.531,39.947,46
33,Agia Paraskevi,23.608,39.955,28
46,Kalandra,23.4,39.972,46
160,Karperon,21.62,39.948,66
66,Paliouria,21.729,39.957,39
134,Kipoureion,21.361,39.953,55
24,Neoi Poroi,22.65,39.977,20
134,Pefkochorion,23.614,39.989,112
33,Monachition,21.273,39.968,24
112,Elati,21.822,39.98,46
33,Panteleimon,22.572,39.993,20
192,Platamon,22.624,39.991,46
33,Chaniotis,23.575,39.999,24
94,Fourka,23.414,40.005,28
66,Agioi Theodoroi,21.503,39.984,33
39,Trikomon,21.317,39.98,20
28,Kassandrinon,23.447,40.013,20
79,Pigaditsa,21.412,39.984,28
55,Perivolion,21.117,39.979,24
66,Polychronon,23.525,40.017,55
66,Skotina,22.554,40.016,33
46,Kosmation,21.338,40.002,28
39,Kryopigi,23.474,40.035,28
79,Spilaion,21.285,40.004,55
94,Sykea,23.942,40.039,94
24,Kentron,21.622,40.018,20
94,Rodochorion,22.018,40.691,46
46,Maniakion,21.775,40.693,24
230,Amyntaion,21.679,40.691,134
55,Mikron Monastirion,22.547,40.708,33
33,Xinon Neron,21.624,40.69,33
46,Drosopigi,21.455,40.69,24
33,Esovalta,22.263,40.707,20
24,Anchialos,22.78,40.715,24
66,Agios Athanasios,22.727,40.714,55
79,Analipsis,23.174,40.72,28
28,Ano Ydroussa,21.475,40.7,20
28,Valtochorion,22.637,40.719,20
66,Kato Grammatikon,21.894,40.707,39
46,Lagyna,23.005,40.723,24
112,Arsenion,22.16,40.713,24
160,Oraiokastron,22.922,40.725,46
66,Agios Loukas,22.296,40.72,24
79,Flampouron,21.523,40.706,33
33,Evangelismos tis Theotokou,23.558,40.273,20
46,Psakoudia,23.496,40.26,33
160,Plana,23.665,40.368,33
94,Elia,23.737,40.145,33
24,Koufos,23.918,39.972,20
192,Toroni,23.903,39.985,46
94,Dafni,24.224,40.215,39
112,Moni Vatopediou,24.212,40.315,39
160,Moni Megistis Lavras,24.382,40.171,94
28,Rizochorion,22.132,41.007,20
55,Nea Zoi,22.105,40.851,33
28,Gypsochorion,22.26,40.808,20
79,Keraseai,21.963,40.877,46
28,Margarita,22.031,40.882,20
33,Zervi,21.82,40.857,20
33,Ekklisiochorion,22.067,40.815,20
28,Stavrodromion,22.217,40.712,20
46,Megali Gefyra,22.526,40.533,20
33,Roditsa,22.463,38.889,20
24,Agia Marina,22.583,38.894,20
28,Agia Paraskevi,22.49,38.9,20
24,Amourion,22.333,38.9,20
55,Stavros,22.369,38.901,39
1419,Lamia,22.434,38.9,397
46,Avlakion,22.557,38.91,39
192,Stylis,22.616,38.913,112
39,Nea Spartia,22.802,38.919,24
66,Vardali,22.313,39.201,28
55,Sofiada,22.251,39.206,28
134,Neon Monastirion,22.275,39.241,66
24,Neos Palamas,22.38,39.029,24
39,Leianokladion,22.303,38.916,39
24,Anydron,22.702,38.924,20
66,Palaiokerasea,22.731,38.929,28
46,Zilefton,22.26,38.931,24
79,Lygaria,22.355,38.938,28
192,Pelasgia,22.84,38.948,134
39,Vathykoilon,22.911,38.95,33
112,Glyfa,22.967,38.953,39
39,Stirfaka,22.306,38.954,33
39,Myloi,22.806,38.966,24
160,Divri,22.454,38.975,46
55,Kalamakion,22.352,39,24
55,Moschokarya,22.264,38.998,20
55,Agios Stefanos,22.254,39.025,33
24,Agios Georgios,22.335,39.031,20
33,Neochorion,22.519,39.038,24
24,Koromilea,22.284,39.036,20
24,Makrolivadon,22.419,39.037,20
160,Xynias,22.313,39.044,46
39,Melitaia,22.452,39.046,20
55,Fyliadon,22.482,39.059,39
33,Agios Vartholomaios,21.528,40.761,24
134,Koufalia,22.577,40.781,94
94,Akropotamos,24.035,40.79,79
79,Vevi,21.616,40.768,39
230,Metaxades,26.225,41.42,112
24,Thourion,26.559,41.433,20
55,Elafochorion,26.324,41.44,20
55,Alepochorion,26.207,41.452,24
33,Ladi,26.263,41.452,28
46,Poimenikon,26.385,41.461,20
160,Doxa,26.283,41.484,55
55,Ampelakia,26.397,41.48,33
79,Zoni,26.216,41.503,33
46,Megali Doxipara,26.281,41.509,20
2940,Orestias,26.532,41.503,571
55,Neochorion,26.459,41.511,28
24,Chandras,26.303,41.517,20
112,Valtos,26.355,41.538,39
55,Kavyli,26.514,41.561,24
55,Sterna,26.459,41.565,33
276,Kyprinos,26.228,41.576,112
39,Fylakion,26.313,41.592,33
33,Komara,26.229,41.593,20
160,Nea Vyssa,26.543,41.584,66
28,Elaia,26.314,41.618,20
134,Rizia,26.426,41.625,79
39,Arzos,26.374,41.634,24
134,Pentalofos,26.182,41.646,39
33,Spilaion,26.31,41.648,20
55,Kastaneai,26.475,41.645,24
46,Marasia,26.47,41.668,20
79,Petrota,26.136,41.694,33
331,Dikaia,26.295,41.704,55
66,Ormenion,26.215,41.721,46
94,Itea,26.188,40.972,28
33,Kavisos,26.17,40.924,24
66,Ardanion,26.211,40.932,28
66,Doriskos,26.118,40.868,28
33,Monastirakion,26.104,40.853,20
55,Poros,26.223,40.898,24
24,Vrysoula,26.24,40.938,20
28,Gemisti,26.331,40.963,20
33,Votonosion,21.119,39.768,28
134,Anthrakitis,20.866,39.766,39
46,Perivleptos,20.779,39.764,28
112,Avdella,21.127,40.007,39
230,Kassandreia,23.413,40.049,134
94,Fellion,21.533,40.024,66
39,Myrkinos,23.819,40.901,28
33,Patrikion,23.61,40.901,20
28,Chrysopetra,22.983,40.899,20
79,Evropos,22.554,40.896,66
28,Polyplatanon,21.408,40.878,24
160,Apsalos,22.058,40.893,66
55,Nea Karya,24.709,40.905,20
46,Agiasma,24.656,40.909,28
46,Filyria,22.479,40.9,24
66,Aspros,22.629,40.903,33
94,Eleftheroupolis,24.253,40.914,94
66,Mesochorion,21.513,40.884,39
28,Karterai,23.082,40.91,20
79,Neon Gynaikokastron,22.747,40.921,55
39,Pedinon,22.873,40.909,28
24,Neos Kafkasos,21.471,40.89,24
192,Rodolivos,23.973,40.922,94
39,Achinos,23.654,40.92,28
79,Draviskos,23.872,40.923,66
39,Kokkinochoma,24.308,40.93,28
66,Lefkochorion,23.07,40.925,28
192,Xylopolis,23.179,40.927,79
66,Flampouron,23.565,40.93,46
46,Sarakinoi,21.954,40.915,24
112,Chrysochorion,24.712,40.932,39
46,Nikokleia,23.427,40.933,39
24,Ryzia,22.57,40.93,20
276,Niki,21.419,40.909,33
571,Kavala,24.406,40.938,276
55,Proti,24,40.945,20
66,Toumpa,22.544,40.935,20
24,Palaiochorion,24.178,40.944,20
55,Polykarpion,22.018,40.926,28
24,Lipochorio,22.181,40.756,20
39,Rizon,22.138,40.735,20
28,Loutrochorion,22.109,40.724,20
39,Ano Zervochorion,22.215,40.656,20
33,Neos Prodromos,22.435,40.536,20
28,Paliampela,22.504,40.511,24
39,Agia Foteini,22,40.713,20
112,Xirolivadon,22.082,40.467,39
46,Agia Varvara,22.246,40.496,28
46,Agios Dimitrios,21.549,39.776,28
39,Kalonerion,21.586,39.636,28
24,Z.E.P.,21.757,40.274,20
39,Rogkia,21.712,39.561,20
28,Exalofos,21.627,39.534,20
24,Antallaxima,21.607,39.608,20
46,Ampelia,21.518,39.693,33
24,Kallithea,21.474,39.466,20
39,Agios Ioannis,21.558,39.436,20
66,Elafion,21.47,39.713,39
28,Nea Zoi,21.792,39.726,28
66,Mourgkani,21.541,39.738,33
28,Skopia,21.409,40.763,20
66,Antartikon,21.206,40.758,39
28,Palaifyton,22.275,40.782,20
39,Nea Kerdylia,23.842,40.794,39
39,Rizarion,22.088,40.784,24
66,Nea Filadelfeia,22.84,40.797,39
33,Galipsos,23.952,40.8,20
397,Giannitsa,22.411,40.793,230
55,Kallipolis,22.234,40.79,20
112,Mavrouda,23.468,40.805,55
112,Alona,21.302,40.777,33
39,Xirochorion,22.779,40.803,28
1419,Florina,21.414,40.783,192
79,Folea,24.157,40.809,39
112,Kella,21.688,40.788,46
39,Skepaston,23.518,40.81,28
66,Ammochorion,21.483,40.783,39
79,Pente Vrysai,23.156,40.808,28
33,Axos,22.362,40.801,20
39,Neon Agionerion,22.706,40.813,20
331,Edessa,22.05,40.801,134
192,Arnissa,21.836,40.798,94
39,Sitaria,21.543,40.791,33
55,Kryonerion,23.281,40.815,46
66,Vryta,21.913,40.801,46
230,Sochos,23.356,40.817,94
55,Lofoi,21.588,40.796,20
39,Rachona,22.54,40.811,24
55,Elaiochorion,24.241,40.821,24
46,Agras,22.003,40.805,28
46,Amfipolis,23.846,40.825,20
94,Pefkos,20.954,40.39,66
24,Chionaton,21.015,40.477,20
33,Krepeni,21.324,40.493,20
66,Chrysovitsa,21.074,39.779,66
46,Grevenition,21.004,39.806,46
55,Doliani,20.951,39.822,28
134,Fragkades,20.883,39.831,55
112,Milea,21.23,39.852,66
79,Flampourarion,20.991,39.854,39
28,Kipoi,20.792,39.864,28
230,Tsepelovon,20.82,39.905,94
160,Vovousa,21.049,39.937,66
46,Laista,20.955,39.972,46
112,Vrysochorion,20.887,39.999,66
79,Distraton,21.018,40.027,66
79,Mazion,20.667,40.04,39
331,Konitsa,20.747,40.045,276
94,Eleftheron,20.855,40.057,46
33,Iliorrachi,20.703,40.056,20
55,Pigi,20.785,40.068,24
46,Molyvdoskepastos,20.57,40.062,39
66,Agia Paraskevi,20.895,40.145,66
46,Fourka,20.943,40.161,28
230,Pyrgos,20.784,40.16,46
46,Amarantos,20.726,40.162,33
46,Drosopigi,20.915,40.213,20
46,Lagkada,20.86,40.213,24
33,Pyrsogianni,20.81,40.212,33
134,Kefalochori,20.886,40.24,55
66,Plikation,20.769,40.296,55
192,Aetomilitsa,20.856,40.31,112
28,Agios Nikolaos,21.391,39.28,20
94,Aidonia,21.421,39.293,20
28,Sitsaina,21.043,39.763,20
39,Ampelakia,21.065,39.705,20
79,Baltouma,20.994,39.696,28
24,Kardamitsia,20.818,39.678,20
33,Gallikos,22.881,40.858,24
55,Pappagiannis,21.498,40.839,33
24,Mesoropi,24.083,40.865,20
28,Domiros,23.922,40.946,20
66,Anthi,23.506,40.944,28
39,Xifiani,22.081,40.93,28
55,Karpochorion,22.01,39.335,46
55,Dasolofos,22.492,39.344,46
112,Kryonerion,21.687,39.333,39
66,Sesklo,22.834,39.355,39
79,Mitropolis,21.837,39.34,46
39,Polynerion,22.265,39.349,28
46,Dimini,22.894,39.358,33
46,Mesovounion,21.521,39.339,20
28,Agios Lavrentios,23.059,39.361,20
46,Xorychtion,23.186,39.364,20
79,Paschalitsa,22.209,39.356,28
66,Anthiron,21.459,39.348,46
55,Morfovounion,21.75,39.353,55
24,Agios Georgios Feron,22.777,39.369,20
33,Fragkon,21.844,39.355,20
28,Anakasia,22.975,39.381,20
39,Anthochorion,21.662,39.357,20
55,Gavrio,24.737,37.884,33
46,Manna,24.944,37.422,20
46,Galissas,24.884,37.422,20
822,Ermoupolis,24.941,37.445,685
331,Plomarion,26.369,38.976,134
24,Plagia,26.397,38.984,20
33,Palaiochorion,26.32,39,24
46,Megalochorion,26.366,39.019,24
46,Akrasion,26.309,39.027,20
192,Mykonos,25.331,37.446,112
55,Ano Mera,25.396,37.446,39
397,Megalo Chorio,26.972,37.458,160
276,Karkinagrion,26.02,37.518,66
276,Tinos,25.163,37.538,134
66,Manganitis,26.118,37.559,28
94,Steni,25.199,37.577,28
112,Fournoi,26.481,37.577,112
39,Agapi,25.163,37.608,28
66,Kalloni,25.12,37.61,55
94,Christos,26.079,37.601,55
33,Ysternia,25.054,37.621,20
24,Agios Polykarpos,26.091,37.612,20
33,Arethousa,26.221,37.614,20
476,Agios Kirykos,26.294,37.614,230
28,Ioulida,24.342,37.64,20
160,Panormos,25.042,37.639,94
112,Evdilos,26.178,37.631,79
33,Karavostamon,26.217,37.633,24
276,Korissia,24.312,37.658,160
94,Perdikion,26.304,37.662,39
39,Pagondas,26.832,37.672,33
28,Myloi,26.858,37.681,20
24,Skouraiika,26.773,37.694,20
55,Pythagoreio,26.943,37.691,28
33,Koumaradaioi,26.838,37.706,20
46,Chora,26.904,37.703,20
39,Koumaiika,26.748,37.71,24
66,Pyrgos,26.804,37.709,24
28,Mavratzaioi,26.864,37.719,24
134,Marathokampos,26.689,37.727,55
28,Korthion,24.942,37.756,20
79,Kallithea,26.583,37.733,55
79,Mytilinioi,26.906,37.727,39
55,Pandroson,26.83,37.731,20
46,Platanos,26.746,37.738,33
28,Kapparia,24.911,37.772,20
134,Ormos Korthiou,24.95,37.772,46
33,Palaiokastron,27.001,37.739,20
39,Kastanea,26.684,37.753,20
66,Drakaioi,26.611,37.76,24
33,Kontaiika,26.74,37.757,20
134,Samos,26.974,37.757,134
39,Leka,26.687,37.773,20
24,Ydroussa,26.749,37.78,20
66,Kokkarion,26.891,37.778,39
66,Pitrofos,24.876,37.814,33
33,Vourliotai,26.848,37.785,28
33,Palaiopoli,24.834,37.818,28
986,Neon Karlovasion,26.704,37.791,476
28,Mesaria,24.91,37.823,20
39,Kontakaiika,26.745,37.802,24
28,Ano Aprovatou,24.812,37.835,20
33,Agios Konstantinos,26.821,37.806,20
476,Andros,24.936,37.837,192
28,Apoikia,24.909,37.85,20
160,Batsi,24.787,37.857,94
28,Myrteai,26.932,36.99,20
46,Panormos,26.936,36.976,33
66,Pserimos,27.135,36.933,39
134,Panormitis,27.848,36.549,46
55,Masticharion,27.076,36.849,28
55,Marmari,27.146,36.88,28
46,Lagoudi - Zia,27.201,36.848,24
28,Paloi,27.171,36.618,24
79,Analipsis,26.386,36.577,28
331,Agia Marina,26.912,35.412,134
46,Diafanion,27.21,35.756,20
39,Kipos Afiarti,27.149,35.452,24
331,Chalki,27.611,36.222,134
24,Sgourou,28.202,36.402,20
39,Kampos,26.672,37.71,20
112,Iraion,26.881,37.665,33
39,Kamara,27.008,37.761,20
28,Kedron,26.925,37.77,24
46,Mesokampos,26.973,37.711,20
24,Karfas,26.153,38.321,20
24,Lefkonia,26.144,38.335,20
24,Dafnon,26.08,38.347,20
55,Katarraktis,26.102,38.265,20
33,Armolia,26.031,38.252,20
46,Komi,26.046,38.202,24
33,Emporeios,26.028,38.189,20
55,Limenas,25.931,38.287,24
28,Limia,25.918,38.471,20
39,Karyai,26.099,38.391,20
331,Marmaron,26.108,38.544,94
46,Zefyria,24.49,36.7,33
79,Apollonia,24.526,36.763,28
39,Agios Georgios,25.468,36.861,33
331,Folegandros,24.92,36.628,230
33,Alopronoia,25.144,36.677,20
571,Ios,25.282,36.723,230
39,Paradeisos,25.391,36.48,20
39,Monolithos,25.48,36.412,20
46,Kamarion,25.479,36.376,20
24,Perissa,25.474,36.355,20
33,Exomytis,25.437,36.336,20
46,Kamarai,24.676,36.989,33
79,Platys Gialos,24.73,36.932,33
33,Faros,24.751,36.945,20
276,Livadion,24.512,37.142,160
55,Loutra,24.425,37.441,20
134,Kanala,24.436,37.346,28
66,Merichas,24.397,37.388,24
46,Otzias,24.354,37.675,24
46,Kato Meria,24.32,37.587,28
134,Pissai,24.278,37.599,39
112,Dilos,25.267,37.399,33
28,Klouvas,25.365,37.451,20
79,Faros Armenistis,25.319,37.484,20
28,Tourlos,25.33,37.461,20
46,Ornos,25.324,37.425,20
24,Azolimnos,24.962,37.411,20
79,Ai Michalis,24.92,37.488,33
39,Kinion,24.901,37.446,24
28,Ormos Panormou,25.052,37.652,20
28,Kionia,25.139,37.553,20
24,Tripotamos,25.168,37.57,20
39,Agia Varvara,25.201,37.543,24
39,Kamares,25.192,37.118,28
28,Krotiri,25.141,37.099,20
39,Kampos,25.135,37.032,24
66,Aspron Chorion,25.198,37.006,39
33,Ampelas,25.266,37.104,20
28,Agia Anna,25.356,37.067,24
28,Stelida,25.344,37.084,20
33,Agkidia,25.402,37.098,20
94,Trachy,24.503,38.959,46
94,Arkasa,27.12,35.477,55
46,Menetai,27.168,35.492,28
2042,Karpathos,27.212,35.507,685
46,Pylai,27.134,35.532,20
66,Aperion,27.17,35.55,33
230,Mesochorion,27.11,35.632,55
24,Spoa,27.142,35.639,20
476,Olympos,27.173,35.74,160
134,Apollon,25.551,37.181,28
66,Alyki,25.133,37,39
66,Piso Meria,24.924,37.746,24
24,Epano Episkopi,26.075,35.132,20
66,Sykea,26.058,35.104,24
55,Stavrochorion,25.942,35.077,24
33,Samothraki,25.525,40.474,33
24,Alonia,25.513,40.462,20
94,Therma,25.603,40.498,46
79,Lakkoma,25.53,40.428,39
822,Kamariotissa,25.474,40.476,331
94,Agia Roumeli,23.96,35.23,94
46,Nteres,23.844,35.436,28
331,Neos Marmaras,23.784,40.095,230
134,Megaron,21.265,40.113,66
112,Nea Gonia,23.094,40.363,20
134,Nestorion,21.059,40.416,79
46,Antigonos,21.762,40.64,33
79,Ofrynion,23.91,40.797,28
46,Efkarpia,23.773,40.863,20
33,Vergi,23.398,40.954,20
33,Ampeloi,23.371,41.008,28
28,Agia Paraskevi,24.16,41.02,20
66,Dafnoudion,23.747,41.061,24
39,Lithotopos,23.223,41.135,24
66,Kali Vrysi,23.905,41.146,33
112,Platania,24.41,41.186,79
134,Lefkogeia,23.895,41.406,55
46,Argyroupolis,22.928,40.991,33
192,Kattavia,27.768,35.954,94
79,Lachania,27.861,35.967,33
66,Mesanagros,27.821,36.012,39
192,Gennadion,27.923,36.024,66
46,Vation,27.883,36.06,28
112,Apolakkia,27.788,36.067,94
79,Asklipieion,27.93,36.072,39
66,Lindos,28.086,36.092,46
79,Profilia,27.846,36.099,28
822,Lardos,28.016,36.094,112
39,Pylon,28.046,36.107,20
160,Monolithos,27.741,36.131,46
33,Kalathos,28.058,36.121,20
66,Siana,27.779,36.154,24
94,Laerma,27.939,36.155,55
55,Agios Isidoros,27.849,36.166,46
94,Masari,28.073,36.178,33
1702,Megisti,29.591,36.149,986
46,Malon,28.071,36.201,20
192,Archangelos,28.118,36.214,66
192,Emponas,27.857,36.226,134
39,Kritinia,27.831,36.249,20
33,Platania,28.018,36.258,20
112,Apollona,27.966,36.26,66
79,Archipolis,28.06,36.266,46
55,Dimylia,28.008,36.281,24
55,Salakos,27.945,36.29,20
397,Anafi,25.768,36.352,192
33,Akrotirion,25.397,36.357,20
55,Ilion,23.708,38.031,20
28,Gazion,25.066,35.325,28
571,Leonidion,22.861,37.166,192
55,Elefsis,23.542,38.043,28
134,Aigeira,22.356,38.148,112
822,Chalkis,23.597,38.46,276
134,Stavros,22.238,39.315,55
94,Tsagkarada,23.173,39.388,33
571,Grevena,21.428,40.083,192
55,Platy,22.532,40.64,55
94,Vourvourou,23.791,40.187,66
79,Mandra,22.26,39.615,33
33,Vryotopos,22.375,39.758,20
39,Marina,22.101,40.691,24
39,Kavallarion,23.043,40.712,20
112,Asprovalta,23.707,40.722,46
94,Strymonikon,23.315,41.043,94
39,Arisvi,25.591,41.07,24
79,Vyron,23.755,37.959,20
55,Matala,24.749,34.992,24
24,Moni Kalyvianis,24.834,35.053,20
33,Anissaras,25.374,35.337,20
24,Agriana,25.345,35.31,20
134,Myrtos,25.583,35.004,66
685,Ierapetra,25.739,35.008,476
112,Goudouras,26.094,35.013,39
46,Koutsounari,25.828,35.017,28
24,Mourniai,25.565,35.026,20
55,Mythoi,25.573,35.036,24
160,Koutsouras,25.944,35.034,112
28,Anatoli,25.643,35.045,20
46,Kato Chorion,25.791,35.049,24
39,Makrylia,25.718,35.063,20
112,Kalamafka,25.657,35.074,39
39,Armenoi,26.092,35.073,28
79,Malai,25.585,35.08,39
79,Lithinai,26.046,35.075,66
112,Ziros,26.14,35.076,46
28,Oreinon,25.914,35.08,20
39,Meseleroi,25.711,35.083,28
79,Chrysopigi,25.949,35.105,39
66,Pacheia Ammos,25.802,35.11,46
24,Kalon Chorion,25.724,35.117,20
160,Zakros,26.218,35.114,66
39,Kavousion,25.858,35.122,33
33,Kroustas,25.661,35.139,20
55,Lastros,25.899,35.139,24
55,Maronia,26.081,35.142,33
28,Kaminakion,25.467,35.157,20
94,Kritsa,25.645,35.159,39
46,Moutsouna,25.586,37.079,39
134,Kastraki,25.389,37.004,33
46,Kato Fellos,24.724,37.908,20
33,Kato Katakoilos,24.813,37.868,20
276,Farmakonision,27.085,37.291,112
94,Theologos,24.692,40.66,46
39,Mariai,24.621,40.691,33
112,Potamia,24.73,40.718,46
33,Skala Sotiros,24.548,40.729,20
28,Panagia,24.729,40.731,20
55,Rachonion,24.636,40.757,33
331,Thasos,24.709,40.779,160
39,Skala Rachoniou,24.612,40.779,20
33,Ormos Prinou,24.577,40.758,20
112,Prinos,24.577,40.741,79
79,Skala Kallirachis,24.534,40.708,33
39,Skala Marion,24.516,40.643,39
476,Limenaria,24.575,40.627,134
55,Koinyra,24.764,40.665,39
24,Potos,24.606,40.611,20
192,Skopelos,23.728,39.122,160
66,Neo Klima,23.645,39.139,24
276,Skiathos,23.489,39.163,276
94,Glossa,23.616,39.175,79
24,Agnontas,23.712,39.083,20
66,Stafylos,23.744,39.085,28
55,Kentrion,25.752,35.033,20
39,Mochlos,25.905,35.183,24
33,Galini,25.882,35.024,33
94,Istron,25.737,35.126,46
24,Vathy,25.718,35.151,20
55,Ammoudara,25.711,35.165,20
46,Katsikia,25.704,35.216,20
33,Ellinika,25.723,35.229,20
39,Gra Lygia,25.692,35.015,33
28,Kalogeroi,25.671,35.032,20
55,Ammoudarai,25.641,35.01,20
39,Plaka,25.728,35.299,20
24,Paralia Milatou,25.565,35.32,20
46,Panormos,23.665,39.11,20
192,Steni Vala,23.926,39.193,46
46,Troullos,23.421,39.143,39
46,Kalyvia,23.497,39.184,20
66,Sision,25.526,35.304,39
331,Afantou,28.162,36.294,94
112,Emporeion,25.445,36.357,39
2042,Skyros,24.566,38.906,276
55,Aspous,24.568,38.878,24
476,Amorgos,25.899,36.832,276
94,Antimacheia,27.098,36.809,33
160,Schoinoussa,25.519,36.87,66
160,Pylion,27.157,36.843,33
66,Ziparion,27.205,36.875,55
192,Lagkada,25.999,36.906,79
134,Linaria,24.539,38.842,55
79,Dadia,26.225,41.129,55
33,Prangion,26.576,41.346,24
24,Petrades,26.608,41.343,20
55,Neon Cheimonion,26.553,41.451,20
94,Plati,26.335,41.628,55
28,Ptelea,26.241,41.702,20
66,Dialampi,25.148,41.09,20
24,Palaion Katramion,24.914,41.075,20
55,Skaramagkas,23.604,38.011,33
55,Grammatikon,23.967,38.203,33
39,Chalkoutsion,23.734,38.332,39
112,Kineta,23.213,37.969,39
79,Askri,23.111,38.314,20
112,Asminion,23.198,39.003,46
276,Varda,21.364,38.031,79
39,Kaminia,21.62,38.148,28
24,Rododafni,22.051,38.264,20
28,Stadion,22.436,37.459,20
28,Filothei,21.436,38.384,20
55,Peta,21.035,39.165,28
79,Efpalion,21.927,38.419,55
66,Psinthos,28.096,36.315,39
28,Megalochorion,25.43,36.377,20
28,Vothon,25.45,36.394,20
94,Kalythiai,28.174,36.336,33
66,Kalavarda,27.949,36.34,20
28,Fanai,27.983,36.351,20
192,Soroni,28.002,36.361,46
55,Maritsa,28.116,36.36,24
39,Theologos,28.038,36.372,20
66,Thirasia,25.344,36.434,28
33,Damatria,28.082,36.38,20
66,Pastida,28.137,36.387,20
66,Koskinou,28.215,36.387,33
476,Livadia,27.385,36.416,192
112,Oia,25.375,36.462,55
33,Paradeision,28.083,36.4,20
33,Kremasti,28.118,36.411,24
94,Ialysos,28.156,36.413,39
66,Megalon Chorion,27.346,36.454,33
2042,Rodos,28.228,36.444,1702
822,Astypalaia (Chora),26.352,36.547,331
55,Nikia,27.179,36.575,33
33,Ano Meria,24.883,36.644,28
192,Mandrakion,27.132,36.612,134
571,Symi,27.839,36.613,192
134,Sikinos,25.12,36.696,94
986,Adamas,24.445,36.726,397
397,Kefalos,26.96,36.746,112
192,Kimolos,24.575,36.793,79
112,Arkesini,25.803,36.788,55
39,Kardamaina,27.142,36.782,33
39,Zevgarakion,21.412,38.536,39
28,Nea Avorani,21.443,38.609,20
112,Kalyvia,21.292,38.619,39
66,Sardinia,21.202,38.889,24
24,Nerokouros,24.039,35.476,20
112,Patitirion,23.863,39.145,79
55,Plati,25.439,35.17,20
66,Agios Georgios,25.485,35.167,24
134,Tourloti,25.94,35.159,46
28,Stavromenos,26.114,35.162,20
39,Exo Mouliana,25.989,35.167,33
28,Mesa Lasithion,25.513,35.182,20
66,Skopi,26.04,35.177,39
66,Piskokefalon,26.097,35.179,24
28,Roussa Ekklisia,26.147,35.178,20
28,Flamouriana,25.661,35.189,20
331,Agios Nikolaos,25.716,35.191,134
112,Tzermiadon,25.488,35.2,55
39,Exo Lakkonia,25.659,35.204,28
160,Palaikastron,26.253,35.198,94
230,Siteia,26.106,35.208,230
24,Vrysai,25.615,35.24,20
28,Limnai,25.638,35.248,24
112,Neapolis,25.606,35.256,79
28,Fourni,25.662,35.258,20
94,Schisma,25.723,35.261,55
33,Vrachasion,25.564,35.273,28
39,Milatos,25.565,35.309,24
276,Vrouchas,25.734,35.317,46
46,Agia Fotia,26.151,35.192,33
79,Petra,26.176,39.328,33
28,Pelopi,26.281,39.326,20
39,Kapi,26.311,39.334,20
24,Falirakion,28.204,36.34,20
28,Kleio,26.322,39.347,20
79,Argennos,26.263,39.361,24
24,Sykaminea,26.295,39.362,20
192,Mithymna,26.175,39.368,79
476,Agios Efstratios,24.989,39.539,276
134,Skandalion,25.335,39.804,46
24,Platy,25.074,39.861,20
79,Kontias,25.149,39.865,39
46,Kaminia,25.322,39.864,28
986,Myrina,25.063,39.874,822
192,Moudros,25.27,39.875,134
46,Portianon,25.179,39.882,20
33,Roussopoulion,25.312,39.883,20
28,Nea Koutali,25.205,39.893,28
55,Romanon,25.29,39.906,24
24,Livadochorion,25.2,39.909,20
66,Agios Dimitrios,25.156,39.913,39
55,Kaspakas,25.084,39.914,33
24,Lychna,25.267,39.916,20
28,Kornos,25.119,39.919,20
24,Repanidion,25.3,39.923,20
112,Kontopoulion,25.334,39.927,46
39,Varos,25.263,39.93,20
24,Karpasion,25.233,39.934,20
55,Sardai,25.141,39.94,20
134,Atsiki,25.225,39.947,55
28,Dafni,25.167,39.95,20
331,Panagia,25.406,39.981,55
55,Plaka,25.427,40.005,20
28,Patmos,26.548,37.309,20
66,Lisvorion,26.218,39.105,24
24,Evreiaki,26.487,39.062,20
24,Agios Isidoros,26.398,38.966,20
24,Thymaina,26.452,37.582,20
2042,Mytilini,26.555,39.104,1183
79,Ippeion,26.413,39.117,33
79,Mesotopos,26.004,39.131,28
331,Pyrgion,25.999,38.226,55
39,Kalamoti,26.046,38.234,28
55,Nenita,26.094,38.24,46
55,Olympoi,25.942,38.247,39
24,Mesta,25.922,38.26,20
94,Elata,25.988,38.286,33
55,Kallimasia,26.101,38.293,20
28,Vessa,26.008,38.296,20
112,Thymiana,26.133,38.313,46
28,Agios Georgios Sykousis,26.056,38.319,24
112,Lithion,26,38.331,39
28,Chalkeion,26.098,38.333,24
1419,Chios,26.136,38.37,685
79,Vrontados,26.128,38.412,33
46,Moria,26.517,39.132,20
79,Agra,26.06,39.158,79
94,Pamfila,26.521,39.156,39
571,Eresos,25.934,39.167,160
192,Parakoila,26.141,39.169,46
33,Loutropolis Thermis,26.485,39.18,24
94,Pigi,26.417,39.183,39
46,Chidira,26.026,39.203,20
79,Sigrion,25.852,39.212,55
24,Pterounta,26.055,39.213,20
33,Keramion,26.207,39.216,20
66,Vatoussa,26.05,39.226,46
160,Antissa,25.98,39.233,55
94,Neai Kydoniai,26.44,39.226,33
55,Kalloni,26.207,39.233,39
192,Agia Paraskevi,26.27,39.248,112
39,Skalochorion,26.075,39.26,28
55,Filia,26.14,39.263,24
46,Napi,26.286,39.27,20
112,Skoutaros,26.133,39.292,33
33,Lafionas,26.179,39.303,20
55,Stypsi,26.22,39.312,28
79,Mantamados,26.336,39.311,55
24,Ypsilometopon,26.245,39.314,20
66,Kolympia,28.143,36.258,33
24,Charakion,28.095,36.167,20
46,Pefkoi,28.058,36.066,24
39,Kiotari,27.955,36.047,20
94,Mandrikon,27.857,36.289,33
46,Skala Eresou,25.932,39.135,24
134,Lagkada,26.123,38.478,46
192,Volissos,25.926,38.484,79
66,Pityous,26.057,38.489,39
66,Parparia,25.885,38.521,33
94,Oinoussai,26.222,38.515,79
33,Kardamyla,26.092,38.529,20
685,Psara,25.563,38.54,331
160,Kourounia,25.913,38.567,39
79,Amades,26.036,38.573,39
24,Vikion,26.015,38.58,20
79,Skopelos,26.448,39.029,55
66,Vrisa,26.201,39.04,28
66,Kampos,26.557,37.353,24
160,Arkoi,26.735,37.383,66
79,Kampos,25.992,39.273,33
46,Vafeios,26.222,39.341,24
39,Vatera,26.199,39.02,20
39,Nyfida,26.14,39.088,20
39,Skala,26.17,39.102,20
39,Skala Sykamineas,26.303,39.373,20
46,Vareia,26.577,39.079,20
79,Agrilia Kratigou,26.613,39.03,28
24,Skala Loutron,26.531,39.046,20
112,Chrysomilea,26.511,37.63,46
79,Vrakades,26.03,37.574,28
24,Profitis Ilias,26.078,37.589,20
46,Gialiskarion,26.104,37.63,20
24,Avlakion,26.138,37.635,20
55,Akamatra,26.169,37.607,20
24,Therma,26.304,37.624,20
55,Xylosyrtis,26.253,37.593,24
39,Fanarion,26.348,37.674,24
24,Pappados,26.457,39.04,20
39,Perama,26.506,39.043,20
79,Ampelikon,26.313,39.058,33
39,Palaiokipos,26.45,39.056,20
94,Loutra,26.544,39.057,20
28,Agia Marina,26.577,39.063,20
134,Polichnitos,26.181,39.079,112
160,Agiasos,26.373,39.083,79
55,Kato Tritos,26.433,39.087,20
39,Asomatos,26.389,39.101,20
24,Drymon,26.824,37.142,20
33,Lakkion,26.852,37.133,20
66,Xirokampos,26.87,37.111,20
33,Argos,26.944,36.958,20
66,Vathys,27.021,36.976,24
28,Vothynoi,26.966,36.94,20
192,Emporeios,26.93,37.047,46
94,Irakleia,25.456,36.837,20
1419,Kos,27.288,36.893,685
230,Koufonision,25.601,36.933,79
476,Apollonia,24.723,36.972,230
160,Kalymnos (Pothaia),26.982,36.952,160
112,Antiparos,25.082,37.04,46
28,Ano Sagkrion,25.434,37.041,24
112,Marpissa,25.249,37.044,66
160,Filotion,25.498,37.05,79
39,Lefkai,25.209,37.057,28
66,Agios Arsenios,25.391,37.062,33
24,Glinadon,25.402,37.071,20
46,Aperathos,25.519,37.071,20
55,Kostos,25.219,37.077,20
230,Paros,25.148,37.083,134
28,Moni,25.498,37.082,20
33,Melanes,25.438,37.091,20
55,Kinidaros,25.479,37.101,24
571,Naxos,25.376,37.106,331
476,Donousa,25.794,37.101,160
55,Galini,25.426,37.118,20
160,Koronos,25.536,37.119,39
112,Naousa,25.239,37.123,55
24,Serifos,24.507,37.155,20
55,Koronis,25.529,37.146,20
276,Leipsoi,26.769,37.295,112
276,Skala,26.544,37.323,192
28,Dryopis,24.431,37.383,24
39,Poseidonia,24.891,37.389,33
24,Chrousa,24.924,37.398,20
24,Foinix,24.886,37.402,20
46,Vari,24.949,37.399,33
476,Kythnos,24.431,37.413,160
39,Kato Zalongon,20.531,39.615,28
55,Vasilikos,20.348,39.455,24
39,Machairadon,20.81,37.758,20
39,Ampelokipoi,20.872,37.758,24
33,Lagkadakia,20.804,37.774,20
79,Agios Leon,20.718,37.77,39
476,Zakynthos,20.896,37.783,276
39,Vanaton,20.851,37.793,28
55,Skoulikadon,20.781,37.8,20
33,Exo Chora,20.685,37.801,20
24,Tragakion,20.832,37.813,20
55,Planos,20.864,37.817,20
24,Pigadakia,20.764,37.817,20
79,Mariai,20.676,37.819,33
94,Katastarion,20.757,37.83,66
33,Alikanas,20.789,37.843,20
55,Anafonitria,20.651,37.847,20
28,Orthoniai,20.693,37.851,24
230,Volimai,20.658,37.875,66
24,Valerianos,20.717,38.083,24
55,Pastra,20.75,38.095,20
55,Agia Eirini,20.752,38.122,24
94,Kouvelas,21.877,37.375,33
33,Elaia,21.691,37.375,20
39,Platania,21.825,37.383,20
331,Astros,22.722,37.404,134
46,Thermisia,23.324,37.412,39
112,Giannitsochorion,21.689,37.393,46
276,Megalopolis,22.135,37.401,134
55,Koilas,23.126,37.414,24
39,Paralion Astros,22.766,37.417,24
79,Asea,22.261,37.421,46
46,Fournoi,23.178,37.431,24
94,Iliokastron,23.266,37.444,46
39,Petralona,21.832,37.438,39
46,Neochorion,21.658,37.434,20
46,Lepreon,21.723,37.436,33
112,Nea Figaleia,21.774,37.442,79
66,Agios Sostis,21.955,37.443,39
112,Elaiochorion,22.567,37.455,55
160,Didyma,23.173,37.464,46
24,Linistaina,21.858,37.447,20
24,Pallantion,22.36,37.459,20
66,Zoni,22.12,37.462,33
55,Kakovatos,21.644,37.457,24
46,Makri,22.325,37.472,24
39,Parthenion,22.516,37.474,28
79,Thanas,22.368,37.473,28
192,Iria,23.012,37.485,79
24,Kalidona,21.703,37.469,20
79,Xiropigadon,22.725,37.485,28
94,Karitaina,22.041,37.485,66
24,Schinoi,21.677,37.481,20
112,Andritsaina,21.905,37.484,112
24,Stenon,22.463,37.497,20
94,Lykochia,22.165,37.495,66
331,Zacharo,21.649,37.484,160
33,Myronia,21.819,37.491,20
33,Fanarion,21.866,37.494,20
28,Neochorion,22.454,37.509,28
33,Arini,21.699,37.5,20
79,Koliakion,23.159,37.593,33
79,Adamion,23.073,37.573,28
79,Kantia,22.961,37.53,39
28,Achladitsa,23.282,37.405,24
66,Agioi Anargyroi,23.246,37.353,24
33,Petrothalassa (Flampoura),23.195,37.344,28
55,Kosta,23.163,37.297,24
24,Loukaition,23.236,37.457,20
33,Kokla,22.676,37.614,20
46,Akova,22.687,37.645,20
55,Agrilitsa,22.598,37.623,33
33,Chouni,22.654,37.633,20
28,Ellinikon,22.666,37.586,24
55,Myloi,22.717,37.553,24
28,Kalamakion,22.694,37.534,20
33,Stathaiika,22.676,37.665,20
28,Karterion,22.407,37.845,20
28,Mentourgianika,22.439,38.116,20
24,Ano Aigialos,22.391,38.117,20
33,Kalentzion,22.771,37.877,20
46,Alamannos,22.91,37.845,20
28,Kato Examilia,22.94,37.908,20
33,Kechriai,22.984,37.885,20
55,Loutra Oraias Elenis,22.997,37.867,46
55,Ryton,22.992,37.818,24
24,Polynerion,20.327,39.404,20
39,Agora,20.566,39.38,20
46,Agios Georgios,20.349,39.529,20
24,Kato Koritiani,20.387,39.516,24
112,Neraida,20.438,39.526,46
66,Antirrion,21.763,38.331,24
192,Erateini,22.229,38.36,94
55,Kato Vasiliki,21.625,38.352,46
55,Agioi Pantes,22.295,38.368,39
33,Tolofon,22.195,38.368,24
66,Evinochorion,21.537,38.36,66
112,Galaxidion,22.384,38.377,46
230,Mesolongion,21.431,38.369,192
46,Glyfada,22.076,38.381,39
55,Gavrolimni,21.63,38.383,24
79,Marathias,22.015,38.395,55
46,Agios Thomas,21.472,38.387,24
230,Nafpaktos,21.831,38.394,134
39,Agios Georgios,21.542,38.395,28
55,Penteoria,22.316,38.411,28
79,Amygdalia,22.223,38.417,33
134,Trikorfon,21.64,38.41,55
24,Kastrakion,21.895,38.418,20
46,Svoronata,20.522,38.116,20
55,Vlachata,20.624,38.123,39
192,Poros,20.774,38.151,94
66,Digaleton,20.694,38.17,39
66,Valsamata,20.585,38.174,66
28,Soullaroi,20.416,38.186,20
46,Faraklata,20.523,38.201,20
39,Lixourion,20.438,38.202,33
94,Chavdata,20.386,38.204,33
55,Grizata,20.641,38.222,24
94,Dilinata,20.515,38.225,39
39,Kaminarata,20.379,38.223,20
46,Farsa,20.476,38.229,24
33,Poulata,20.606,38.236,24
192,Sami,20.646,38.249,94
79,Agia Thekli,20.385,38.246,20
28,Livadion,20.426,38.245,28
94,Kardakata,20.468,38.277,39
94,Agia Effimia,20.597,38.302,39
55,Agkon,20.485,38.301,20
28,Makriotika,20.557,38.309,28
66,Atheras,20.417,38.318,39
46,Divarata,20.55,38.331,20
33,Perachorion,20.716,38.348,20
397,Ithaki,20.718,38.364,160
79,Asos,20.54,38.378,28
94,Vasilikiades,20.562,38.411,39
160,Stavros,20.647,38.447,66
571,Tripolis,22.372,37.51,397
112,Kiverion,22.731,37.523,39
39,Vreston,21.8,37.509,28
55,Xirochorion,21.654,37.509,20
94,Achladokampos,22.581,37.522,66
39,Agios Konstantinos,22.398,37.526,20
79,Ellinikon,22.073,37.52,33
24,Milea,21.731,37.516,20
55,Kato Amygdalies,21.845,37.519,24
46,Drepanon,22.892,37.541,20
46,Matesion,21.926,37.53,33
33,Asini,22.863,37.546,20
24,Livadakion,21.814,37.53,20
24,Merkovounion,22.375,37.542,20
28,Artemida,21.705,37.531,20
33,Alifeira,21.862,37.539,20
94,Chrysovitsion,22.211,37.546,46
94,Kato Samikon,21.596,37.545,24
24,Lefkakia,22.86,37.559,20
55,Platiana,21.756,37.544,24
79,Skopi,22.392,37.558,20
39,Smerna,21.677,37.546,20
55,Tracheia,23.151,37.566,24
66,Stemnitsa,22.081,37.555,28
55,Kallithea,21.82,37.551,55
134,Nafplion,22.801,37.565,55
94,Loukas,22.46,37.566,39
24,Aria,22.831,37.572,20
39,Graikas,21.697,37.562,24
46,Pyrgiotika,22.878,37.579,20
33,Trypiti,21.784,37.571,24
39,Vrina,21.637,37.57,20
55,Nea Kios,22.744,37.584,39
46,Samikon,21.586,37.573,20
94,Diasella,21.735,37.576,66
39,Kakouraiika,21.923,37.584,28
33,Mapsos,22.86,37.842,20
79,Spathovounion,22.801,37.849,28
24,Kavos,23.011,37.907,20
24,Vlasaiika,23.032,37.837,20
55,Pefkali,23.117,37.831,39
39,Glyfa,21.144,37.842,20
46,Agioi Theodoroi,21.32,37.944,20
24,Ano Kourtesion,21.329,37.966,20
33,Marathea,21.31,37.796,20
28,Agios Ioannis,21.36,37.826,20
33,Panagia,21.363,37.78,20
24,Palouki,21.306,37.756,20
24,Kouroutas,21.297,37.768,24
33,Analipsis,21.436,37.809,20
28,Aetorrachi,21.468,37.926,20
24,Thanasoulaiika,21.342,38.013,20
55,Borsion,21.439,37.927,24
28,Oraia,21.493,37.857,20
55,Koryfi,21.434,37.76,24
24,Prodromos,21.61,37.864,20
55,Nea Persaina,21.69,37.758,20
46,Kalyvia Astra,21.865,37.894,20
28,Chanakia,21.369,37.726,20
24,Keramidia,21.404,37.706,20
24,Anthopyrgos,21.439,37.687,20
33,Kato Afroxylia,21.782,38.416,33
24,Dafni,21.864,38.422,20
46,Kato Retsina,21.43,38.43,20
46,Vounichora,22.306,38.449,33
