rs,name,lon,lat,r1
79,Canzo,9.271,45.849,20
46,Lasa,10.7,46.617,20
28,Velo,11.367,45.789,20
39,Breno,10.306,45.958,20
55,Scala,15.036,38.132,20
28,Funo,11.365,44.593,20
94,Sava,17.554,40.4,20
94,Gavoi,9.195,40.162,20
822,Linosa,12.862,35.86,79
39,Mozzanica,9.69,45.478,20
79,Policaretto,16.379,39.454,20
28,Pisoniano,12.959,41.905,20
192,Guspini,8.633,39.541,20
28,Attiggio,12.921,43.305,20
33,Verzegnis,12.986,46.387,20
24,Pombia,8.621,45.653,20
112,Piobbico,12.509,43.588,20
66,Meolo,12.455,45.619,20
39,Zogno,9.651,45.792,20
39,San Pietro Vara,9.588,44.336,20
79,Saliceto,8.169,44.413,20
66,Sairano,9.051,45.137,20
46,Pasian di Prato,13.19,46.045,20
24,Scomigo,12.312,45.934,20
94,Collepietra,11.457,46.483,20
112,Narzole,7.87,44.596,20
46,Loiri,9.494,40.845,20
24,San Martino,12.338,45.957,20
39,Montanera,7.666,44.461,20
46,Trefiumi,10.117,44.391,20
55,Castellana Sicula,14.039,37.785,20
33,Serra,16.305,38.982,20
55,Affile,13.099,41.885,20
112,Collesano,13.936,37.918,20
28,Rocca Massima,12.921,41.678,20
66,Vibo Marina,16.101,38.709,20
79,Borgata Costiera,12.641,37.71,20
79,Vallecorsa,13.405,41.445,20
28,Colombaro,10.898,44.549,20
192,Lesina,15.353,41.862,20
66,San Pantaleo,9.469,41.045,20
24,Collobiano,8.345,45.398,20
79,Borgo Virgilio,10.788,45.118,20
33,Ghiardello,10.526,44.656,20
46,Villaguattera,11.819,45.444,20
46,Passons,13.189,46.074,20
33,Grange,7.555,45.22,20
24,Rovere,11.885,45.151,20
112,Nocera Umbra,12.791,43.117,28
94,Castel San Pietro Terme,11.587,44.399,24
33,Villaperuccio,8.67,39.111,20
24,San Vero Congius,8.718,39.938,20
39,Cirvoi,12.239,46.104,20
94,Roccanova,16.205,40.21,20
33,Trivignano Udinese,13.341,45.948,20
33,Valtorta,9.535,45.978,20
28,Lassolaz,7.588,45.739,20
94,Lagaro,11.178,44.216,20
79,San Pancrazio Salentino,17.836,40.419,24
112,Rio di Pusteria,11.668,46.797,20
24,Artogne,10.16,45.856,20
39,Flavon,11.03,46.3,20
24,Cabiate,9.174,45.674,20
79,Nurachi,8.541,39.973,20
66,San Pantaleone,15.843,37.989,20
46,Sarego,11.408,45.408,20
66,Lusevera,13.268,46.276,20
33,Monteodorisio,14.653,42.086,20
160,Sassello,8.492,44.48,28
28,San Pietro di Morubio,11.228,45.244,20
39,Montemarzo,8.258,44.866,20
46,Bergamasco,8.455,44.828,20
66,Martis,8.81,40.777,20
28,Torri,12.516,42.853,20
28,Vanoni-Remelli,10.763,45.314,20
24,Variana,8.94,44.695,20
94,Bagno di Gavorrano,10.887,42.938,20
94,Varazze,8.571,44.36,20
28,Guarenna Nuova,14.358,42.13,20
192,Marina di Camerota,15.369,40.002,46
24,Faraone Nuovo,13.674,42.803,20
79,Pioppo,13.223,38.045,20
33,Solano Superiore,15.8,38.253,20
24,Fornace Crocicchio,8.232,45.444,20
24,Mornico,9.202,45.011,20
24,Maceratola,12.669,42.95,20
28,Borgo Piave,18.216,40.417,20
39,Rivalta Nuova,8.811,44.842,20
55,Roccabernarda,16.87,39.134,20
55,Cerreto di Spoleto,12.92,42.822,24
24,Mombasiglio,7.967,44.367,20
276,Agordo,12.036,46.285,33
112,Gradisca d'Isonzo,13.489,45.885,20
24,Filighera,9.316,45.175,20
66,Bosco,10.036,44.443,20
39,Sorga,10.98,45.215,20
24,Piova Massaia,8.05,45.055,20
46,San Martino-Sant'Anzino,12.609,42.082,20
28,Anela,9.058,40.443,20
46,Gagliole,13.067,43.238,20
66,Stazione di Frasso,13.2,41.368,20
33,Cropani Marina,16.808,38.923,20
39,Mandolossa,10.158,45.558,20
134,Ficarolo,11.436,44.954,20
79,Moglia,10.914,44.937,20
46,Cerretto Langhe,8.097,44.575,20
46,Scalini,11.367,45.824,20
24,Visnadello,12.247,45.76,20
28,Pove del Grappa,11.729,45.797,20
24,Castello del Matese,14.376,41.368,20
33,Capezzano Inferiore,14.774,40.702,20
46,Casaleone,11.199,45.17,20
39,Piamborno,10.225,45.919,20
46,Malalbergo,11.532,44.719,20
94,Chieri,7.822,45.014,24
39,Casaprota,12.804,42.251,20
66,Verzi,8.236,44.154,20
24,Taino,8.616,45.766,20
79,Baruchella,11.453,45.067,20
33,Cerezzola,10.409,44.573,20
24,San Cipriano Po,9.28,45.11,20
55,Madonna del Piano,13.406,41.517,20
79,Capodacqua,12.783,43.017,20
33,Pagno,7.426,44.612,20
33,Roncadello,10.469,44.946,20
39,Cisliano,8.985,45.444,20
66,Vaglio Basilicata,15.917,40.667,20
39,Faleria,12.446,42.226,20
28,Foce,12.454,42.567,20
55,Nova Levante,11.538,46.43,20
24,Molteno,9.303,45.778,20
33,Gozzolina,10.486,45.359,20
66,Kamma,12.036,36.798,20
94,Mirano,12.114,45.497,20
28,Sammomme,10.909,44.027,20
33,Paschera San Carlo (Soprana),7.413,44.439,20
66,Lamoli,12.255,43.623,20
134,Villanova d'Asti,7.938,44.942,20
28,Vaggio,11.508,43.641,20
39,Arbus,8.599,39.526,20
39,Ulassai,9.499,39.81,20
39,Sugano,12.057,42.71,20
134,Felizzano,8.436,44.9,24
192,Laurenzana,15.973,40.458,20
33,Pracchia,10.908,44.055,20
33,Civitella Casanova,13.884,42.364,20
39,Peonis,13.04,46.258,20
33,Vallefratta,13.392,41.498,20
24,Piantravigne,11.567,43.608,20
39,Monterubbiano,13.718,43.085,20
112,San Benedetto dei Marsi,13.622,42.006,20
24,Capodarco,13.76,43.189,20
24,Luneo,12.121,45.51,20
33,Broccostella,13.639,41.703,20
46,Ozzano dell'Emilia,11.475,44.444,20
79,Falerna Scalo,16.152,38.972,20
28,Ferrito,16.532,38.925,20
46,Sasso d'Ombrone,11.327,42.933,20
79,Cassine,8.528,44.753,20
94,Montaione,10.913,43.553,20
24,Borgarello,9.14,45.239,20
24,Grazie,10.695,45.152,20
28,Losson della Battaglia,12.482,45.633,20
46,Cambiasca,8.544,45.962,20
160,Castiglione Messer Marino,14.451,41.867,20
2450,Bari,16.879,41.113,476
94,Penna San Giovanni,13.427,43.057,20
39,Saletti II,14.442,42.145,20
28,Ca' Ballarin,12.515,45.469,20
276,Ortisei,11.667,46.574,33
134,Mercato Saraceno,12.198,43.964,20
46,Varano Marchesi,10.033,44.753,20
24,Piano Risteccio,13.649,42.763,20
46,Quarto Inferiore,11.415,44.532,20
33,Lillianes,7.841,45.63,20
28,Badesse,11.275,43.383,20
24,Pintura,13.581,43.306,20
46,Ognina,15.259,36.982,20
55,Breme,8.626,45.128,20
24,Pieve di Compresseto,12.692,43.234,20
28,Bodio,8.751,45.788,20
134,Serre,15.187,40.582,20
46,Pradleves,7.283,44.418,20
55,San Fiorano,9.723,45.137,20
55,Boccioleto,8.111,45.831,20
46,Martiniana Po,7.362,44.627,20
39,Pitelli,9.885,44.095,20
94,San Fele,15.539,40.818,20
39,Bragno,8.299,44.375,20
55,Villanovafranca,9.003,39.645,20
94,Laghetti,11.24,46.275,20
94,Cinigiano,11.39,42.891,20
46,Peschiera del Garda,10.688,45.436,20
39,Torri,12.107,44.492,20
46,Agazzano,9.518,44.945,20
33,Marmorta,11.716,44.619,20
46,Bionde,11.095,45.211,20
24,Amato,15.962,38.374,20
160,Posina,11.26,45.79,20
66,Coriano,12.601,43.968,20
134,Seneghe,8.613,40.082,20
39,Terzigno,14.494,40.812,20
46,Orsaria,13.381,46.039,20
46,Erto,12.372,46.277,20
39,Canal San Bovo,11.732,46.156,20
55,Coreggia,17.265,40.807,20
39,Ghemme,8.422,45.599,20
39,Pozzuolo,11.961,43.121,20
28,Mercato Vecchio,12.378,43.805,20
160,Sarnano,13.299,43.035,20
79,Frontone,12.734,43.514,20
66,Mombercelli,8.296,44.818,20
39,Montecalvoli,10.662,43.686,20
55,Macellara,16.099,39.665,20
134,Moggio di Sotto,13.195,46.404,20
46,Borselli,11.538,43.795,20
39,Solaro,9.083,45.615,20
24,Casette,13.555,42.827,20
331,Alghero,8.321,40.557,46
33,Basse Dora,7.613,45.091,20
39,Nocchi,10.344,43.921,20
39,Sedrano,12.665,46.053,20
46,Tremenico,9.366,46.076,20
46,Bolca,11.21,45.595,20
46,Mirabello Monferrato,8.523,45.035,20
33,Ponte San Michele,14.591,40.832,20
39,Piscitelli,13.216,41.714,20
28,Piana di Monte Verna,14.335,41.169,20
39,Caravonica,7.959,43.993,20
33,Santa Mama,11.854,43.629,20
79,Padenghe sul Garda,10.505,45.508,20
28,La Luce,13.718,43.21,20
66,Dello,10.077,45.421,20
39,Melicucca,15.881,38.304,20
79,Cologno al Serio,9.706,45.581,20
28,Segno,11.075,46.305,20
28,Bagno,10.751,44.657,20
66,Sedini,8.816,40.853,20
66,Marcianise,14.299,41.035,20
79,Bevagna,12.608,42.934,20
46,Burgos,8.994,40.391,20
112,Vetto,10.339,44.484,20
28,Calcinate,9.799,45.621,20
28,Ca' del Lago,11.218,45.221,20
46,Onies,11.865,46.749,20
94,Cisternino,17.422,40.744,20
79,Badia Calavena,11.152,45.566,20
94,Jolanda di Savoia,11.98,44.881,20
55,Gromo,9.927,45.963,20
39,Madone,9.547,45.651,20
33,Pozzo dell'Inferno,12.705,41.514,20
134,San Gregorio Magno,15.399,40.661,24
28,Spropolo,16.039,37.925,20
94,Albidona,16.472,39.924,20
134,Farini,9.57,44.713,20
55,Annifo,12.86,43.054,20
79,Noceto,10.177,44.81,20
134,Serramanna,8.923,39.424,33
33,Durazzano,14.451,41.062,20
66,Corvara,13.872,42.276,20
66,Murisengo,8.135,45.082,20
24,Compignano,12.281,42.949,20
55,Villa San Pietro,8.999,39.036,20
39,Grumes,11.294,46.221,20
46,Toano,10.56,44.377,20
79,Stanghella,11.758,45.134,20
28,Passo dei Pecorai,11.285,43.62,20
39,Civitella Cesi,12.024,42.216,20
24,Laglio,9.139,45.883,20
28,Mottafollone,16.064,39.649,20
134,Rho,9.04,45.531,24
79,Migliarino,11.934,44.77,20
39,Montaner,12.38,45.997,20
46,Cropani,16.128,40.044,20
33,Cittiglio,8.66,45.897,20
46,Baschi,12.217,42.674,20
112,Aquileia,13.363,45.766,20
66,Urbisaglia,13.374,43.192,20
79,Sant'Arcangelo,12.157,43.083,20
39,Le Caselle,13.822,41.667,20
28,Vistrorio,7.768,45.442,20
46,Onani,9.443,40.486,20
55,San Martino,12.227,46.811,20
46,Vezzano sul Crostolo,10.548,44.602,20
46,Delianuova,15.916,38.237,20
28,Sagliano,9.163,44.839,20
28,Roveredo di Gua,11.442,45.273,20
66,Galtelli,9.615,40.385,20
24,Trivignano,12.192,45.527,20
28,Gombio,10.15,45.669,20
134,Varese Ligure,9.594,44.377,20
55,Sommacampagna,10.845,45.407,20
28,Borghetto di Vara,9.72,44.224,20
33,Uta,8.956,39.291,20
24,Varco Sabino,13.02,42.24,20
24,Vicarello,10.465,43.614,20
46,Torre,10.799,43.758,20
79,Anguillara Veneta,11.888,45.14,20
94,Dolceacqua,7.624,43.847,20
33,Cecchina,12.649,41.691,20
79,Tezze,11.704,45.686,20
94,Morciano di Romagna,12.65,43.915,20
39,Maleo,9.761,45.167,20
39,Guarda Veneta,11.801,44.981,20
28,Romeno,11.12,46.395,20
94,Rotonda,16.04,39.949,20
39,Rivodora,7.787,45.088,20
397,Isili,9.109,39.741,28
24,Bergiola,10.124,44.067,20
33,Marega,11.395,45.201,20
79,Marianopoli,13.915,37.599,20
46,Torremezzo di Falconara,16.057,39.271,20
28,Zona 167,15.845,41.858,20
55,Portacomaro,8.258,44.957,20
94,Canneto sull'Oglio,10.383,45.149,20
55,Masi Torello,11.8,44.795,20
28,Marciana,10.168,42.789,20
66,Colla-Muggiasca,9.621,45.984,20
24,Pavigliana,15.724,38.107,20
33,Alberone,11.84,44.963,20
192,Piaggine,15.378,40.346,24
94,Rapolano Terme,11.604,43.284,20
33,Selvarella,12.237,42.435,20
28,Bottai,11.223,43.726,20
24,Martelletto,16.535,38.891,20
112,Saltusio,11.199,46.729,20
33,Casciago,8.777,45.827,20
28,Riobianco,11.875,46.95,20
55,San Biase,14.589,41.715,20
46,Bonnanaro,8.764,40.533,20
24,Gaggiolo,8.91,45.839,20
55,Torrenieri,11.549,43.086,20
112,Auronzo,12.42,46.562,46
66,Groppo,10.337,44.438,20
24,Favari-Avatanei,7.796,44.913,20
46,Santa Gertrude,10.873,46.489,20
24,Piamaggio,11.321,44.201,20
79,Pulsano,17.358,40.382,20
55,Gatteo a Mare,12.434,44.168,20
66,Finocchieto,12.658,42.453,20
66,Cepina,10.357,46.435,20
46,San Bortolo,11.758,45.215,20
46,Dogato,11.889,44.75,20
24,Creazzo,11.476,45.534,20
39,Nuragus,9.038,39.778,20
28,Gavorrano,10.909,42.924,20
28,Bagni di Tivoli,12.717,41.953,20
55,Cerreto Sannita,14.555,41.282,20
24,Piantonia,10.094,44.665,20
33,Toscanella,11.641,44.381,20
28,Alfiano Natta,8.208,45.049,20
230,Castelbuono,14.09,37.928,24
46,Bonvicino,8.015,44.505,20
28,Pesco Sannita,14.813,41.233,20
276,Licata,13.951,37.104,55
79,Guasila,9.041,39.558,20
94,Umbriatico,16.918,39.353,20
28,Vallerona,11.471,42.794,20
28,Cadimarco,10.356,45.227,20
24,Germagno,8.388,45.892,20
134,Grantorto,11.728,45.601,20
24,Arpino,14.323,40.891,20
28,Leporano Marina,17.299,40.382,20
28,Stio,16.317,39.388,20
39,Bolognetta,13.458,37.964,20
39,Gaiofana,12.569,44.005,20
24,Sassuolo,10.785,44.539,20
39,Faeto,15.161,41.325,20
33,Bisuschio,8.87,45.872,20
24,San Giovanni,12.509,46.023,20
94,Monte San Savino,11.724,43.333,20
28,Favaco,16.486,38.361,20
46,Cittanova,16.08,38.352,20
28,Ospedaletti,7.718,43.804,20
33,Fascia,9.22,44.583,20
39,Pagliara,14.839,37.996,20
46,Molella,13.06,41.277,20
134,Capalbio,11.422,42.453,20
55,Scurcola Marsicana,13.339,42.064,20
39,Saccon,12.362,45.875,20
276,San Giovanni in Fiore,16.698,39.254,79
28,Lurisia,7.711,44.306,20
39,Merlara,11.443,45.167,20
66,Bagnoli del Trigno,14.457,41.702,20
28,Prastio,16.116,39.958,20
28,Battaglione-Bagnara,10.065,45.117,20
55,Fossalto,14.546,41.673,20
28,Cozzano,10.195,44.574,20
134,Tolve,16.017,40.694,20
66,Altilia,16.88,39.181,20
28,Puglia,11.882,43.501,20
28,San Nazzaro,10.293,44.955,20
28,Casalbore,15.008,41.234,20
46,Chiomonte,6.986,45.12,20
39,Lago Patria,14.035,40.925,20
24,Sambuca,11.214,43.573,20
28,Turri,8.917,39.705,20
39,Bottega,10.864,44.391,20
24,Terranuova Bracciolini,11.585,43.552,20
112,Lazzaro,15.661,37.977,20
33,Borgo,11.455,46.051,20
24,San Giovanni,14.139,37.762,20
79,Brescia,10.221,45.525,20
33,Gatta,10.464,44.409,20
28,Cinaglio,8.1,44.975,20
94,Ciminna,13.56,37.898,20
66,Pieve,11.955,46.481,20
55,Revo,11.06,46.392,20
66,Collamato,12.95,43.291,20
39,San Pier Niceto,15.353,38.158,20
24,Comitini,13.643,37.408,20
39,Piana del Sole,12.304,41.826,20
33,Borgo Carige,11.419,42.425,20
24,Campiglio,10.856,43.98,20
397,Ravenna,12.203,44.416,46
24,Berzano di San Pietro,7.953,45.094,20
66,Pozzo,12.508,42.905,20
46,Riobianco,11.368,46.771,20
79,San Buono,14.569,41.981,20
33,Montecchio,10.742,43.524,20
66,Episcopia,16.096,40.073,20
112,Ovada,8.645,44.638,28
79,Modugno,16.773,41.098,20
55,Sasso Marconi,11.245,44.396,20
24,Borgo Faina,12.211,44.348,20
55,Costacciaro,12.713,43.359,20
28,Basella,9.731,45.615,20
39,Angoli,16.437,38.971,20
28,San Martino,12.341,45.909,20
33,Chiuduno,9.85,45.651,20
94,San Giorgio Ionico,17.379,40.459,20
33,Flagogna,12.961,46.208,20
33,Striano,14.578,40.817,20
33,Bellaguarda,10.58,44.995,20
24,Villastellone,7.748,44.924,20
24,Santa Maria Coghinas,8.868,40.904,20
46,Viticuso,13.971,41.524,20
24,Brozzo,10.23,45.719,20
39,San Pietro Valdastico,11.362,45.887,20
331,Lodi,9.503,45.314,55
46,Carpeneto,8.606,44.678,20
24,Pezzolo,10.063,45.998,20
94,Valles,11.627,46.842,20
46,Carpineti,10.518,44.456,20
24,Roio del Sangro,14.373,41.912,20
24,San Bellino,11.59,45.03,20
33,Odolo,10.386,45.646,20
46,San Carlo,13.253,37.624,20
79,Bagno Roselle,11.138,42.81,20
79,Formigliana,8.291,45.429,20
39,Barchi,10.426,45.194,20
46,Ghizzole,11.637,45.451,20
28,Varago,12.312,45.737,20
33,Ospedaletto d'Alpinolo,14.744,40.938,20
55,Montemiletto,14.902,41.011,20
28,Graffignana,9.454,45.206,20
55,Mercatino Conca,12.491,43.87,20
33,Fognano,11.737,44.206,20
112,Porto Potenza Picena,13.692,43.37,20
24,Baldichieri d'Asti,8.091,44.905,20
39,Cosa,12.89,46.057,20
46,Ottobiano,8.83,45.154,20
24,Concadalbero,12.083,45.214,20
46,Bianze,8.124,45.309,20
112,Mandas,9.129,39.656,20
79,Usellus,8.851,39.81,20
79,Gioia del Colle,16.924,40.8,33
94,Lavezzola,11.876,44.563,20
79,Ripa-Pozzi-Querceta-Ponterosso,10.204,43.975,20
55,Caminata,11.544,46.959,20
24,Calvenzano,9.381,45.27,20
79,San Pietro in Volta,12.314,45.313,20
28,Ponte Cingoli,10.105,45.599,20
24,Castiglione,11.057,45.413,20
55,Marene,7.737,44.662,20
24,Vanze,18.318,40.322,20
33,Montecorice,14.984,40.234,20
33,San Zeno Naviglio,10.216,45.496,20
28,Casa del Diavolo,12.451,43.188,20
66,Villanova Monferrato,8.479,45.182,20
192,San Giovanni-San Bernardino,9.606,44.777,24
46,Madonna di Viatosto,8.187,44.925,20
55,Bleggio Superiore,10.838,46.025,20
24,Murazzo,7.651,44.483,20
28,Mileo,16.031,40.058,20
55,Torricella,17.499,40.356,20
39,Laghi,11.271,45.825,20
46,Furci,14.588,42.009,20
33,Lucolena in Chianti,11.388,43.574,20
55,Usseglio,7.216,45.233,20
46,Attimis,13.313,46.192,20
66,Torella del Sannio,14.519,41.64,20
28,Belforte,10.562,45.08,20
79,Appignano,13.345,43.364,20
24,Pianomarotta,15.089,40.926,20
66,Fagnano Alto,13.57,42.258,20
24,Caldare,12.408,42.453,20
66,Castiglione d'Adda,9.694,45.219,20
46,Serra di Maiolo,12.312,43.873,20
134,Codigoro,12.11,44.83,33
33,Perrazze,15.292,40.681,20
24,Valle San Silvestro,12.234,46.746,20
39,Lauro,14.631,40.878,20
79,Marziai,11.982,45.987,20
46,Caccuri,16.776,39.227,20
55,Mondaino,12.669,43.858,20
39,Bareggio,8.997,45.477,20
55,Domanico,16.207,39.216,20
55,Cicirata,15.137,36.884,20
66,Gonnosno,8.872,39.76,20
46,Staffoli,10.702,43.754,20
55,Venas,12.299,46.41,20
28,San Donato di Ninea,16.048,39.711,20
28,Tre Torri,15.113,41.083,20
39,Giarole,8.567,45.061,20
230,Isola di Capo Rizzuto,17.091,38.96,28
24,Olmo,8.13,44.756,20
33,Malvagna,15.055,37.919,20
46,Mulazzano,12.535,43.96,20
134,Ottana,9.044,40.234,24
39,Monfumo,11.923,45.828,20
79,Pianola,13.407,42.324,20
94,Champoluc-Champlan,7.726,45.833,20
28,Trana,7.422,45.039,20
94,Diamante,15.824,39.677,20
66,Badile,9.126,45.351,20
33,San Benedetto in Alpe,11.687,43.984,20
55,Poianella,11.627,45.631,20
276,Manduria,17.635,40.399,33
28,Montescudaio,10.625,43.326,20
79,Roccaforte del Greco,15.896,38.048,20
331,Marina,16.598,40.036,20
39,Ponte Rio,13.093,43.725,20
55,Talocci,12.699,42.189,20
46,San Marco,14.94,40.267,20
28,Coseano,13.019,46.098,20
39,Alanno,13.971,42.295,20
33,Santo Stefano Lodigiano,9.735,45.119,20
33,Roccaforte Mondovi,7.745,44.318,20
230,Verbania-Pallanza-Intra,8.557,45.93,46
79,Anzano di Puglia,15.285,41.123,20
46,Camerata Picena,13.351,43.578,20
66,Lesmo,9.308,45.649,20
230,Popoli,13.832,42.172,20
24,Auduni,14.431,41.314,20
230,Rezzoaglio,9.386,44.527,28
46,Montallese,11.913,43.062,20
33,Pascarola,14.306,40.977,20
28,Frangarto,11.296,46.479,20
39,Terrigoli,11.145,44.027,20
28,Nichelino,7.646,44.995,20
24,Fonte al Giunco,11.831,43.158,20
39,Villastrada,12.01,43.048,20
94,Piazze,11.919,42.907,20
33,San Paolo di Jesi,13.172,43.454,20
476,Piedimonte Matese,14.375,41.356,33
276,Milazzo,15.238,38.222,20
46,Limatola,14.393,41.141,20
39,Santa Croce sull'Arno,10.781,43.71,20
112,Laterza,16.798,40.629,20
94,Riace Marina,16.526,38.389,20
24,Ramuscello,12.883,45.882,20
192,Rosolini,14.948,36.824,28
94,Oriolo,16.446,40.054,33
39,Scerne,14.038,42.648,20
55,Giuliano di Roma,13.279,41.54,20
46,Fornase,12.161,45.476,20
28,San Mauro Pascoli,12.414,44.106,20
24,Pagazzano,9.671,45.535,20
112,Massa Martana,12.525,42.773,20
24,Schivenoglia,11.076,44.997,20
24,Castel dei Britti,11.434,44.427,20
55,Arsiero,11.354,45.803,20
28,Riomurtas,8.704,39.179,20
24,Medicina,10.677,43.942,20
28,Valle San Giovanni,13.618,42.621,20
24,Arignano,7.903,45.039,20
39,Dragonetti,15.716,40.83,20
28,Padria,8.63,40.396,20
66,Lajatico,10.727,43.473,20
33,Mezzano Superiore,10.425,44.93,20
28,Villa del Bosco,12.031,45.216,20
46,Druento,7.576,45.135,20
39,Pannaconi,16.044,38.694,20
28,Stazione Masotti,10.855,43.91,20
112,Bore,9.793,44.719,20
24,San Polo dei Cavalieri,12.839,42.012,20
79,Mejaniga,11.905,45.459,20
24,Castello,15.941,40.063,20
112,Malonno,10.32,46.123,20
2940,Pantelleria,11.946,36.829,192
46,Postiglione,15.232,40.559,20
33,Budrio,10.741,44.751,20
24,Torre,15.92,38.497,20
39,Marteggia,12.457,45.591,20
55,Cesole,10.648,45.063,20
39,Dattilo,12.637,37.971,20
28,Carrodano Inferiore,9.658,44.241,20
55,Montefano,13.438,43.41,20
24,Neviano degli Arduini,10.316,44.582,20
66,Falconara Marittima,13.383,43.624,24
39,Villa del Ferro,11.471,45.384,20
79,Casaleggio Novara,8.492,45.489,20
28,Fossanova San Marco,11.631,44.793,20
66,Biccari,15.196,41.398,24
33,Zimella,11.376,45.332,20
28,Missiano,11.255,46.485,20
55,Corniolo,11.794,43.908,20
66,Maiero,11.831,44.723,20
79,Pontestura,8.333,45.142,20
39,Valzella,9.925,45.917,20
24,Rustigne,12.482,45.751,20
28,Torre San Marco,12.911,43.646,20
46,Castelfranco di Sopra,11.563,43.62,20
134,Rionero in Vulture,15.672,40.925,20
55,Massa Lombarda,11.826,44.447,20
160,Villa,7.155,44.7,20
28,Prascorsano,7.616,45.368,20
46,Castel de' Ceveri-Casal de' Ceveri,12.425,42.033,20
331,Amatrice,13.294,42.627,39
24,Sabatella,15.015,40.472,20
33,Ciaculli,13.405,38.077,20
46,Castagnole Piemonte,7.567,44.898,20
24,Pauli Arbarei,8.922,39.663,20
24,Casasco,9.004,44.828,20
24,Taggi,11.819,45.463,20
79,Monteiasi,17.381,40.5,20
39,Castelromano,14.198,41.619,20
46,Sasso Pisano,10.865,43.168,20
39,Tonengo-Casale,7.939,45.287,20
33,Merle,11.156,45.272,20
24,Cassiglio,9.611,45.968,20
33,Brattiro,15.888,38.646,20
94,Zungri,15.983,38.655,20
94,Scanno,13.88,41.902,24
39,Besozzo,8.666,45.846,20
46,Fontanelle,12.469,45.834,20
33,Ruviano,14.41,41.211,20
28,Tregasio,9.29,45.679,20
46,Triscina,12.79,37.585,20
28,Cadignano,10.058,45.36,20
79,Rapagnano,13.595,43.161,20
39,Mione-Corte Inferiore,11.029,46.438,20
28,Tortora,15.804,39.942,20
28,Capo Mazzo,14.35,40.925,20
28,San Simone,17.264,40.617,20
28,Fane,10.964,45.58,20
192,Piove di Sacco,12.036,45.297,20
55,Roccavivara,14.6,41.834,20
39,Carbonera,12.29,45.683,20
24,Protonotaro,15.192,38.12,20
112,Salandra,16.318,40.528,24
33,Madonnina,8.308,45.104,20
33,Maranza,11.658,46.813,20
33,Selva dei Molini,11.86,46.891,20
46,Petrella Salto,13.069,42.294,20
24,Lardaro,10.661,45.97,20
24,San Carlo,11.409,44.804,20
94,Paceco,12.556,37.978,20
33,Perticaro,16.891,39.339,20
28,Osiglia,8.198,44.282,20
94,Pragelato-Rua,6.942,45.014,20
33,Sales,13.726,45.748,20
24,Volla,14.344,40.879,20
28,Filetti,13.735,41.481,20
39,Mazara II,12.601,37.682,20
24,Monteveglio Capoluogo,11.101,44.471,20
28,Caprafico,13.766,42.632,20
24,Trarego,8.672,46.035,20
33,Gargallo,10.863,44.743,20
46,Villafranca Tirrena,15.437,38.24,20
39,Pariana,10.635,43.945,20
39,Castelpagano,14.809,41.402,20
94,Agosta,13.035,41.98,20
160,Reggio di Calabria,15.664,38.111,24
33,Casoni,10.738,44.94,20
33,Marcellise,11.107,45.463,20
33,Canepina,12.233,42.383,20
476,Albenga,8.215,44.053,39
28,Archi,15.282,38.198,20
55,Osteria Bianca,10.903,43.694,20
39,Castions,12.794,45.97,20
33,Santa Anatolia,13.294,42.147,20
55,Ostellato,11.945,44.745,20
79,Pianello Val Tidone,9.403,44.947,20
39,Santa Croce,11.255,44.984,20
39,Malchina,13.659,45.785,20
33,Madonna dell'Acqua,10.366,43.748,20
112,San Felice Circeo,13.088,41.233,20
276,Sossano,11.51,45.359,20
46,Marigliano,14.457,40.926,20
28,Saint-Nicolas,7.182,45.716,20
46,Riparbella,10.598,43.364,20
46,Archi,14.995,40.307,20
39,Borgo Montenero,13.102,41.279,20
55,Mazzo di Valtellina,10.254,46.256,20
33,San Marcello Pistoiese,10.793,44.056,20
28,Dogana di Verucchio II,12.411,43.968,20
39,Rimiti,15.266,37.994,20
33,Luogosano,14.991,40.988,20
24,Castelvero,11.204,45.561,20
28,Murge,15.854,40.058,20
28,Isolabona,7.641,43.88,20
28,Serramezzana,15.032,40.245,20
94,Cavour,7.378,44.789,20
24,Falvaterra,13.523,41.504,20
24,La Bassa,10.782,45.28,20
55,Penone,11.201,46.302,20
39,Cavanella d'Adige,12.246,45.112,20
28,Tezze,11.367,45.532,20
28,Montecastrilli,12.489,42.652,20
46,Sant'Agata di Puglia,15.381,41.152,20
79,Bisacquino,13.258,37.705,28
24,Lamalunga,17.345,40.87,20
94,Agugliano,13.388,43.543,20
39,Conflenti,16.285,39.071,20
134,Acquasparta,12.541,42.689,20
24,Cagliari,9.116,39.23,20
28,Cadorago-Caslino al Piano,9.036,45.722,20
55,Stella,13.809,42.887,20
94,Vado Centro,8.431,44.266,20
28,Suelli,9.133,39.563,20
55,Morbello,8.519,44.607,20
33,Torrenova,14.68,38.093,20
160,Marina di Ginosa,16.886,40.428,33
46,Cossoine,8.714,40.431,20
134,Valledolmo,13.826,37.747,20
94,Altipiani di Arcinazzo,13.196,41.847,20
112,Sant'Antonio di Gallura,9.302,40.992,20
55,Albuzzano,9.273,45.188,20
134,Squinzano,18.039,40.436,24
39,San Savino,12.597,43.938,20
39,Santorso,11.381,45.734,20
46,Ranzano,10.25,44.46,20
55,Santa Maddalena,12.24,46.836,20
39,Prarolo,8.478,45.281,20
33,Scopeto Madonna Gulia,12.961,41.424,20
33,Ossolaro,9.942,45.206,20
66,Casperia,12.672,42.341,20
276,Oschiri,9.102,40.72,33
55,Montecchia di Crosara,11.256,45.483,20
24,Fornaci,8.608,45.594,20
24,Bettola-Zeloforomagno,9.313,45.43,20
192,Coreno Ausonio,13.778,41.344,20
79,Buggerru,8.402,39.398,20
39,Magnano,16.056,40.056,20
79,Gambara,10.293,45.256,20
79,Crichi,16.643,38.954,20
24,Vaglierano Basso,8.126,44.879,20
33,Cinto Caomaggiore,12.782,45.829,20
33,Resana,11.958,45.636,20
112,Montechiaro d'Acqui,8.377,44.595,20
397,Muravera,9.574,39.421,66
24,Castellaro Lagusello,10.637,45.375,20
55,Petriolo,13.464,43.221,20
66,Libertinia,14.576,37.53,20
79,Rivignano,13.042,45.878,20
28,Santa Fosca,12.061,46.445,20
46,Maccarese,12.214,41.878,20
28,Ferrania,8.316,44.357,20
55,Trequanda,11.667,43.188,20
66,Casalbuttano,9.962,45.252,20
55,Brumano,9.499,45.855,20
33,San Biagio,7.611,44.482,20
33,Berenzi,10.488,45.282,20
33,Cantarana,12.1,45.199,20
39,Marina di Gioiosa Ionica,16.325,38.307,20
24,Cordona,8.565,45.655,20
55,Pille,10.677,45.361,20
112,Filadelfia,16.293,38.782,20
33,Camugnano,11.089,44.169,20
33,San Leo,12.343,43.897,20
24,Sarmede,12.386,45.979,20
39,Invorio,8.488,45.757,20
24,Roccasecca dei Volsci,13.212,41.479,20
66,Capoiaccio,14.752,41.431,20
33,Frassineto Po,8.534,45.133,20
33,San Michele del Carso,13.561,45.881,20
276,Cerignola,15.901,41.264,66
24,Sant'Andrea,9.994,45.543,20
24,Altolia,15.447,38.075,20
24,Santa Maria d'Oriente,13.273,42.058,20
55,Serrazzano,10.813,43.218,20
112,Bellaria-Igea Marina,12.47,44.14,20
39,Mattina,15.423,40.582,20
46,Sant'Ambrogio,14.087,38.019,20
39,Fratticciola,11.906,43.254,20
33,Gazzola,9.549,44.961,20
66,Sezzadio,8.573,44.787,20
46,Pie la Costa,13.271,42.318,20
24,Quercia Ompiso,14.07,42.411,20
66,Gerace,16.221,38.271,20
39,Puia-Villanova,12.565,45.866,20
55,Forno,8.288,45.936,20
24,Boccaleone,11.801,44.641,20
112,Itri,13.533,41.292,20
46,San Donato Milanese,9.266,45.417,20
46,Tocco da Casauria,13.915,42.213,20
66,Grignano Polesine,11.75,45.044,20
39,Stazione di Aragona - Caldare,13.637,37.382,20
24,Piane d'Archi-Quadroni,14.372,42.103,20
46,Las Plassas,8.985,39.68,20
46,Volania,12.134,44.726,20
66,Castellazzo Bormida,8.576,44.845,20
33,Albonese,8.706,45.292,20
39,Croci di Calenzano,11.213,43.945,20
33,Calalunga-Pietragrande,16.551,38.739,20
24,Vitelleria,14.94,37.605,20
46,Carmignano di Brenta,11.704,45.629,20
28,Ceceraio,12.531,42.757,20
24,Sant'Antonio,8.479,45.631,20
24,Monastero Bormida,8.326,44.648,20
160,Nerito,13.478,42.549,24
28,Pisa,10.415,43.711,20
24,Alluvioni Cambio,8.795,45.001,20
28,Quinto,11.016,45.498,20
24,Mascione,14.703,41.552,20
39,Sale delle Langhe,8.08,44.395,20
33,Nardodipace,16.343,38.475,20
66,Apollinara,16.418,39.702,20
33,Marina Palmense,13.812,43.146,20
28,Aquilano,14.352,42.359,20
39,Bergeggi,8.441,44.247,20
66,Scanzano Jonico,16.699,40.25,20
66,Lamon,11.75,46.048,20
28,Gassino Torinese,7.828,45.132,20
55,Taipana,13.341,46.248,20
39,Lamen,11.887,46.059,20
192,Tione di Trento,10.727,46.036,28
134,Miglionico,16.501,40.568,20
33,Ponte di Nanto,11.595,45.427,20
66,Zerba,9.283,44.668,20
24,Castions di Strada,13.185,45.906,20
39,Croce di Baffi,16.35,39.479,20
33,Licciana Nardi,10.035,44.263,20
39,Montecorvino Rovella,14.978,40.692,20
28,Capannaccia,9.322,41.17,20
66,Dossi,11.569,45.236,20
28,Preabocco,10.86,45.624,20
24,Parlapiani,14.7,41.377,20
94,Monghidoro,11.316,44.219,20
28,Selve,11.277,44.292,20
94,Gais,11.95,46.837,20
134,Bafia,15.206,38.076,20
55,Rivalta di Torino,7.518,45.034,20
33,Dont,12.144,46.355,20
24,Soddi,8.878,40.13,20
24,Castel San Giovanni,12.706,42.835,20
39,Usini,8.538,40.664,20
79,Quattromiglia,16.243,39.354,20
39,San Michele,13.884,41.51,20
46,Montalbano,11.576,44.756,20
112,Collalbo,11.457,46.542,20
28,San Vito,11.716,45.96,20
24,Le Villette,7.769,45.154,20
66,San Giuliano,9.995,45.071,20
55,Castrezzato,9.981,45.512,20
39,Monti d'Arena-Bosco Caggione,17.363,40.355,20
28,Silvano Pietra,8.947,45.04,20
46,Rocca di Papa,12.706,41.761,20
94,Pergine Valsugana,11.241,46.061,20
28,Vellezzo Bellini,9.1,45.269,20
24,Pizzale,9.051,45.039,20
39,Borgomasino,7.988,45.363,20
55,Albano Vercellese,8.381,45.426,20
79,Valdaora di Mezzo,12.031,46.76,20
79,Castelnuovo Berardenga,11.503,43.346,20
94,Montiano,11.223,42.645,20
79,Nucetto,8.06,44.34,20
28,Frassineto,11.265,46.564,20
46,Mercenasco,7.881,45.357,20
55,Frascineto,16.264,39.836,20
39,Valle Bernardo,13.44,41.389,20
33,Civesio,9.246,45.395,20
79,Cerami,14.508,37.81,20
55,Marinella,13.027,45.697,20
28,Nuvolato,11.006,45.032,20
24,Montegrazie,7.985,43.919,20
112,Breuil-Cervinia,7.631,45.935,20
39,Polverigi,13.395,43.524,20
46,Caselle,11.977,45.741,20
28,Migliuso,16.433,38.954,20
192,Ribera,13.265,37.5,39
160,Palma di Montechiaro,13.765,37.193,28
24,San Pellegrino,13.935,42.413,20
160,Camerino,13.069,43.14,24
33,Cavagliano,8.63,45.534,20
1702,Trieste,13.803,45.634,331
66,Pincara,11.61,44.992,20
55,Casteldaccia,13.53,38.054,20
33,Osteria di Piavola,12.13,44.025,20
39,Filorsi,13.988,41.272,20
230,Spinazzola,16.091,40.967,28
33,Saragiolo,11.643,42.835,20
66,Pellegrino Parmense,9.933,44.73,20
39,Fossalta di Portogruaro,12.908,45.795,20
33,Vitellino,12.019,43.11,20
66,Alife,14.333,41.327,20
94,Spina,12.282,42.986,20
33,Cesano Maderno,9.143,45.631,20
28,Maestrello,12.32,43.189,20
94,Ururi,15.016,41.816,20
39,Pienza,11.679,43.078,20
28,Agrate Conturbia,8.56,45.675,20
24,Marina di Saluto,16.149,39.067,20
24,Polcenigo,12.495,46.036,20
39,Villarotta,10.745,44.924,20
24,Pasteria-Lapide,15.224,37.806,20
94,Gonnesa,8.471,39.266,20
24,Cizzago-Comezzano,9.954,45.469,20
66,Castione della Presolana,10.066,45.916,20
33,Brunate,9.094,45.821,20
79,Pancalieri,7.587,44.833,20
28,Porcellengo,12.143,45.707,20
28,Luicciana,11.107,44.028,20
28,Valleve,9.743,46.029,20
28,Allocco,11.263,44.332,20
28,Beni Comuni,12.963,45.719,20
112,Fasana,15.137,40.252,20
66,Ribolla,11.035,42.969,24
39,Marano,12.119,45.463,20
39,Maglio dell'Inferno,12.006,45.803,20
24,Motta Baluffi,10.256,45.056,20
28,Stella,7.437,44.852,20
33,Bastiglia,10.997,44.726,20
66,Lotzorai,9.665,39.969,20
39,San Benedetto,9.775,44.133,20
79,Cornuda,12.006,45.833,20
24,Ponso,11.587,45.192,20
24,Alone,10.291,45.686,20
33,Lesegno,7.966,44.402,20
39,Avoscan-Sot Colaru-Vare,11.987,46.382,20
28,Celleta,13.274,41.579,20
24,Bonassola,9.583,44.184,20
28,Mattie,7.115,45.118,20
28,Noferi-Lavatoio,11.564,43.509,20
79,San Daniele Po,10.18,45.064,20
28,Santa Tecla-Castelpagano,14.921,40.676,20
28,Santo Stefano,14.611,41.613,20
46,Gorgofreddo,17.263,40.887,20
24,Erice,12.587,38.037,20
55,Castelli Calepio,9.894,45.62,20
39,Chilivani,8.936,40.611,20
33,Erve,9.452,45.821,20
39,Nogarole Vicentino,11.287,45.56,20
55,Maddaloni,14.38,41.039,20
28,Bevazzana,13.073,45.689,20
331,Sesto,12.351,46.702,20
24,Bertassi,7.376,45.088,20
24,Denore,11.832,44.833,20
192,Lacedonia,15.423,41.051,20
134,Cesaro,14.713,37.845,20
160,Albinia,11.21,42.505,20
66,Nettuno,12.681,41.493,20
33,Terzo,13.02,46.433,20
55,Albera Ligure,9.066,44.702,20
55,San Cono,14.367,37.291,20
134,Gattinara,8.367,45.618,20
28,Villafranca,11.058,44.835,20
66,Verrayes,7.538,45.764,20
33,San Martino al Tagliamento,12.87,46.014,20
39,Domaso,9.329,46.153,20
55,San Giacomo,16.465,39.524,20
39,Ferruzzano,16.091,38.035,20
46,Burana,11.351,44.914,20
24,Colle Paganello,12.91,43.321,20
39,Magliano Alpi,7.802,44.46,20
28,Capriglio,8.009,45.004,20
79,Finale,14.162,38.018,20
79,Fonzaso,11.801,46.016,20
39,San Costantino,15.688,40.073,20
46,Chiampo,11.283,45.543,20
55,Rosolina Mare,12.322,45.132,20
46,Oniferi,9.17,40.272,20
24,Pescosansonesco,13.884,42.254,20
46,Amandola,13.355,42.979,20
55,Peveragno,7.62,44.331,20
66,Ozzero,8.924,45.367,20
46,San Genesio Atesino,11.33,46.536,20
160,Asola,10.418,45.221,20
24,Barza,8.621,45.798,20
28,Ciausi,7.356,45.027,20
39,Capoliveri,10.375,42.746,20
33,Salina,10.574,44.953,20
55,Mottura,7.524,44.805,20
160,Guglionesi,14.917,41.914,20
39,Ponteromito,15.039,40.896,20
55,Cetica,11.655,43.712,20
39,Cala Gonone,9.631,40.281,20
79,Sestu,9.094,39.298,20
39,Tinchi,16.649,40.358,20
28,Nespoledo-Villacaccia,13.082,45.978,20
24,Tortoreto,13.911,42.809,20
66,San Martino in Freddana-Monsagrati,10.429,43.909,20
24,Castegnato,10.116,45.564,20
24,San Mango d'Aquino,16.193,39.061,20
66,Aprica,10.152,46.153,20
112,Quart,7.423,45.749,20
46,Torrione,8.478,45.325,20
33,Doberdo del Lago,13.539,45.846,20
46,Costano,12.536,43.044,20
28,Andriano,11.232,46.518,20
28,Trebiciano,13.824,45.673,20
134,Gerola Alta,9.551,46.061,20
24,Pradulins,13.178,45.79,20
24,San Cristoforo,15.55,40.091,20
46,Opera,9.212,45.373,20
39,Ludriano,9.933,45.447,20
28,Brovello,8.532,45.843,20
33,Selbagnone,12.11,44.173,20
33,Camini,16.483,38.431,20
160,Valdobbiadene,12.003,45.902,24
55,Guarda,11.326,44.307,20
24,Conca Casale,14.007,41.495,20
192,San Sebastiano,10.268,45.649,20
55,Roncanova,11.111,45.146,20
397,Lavello,15.793,41.048,46
66,Riva presso Chieri,7.872,44.984,20
55,San Mango,15.06,40.263,20
28,Reali-Bosco d'Olmi-Trivio,13.859,41.352,20
66,Gallo,7.983,44.661,20
66,Dipignano,16.252,39.239,20
33,Sauze di Cesana,6.859,44.941,20
46,Pederiva,11.466,45.423,20
46,Borgo Picciano A,16.485,40.71,20
79,Stribugliano,11.459,42.851,20
55,Verghereto,12.005,43.795,20
79,Dovadola,11.886,44.121,20
33,Laces,10.857,46.617,20
24,Paschero-Ponte,7.286,44.478,20
24,Sona,10.825,45.439,20
33,Porcellino,11.51,43.58,20
24,Roncobilaccio,11.231,44.118,20
24,Saccolongo,11.745,45.406,20
24,Pettenasco,8.408,45.819,20
46,Dolzago,9.34,45.767,20
112,Montagnana,11.467,45.233,28
46,Serra,15.163,40.444,20
39,Soave,10.724,45.194,20
28,Gambulaga,11.79,44.745,20
46,Marcellinara,16.485,38.924,20
66,Narbolia,8.576,40.047,20
33,Casalciprano,14.53,41.582,20
28,Madonna del Poggio,11.199,44.626,20
28,Gerolanuova,10.004,45.406,20
66,Cerignale,9.35,44.678,20
66,Belforte del Chienti,13.247,43.162,20
66,Scarnafigi,7.567,44.681,20
28,Vasi,16.447,38.337,20
66,San Nicola Arcella,15.791,39.843,20
39,Bonarcado,8.656,40.098,20
33,Sampieri,14.739,36.724,20
66,Vetulonia,10.971,42.86,20
112,Vallefiorita,16.461,38.776,20
33,Quarti,8.353,45.127,20
39,Pirato,14.754,36.829,20
66,Elva,7.088,44.542,20
24,Pradello,10.996,45.143,20
24,Adami,16.358,39.073,20
33,San Cassiano,11.934,46.571,20
39,Alberona,15.123,41.433,20
94,Salaparuta,13.01,37.758,20
28,Valeriano,12.922,46.167,20
24,Caporio,14.4,41.549,20
24,Sanguinaro,10.144,44.842,20
66,Venaria Reale,7.635,45.124,20
112,Lana,11.156,46.612,20
24,Pisignano,18.272,40.304,20
160,Masone,8.716,44.502,24
39,Castel Frentano,14.353,42.198,20
24,Zona Industriale-Artigianale,14.959,40.632,20
55,Montefollonico,11.745,43.127,20
39,Borgo Fornari-Pieve,8.937,44.589,20
94,Cuglieri,8.567,40.188,20
39,Vallarga,11.729,46.842,20
28,Fusea,12.992,46.424,20
94,Ameglia,9.968,44.068,20
39,Carpiano,9.273,45.341,20
24,Melazzo,8.426,44.644,20
192,Mezzolombardo,11.095,46.208,33
55,Colvalenza,12.486,42.745,20
55,Tartano,9.677,46.107,20
33,Triggianello,17.168,40.926,20
55,Albareto,10.967,44.69,20
24,Vallefredda,13.645,41.735,20
55,Baitoni,10.54,45.808,20
46,Staiti,16.033,38,20
39,Tires,11.526,46.468,20
55,Leno,10.215,45.365,20
66,Murano,12.352,45.457,20
24,Palo-Patare,8.547,44.491,20
28,Ortovero,8.098,44.055,20
39,Maciano,12.284,43.843,20
28,Mathi,7.542,45.255,20
24,Paupisi,14.665,41.197,20
46,Coldragone,13.602,41.556,20
571,Alessandria,8.619,44.913,94
39,Battaglia,13.637,42.714,20
46,Giardini-Naxos,15.266,37.824,20
28,Marina di San Vito,14.45,42.305,20
134,Caoria,11.68,46.196,20
24,San Giacomo,8.626,44.378,20
33,Columbrina-Za Minica,13.231,38.153,20
33,Cappellazzo,7.771,44.65,20
79,Spotorno,8.414,44.229,20
33,Serravalle di Chienti,12.952,43.072,20
33,Orsomarso,15.909,39.799,20
24,Motta,7.671,44.835,20
55,San Elpidio,13.181,42.24,20
33,Crotta d'Adda,9.854,45.159,20
33,Madonna del Pasco,7.761,44.365,20
79,Calasetta,8.368,39.108,20
33,Povo,11.164,46.067,20
79,Condino,10.6,45.89,20
28,Montemarciano,13.306,43.639,20
39,Nibbiola,8.656,45.371,20
46,Tosi,11.534,43.749,20
24,Monte Magre,11.337,45.682,20
28,Matzaccara,8.453,39.132,20
46,Monteflavio,12.832,42.109,20
28,Castiglione,14.306,41.726,20
33,Bosco-Belloro,16.125,38.144,20
33,Pozzoleone,11.667,45.648,20
24,Sciaves,11.664,46.768,20
66,Formigine,10.847,44.57,20
24,Marchirolo,8.833,45.948,20
55,Calozzo,9.276,46.102,20
39,Maniga,7.737,44.744,20
79,Parenti,16.412,39.161,20
39,Borgo Revel,8.023,45.191,20
55,Pietralta,13.448,42.71,20
55,Borgo Bainsizza,12.791,41.484,20
33,Leva,11.533,45.665,20
28,Subbiano,11.872,43.579,20
55,Sospiro,10.158,45.108,20
66,Castroregio,16.478,39.992,20
33,Macchia Grande,15.26,40.71,20
79,Selci-Lama,12.195,43.512,20
46,Roccagiovine,12.899,42.05,20
39,Verdesina,10.713,46.056,20
79,Filettino,13.326,41.891,20
33,Ponzano di Fermo,13.661,43.104,20
66,Ulignano,11.082,43.504,20
55,Gualtieri,10.63,44.898,20
192,Pieve Santo Stefano,12.04,43.673,24
24,Bolzano,12.187,46.164,20
79,Catignano,13.947,42.346,20
160,La Thuile,6.951,45.714,20
28,Riscone,11.941,46.781,20
39,Valeggio sul Mincio,10.738,45.355,20
134,Serramazzoni,10.79,44.429,20
46,Carrito,13.719,42.027,20
55,Carmignanello,11.141,44,20
94,Poggio Moiano,12.881,42.205,24
39,Albare Stazione,10.757,45.573,20
79,Pierantonio,12.392,43.264,20
94,Cortina-Glera-Selva,12.613,46.119,20
24,Grumello del Monte,9.877,45.637,20
33,Prado,9.221,45.205,20
28,Fontanello,10.735,45.381,20
39,Molare,8.6,44.619,20
24,Carapelle Calvisio,13.682,42.3,20
46,Trecchina,15.776,40.026,20
46,San Martino,11.418,46.688,20
28,Durazzanino,12.099,44.282,20
571,Fermignano,12.642,43.686,55
66,San Lazzaro,11.414,44.467,20
24,Sant'Albino,11.807,43.071,20
66,Corio,7.532,45.314,20
28,Sant'Antonio,11.22,45.755,20
33,Berzo San Fermo,9.901,45.719,20
33,Rocchetta Cairo,8.299,44.428,20
55,Carpinello,12.117,44.238,20
94,Castelnuovo Vomano,13.848,42.629,20
24,Tuna,9.577,44.981,20
39,Prata di Principato Ultra,14.835,40.985,20
39,Nus,7.467,45.74,20
46,Bagnoli Irpino,15.073,40.833,20
55,Capovalle,10.545,45.753,20
33,Sant'Apollinare,11.822,45.04,20
134,Sinnai,9.203,39.304,20
24,Romanore,10.754,45.063,20
33,Marina San Nicola,12.12,41.932,20
24,Verrone,8.113,45.512,20
66,Voghiera,11.751,44.759,20
79,Cupra Marittima,13.859,43.03,20
112,Torpe,9.68,40.628,20
28,Vestigne,7.955,45.386,20
24,Castrocucco,15.764,39.937,20
55,Monno,10.339,46.213,20
28,San Potito,11.938,44.433,20
55,Badia Polesine,11.493,45.097,20
94,Urbania,12.521,43.668,20
66,Alberoro,11.807,43.366,20
28,Barzano,9.313,45.733,20
46,Vicchio,11.464,43.933,20
94,Castelcivita,15.233,40.494,20
33,Monticello,8.596,45.376,20
28,San Marino,10.915,44.808,20
39,Celle di Macra,7.18,44.481,20
33,Pollenza Scalo,13.371,43.242,20
28,Casalbeltrame,8.467,45.438,20
33,Matinella,15.068,40.503,20
24,Chia,12.277,42.471,20
39,Macere,12.859,41.748,20
33,Ceserano,10.054,44.192,20
28,Begosso,11.414,45.147,20
134,Tula,8.985,40.733,20
571,Siena,11.334,43.32,94
79,Vedeseta,9.543,45.89,20
39,Cinquecerri,10.328,44.349,20
79,Borgomaro,7.945,43.975,20
55,Budoia,12.533,46.046,20
66,Mascali,15.199,37.758,20
66,Aragona,13.617,37.401,20
55,Anfo,10.494,45.766,20
46,Mortizzuolo-Ponte San Pellegrino,11.145,44.872,20
112,Gagliano Castelferrato,14.536,37.711,20
28,Lasen,11.914,46.072,20
79,Classe,12.238,44.377,20
46,Castello-Prato,11.621,43.744,20
33,Pianello,12.539,43.143,20
94,Entracque,7.397,44.239,20
33,Graniti,15.225,37.89,20
55,Marche,12.038,47.021,20
33,Cecina,10.875,43.846,20
55,Terme,15.157,38.136,20
28,Uppello,12.738,42.956,20
66,Luzzara,10.69,44.961,20
46,Piavon,12.525,45.764,20
24,Settimo Rottaro,7.994,45.408,20
39,Trinita d'Agultu,8.914,40.985,20
28,Monte Rotondo,13.827,41.514,20
33,Villafranca Piemonte,7.5,44.779,20
24,Abazia,8.433,44.866,20
28,Il Romito,10.645,43.649,20
55,Angera,8.59,45.777,20
39,Olmeto,12.323,42.986,20
28,Vigonovo,12.57,45.975,20
66,Contursi Terme,15.241,40.651,20
79,Sumirago,8.781,45.74,20
39,Cortaccione,12.759,42.764,20
160,Certaldo,11.04,43.547,20
79,Gergei,9.1,39.7,20
39,La Passerina,11.56,44.352,20
33,Starza Vecchia,14.41,40.891,20
33,Padula,16.269,39.337,20
112,Guastalla,10.654,44.922,20
55,San Carlo,13.918,41.311,20
46,San Sossio Baronia,15.201,41.072,20
24,San Martino sul Fiora,11.595,42.673,20
46,San Severino Marche,13.181,43.233,20
28,Madonna del Pilone,7.749,44.697,20
55,Raveo,12.871,46.434,20
28,Grinzano,7.763,44.621,20
46,San Giorgio di Lomellina,8.789,45.175,20
39,Piazza di Brancoli,10.54,43.942,20
55,Fontecchio,13.606,42.231,20
28,Valvestino,10.587,45.761,20
24,Ponte di Cetti,12.077,42.38,20
39,Tuglie,18.097,40.075,20
79,Vas,11.937,45.939,20
55,Greve in Chianti,11.315,43.587,24
24,Montopoli di Sabina,12.692,42.245,20
24,Lentigione-Sorbolo a Mane,10.475,44.861,20
94,Magazzeno,14.855,40.613,20
24,Prati,11.465,46.9,20
94,Paglieta,14.498,42.164,20
134,Novellara,10.73,44.845,20
28,Montenero,12.404,42.536,20
24,Cavenago d'Adda,9.598,45.283,20
66,Camposampiero,11.934,45.566,20
39,Monte San Marino,13.307,41.71,20
24,Gerbola,7.566,44.536,20
24,San Zeno,10.83,45.32,20
79,Ortueri,8.987,40.036,20
55,Portico di Romagna,11.78,44.025,20
134,Berchidda,9.165,40.786,20
79,Casale di Scodosia,11.465,45.196,20
24,Torbecchia,10.867,43.95,20
28,Palazzo Canavese,7.979,45.459,20
79,Ficulle,12.066,42.836,20
55,San Vito sullo Ionio,16.405,38.709,20
46,Borgo San Giacomo,9.968,45.35,20
28,Tor di Bruno,12.599,41.664,20
79,Colle Carino,13.604,41.668,20
24,Cadriano,11.395,44.55,20
331,Isernia,14.24,41.6,79
46,Sant'Ilario,15.666,40.791,20
94,Lago,16.148,39.173,20
46,Pantanella,12.261,43.107,20
33,Moimacco,13.373,46.091,20
94,Passignano sul Trasimeno,12.131,43.192,20
55,Frisanco,12.726,46.212,20
46,Isola del Piano,12.784,43.737,20
112,Cupramontana,13.115,43.445,20
28,Montefranco,12.765,42.598,20
39,Motta Santa Lucia,16.292,39.091,20
66,Lama di Reno,11.216,44.365,20
192,Acqui Terme,8.463,44.677,55
46,Centro Urbano,15.318,40.819,20
33,Piani Poggio Fidoni,12.797,42.392,20
33,Semivicoli,14.214,42.277,20
24,Castellina,16.228,38.539,20
24,Spineto Scrivia,8.874,44.837,20
822,La Spezia,9.85,44.114,112
24,Castellaro,7.869,43.864,20
55,Basaluzzo,8.718,44.769,20
55,Quingentole,11.046,45.039,20
160,Castelsaraceno,15.991,40.161,20
66,Albignano,9.494,45.501,20
28,Canale Nuovo,12.133,42.688,20
28,Paludea,12.902,46.199,20
79,Margherita Iv,17.105,39.135,20
112,Vallese,11.089,45.327,20
33,Turano Lodigiano,9.623,45.249,20
24,Roe Alte,12.116,46.135,20
28,Due Sture,8.37,45.198,20
33,Bellombra,12.034,45.011,20
55,Verolengo,7.968,45.19,20
55,San Giorgio,13.533,42.595,20
39,Marocchi,7.819,44.94,20
39,Greti,11.306,43.607,20
46,Polaveno,10.136,45.656,20
94,San Floriano del Collio,13.596,45.98,20
55,Lucignano,11.745,43.271,20
79,Alesso,13.053,46.318,20
55,Salvano,13.79,43.162,20
33,Linera,15.135,37.665,20
66,Ponton dell'Elce,12.235,42.023,20
94,Canazei,11.772,46.476,20
46,Segno,8.385,44.257,20
33,Acquacalda,15.758,38.208,20
55,Appignano del Tronto,13.662,42.898,20
46,Specchia,18.298,39.937,20
55,Piancastagnaio,11.686,42.85,20
112,Canino,11.753,42.467,20
46,Pescaglia,10.412,43.965,20
46,Carpaneto Piacentino,9.789,44.915,20
94,Cittadella,11.78,45.65,24
24,Casape,12.886,41.907,20
55,Santa Maria della Versa,9.299,44.988,20
55,Solero,8.508,44.918,20
55,Grotte di Castro,11.868,42.674,20
39,Arveaco,10.455,45.691,20
66,Bocca di Piazza,16.485,39.164,20
24,Carlino,13.185,45.804,20
28,Sant'Anna Pelago,10.555,44.191,20
33,Vicomarino,9.393,44.982,20
28,Santa Domenica,15.863,38.664,20
28,Bettola,9.493,45.563,20
39,Mazzano Romano,12.397,42.21,20
46,Piazzolla,15.745,40.356,20
39,Calimera,16.018,38.556,20
24,Navarons,12.755,46.224,20
28,Rondissone,7.964,45.245,20
39,Fonte San Giovanni,14.437,41.967,20
24,Marina,16.602,39.94,20
24,Garzeno,9.25,46.134,20
33,Corne,11.744,45.025,20
24,Assisi,12.624,43.067,20
331,Panarea,15.076,38.637,33
46,Montemerlo,11.709,45.378,20
39,Mariana Mantovana,10.487,45.193,20
55,Vallongo,7.751,44.902,20
39,Antessano,14.778,40.733,20
476,Ventotene,13.43,40.796,79
79,Mordano,11.812,44.398,20
79,Tredozio,11.74,44.077,20
79,Anghiari,12.053,43.541,20
28,Chiusavecchia,7.984,43.968,20
39,Santa Maria a Valle,14.079,42.593,20
33,Bancone di Sopra,15.75,40.712,20
24,Lavandaio,16.173,39.599,20
46,San Martino,8.791,45.447,20
33,Barbavara,8.782,45.344,20
112,Castellaneta,16.935,40.631,20
46,Fino Mornasco,9.047,45.743,20
28,Miazzina,8.522,45.976,20
39,Barbara,13.027,43.579,20
66,Maddalena,7.029,44.622,20
33,Santa Severina,16.91,39.148,20
46,Cogollo,11.156,45.544,20
55,Chiusaforte,13.304,46.406,20
94,Alagna Valsesia,7.938,45.851,20
39,Bortigali,8.837,40.283,20
66,Lari,10.592,43.568,20
24,Crepaldo,12.696,45.596,20
24,Latina,14.273,41.29,20
24,San Sebastiano,11.213,45.925,20
33,Giardoni,14.426,41.12,20
28,Spirano,9.669,45.582,20
28,Terno d'Isola,9.534,45.687,20
160,Frosolone,14.447,41.6,24
33,Musellaro,13.954,42.193,20
276,Pinzolo,10.763,46.158,28
46,Orte Scalo,12.408,42.434,20
331,Merano,11.161,46.668,39
39,Agerola,14.545,40.638,20
24,Villa Sant'Angelo,13.537,42.27,20
33,Carfizzi,16.976,39.307,20
66,Ciggiano,11.711,43.364,20
28,Cassacco,13.195,46.177,20
112,Campofiorito,13.269,37.754,20
571,Sapri,15.629,40.075,66
79,Santo Stefano in Aspromonte,15.79,38.17,20
24,Merlino,7.446,45.015,20
192,Pontremoli,9.879,44.375,28
79,Sassi,10.393,44.083,20
46,Magnacavallo,11.181,45.005,20
24,Brescello,10.511,44.895,20
94,Monte Cavallo,13.002,42.994,20
46,Cavallerleone,7.663,44.739,20
160,Sant'Angelo Lodigiano,9.411,45.237,20
24,Nocelleto,14.015,41.172,20
39,Borso del Grappa,11.788,45.81,20
28,Novedo,9.164,45.267,20
39,Cerneglons,13.311,46.053,20
28,Stazione Vergiano,12.501,44.046,20
55,Marina di Davoli,16.549,38.664,20
33,Appiano Gentile,8.98,45.736,20
24,Cartoceto,12.883,43.765,20
39,Stazione,12.54,42.727,20
33,Torretta-Manfredonia,17.788,40.578,20
28,Sillavengo,8.441,45.521,20
39,Faggiano,14.521,41.107,20
28,San Panfilo d'Ocre,13.475,42.285,20
134,Castiglione delle Stiviere,10.483,45.391,20
331,Formia,13.668,41.258,79
39,Sergnano,9.701,45.429,20
46,Venaus,7.009,45.158,20
230,Varallo,8.259,45.814,24
79,Marzanello,14.11,41.316,20
28,San Martino Spino,11.241,44.934,20
28,Barone,16.638,38.852,20
28,Maresso,9.354,45.689,20
55,Capitan Loreto,12.648,43.018,20
24,Cavernago,9.766,45.625,20
94,Castano Primo,8.778,45.553,20
33,Veglia,7.79,44.673,20
33,Pietrastornina,14.729,40.992,20
46,San Bartolomeo a Quarate,11.335,43.69,20
39,Gamberale,14.209,41.906,20
24,Dolce,10.852,45.601,20
79,Corsico,9.108,45.432,20
46,Tiarno di Sopra,10.669,45.888,20
39,Castroreale,15.21,38.099,20
55,Limena,11.844,45.473,20
66,Mirto,16.778,39.605,28
39,Ogliastro Cilento,15.046,40.352,20
24,Pollena Trocchia,14.379,40.855,20
28,Campozillone,14.003,41.385,20
28,Mosciano Sant'Angelo,13.888,42.747,20
66,Monsano,13.249,43.562,20
33,Settepolesini,11.459,44.897,20
33,Sant'Angelo Limosano,14.603,41.693,20
28,Montevago,12.986,37.702,20
986,Gela,14.243,37.07,160
24,Crespignaga,11.942,45.794,20
79,Cantiano,12.629,43.476,20
160,Pietramelara,14.188,41.272,20
39,Montecatini Val di Cecina,10.749,43.393,20
55,Gavello,11.179,44.926,20
160,Desenzano del Garda,10.573,45.458,46
79,Rignano sull'Arno,11.453,43.725,20
33,Taiedo,12.774,45.89,20
46,Vasia,7.954,43.932,20
66,Pretoro,14.141,42.217,20
276,Samugheo,8.941,39.948,46
24,Fontana,11.238,44.385,20
33,Taviano,18.087,39.983,20
33,Nova Milanese,9.2,45.591,20
46,Ginestra Fiorentina,11.074,43.708,20
66,Gazoldo degli Ippoliti,10.582,45.202,20
33,Centrale,11.481,45.728,20
28,Montagnaga,11.237,46.099,20
33,Puglianello,14.45,41.224,20
46,Borgo Scoline,11.534,44.827,20
33,Semiana,8.732,45.137,20
66,La Maddalena,9.015,39.147,20
66,Savelli,13.127,42.726,20
24,Gassano,10.094,44.204,20
46,Poiano,11.018,45.472,20
39,Stazzema,10.31,43.993,20
39,Loreto,13.62,43.44,20
55,Stazione di Populonia,10.54,42.996,20
24,Alice,8.803,44.661,20
28,San Pietro Novello,12.432,45.665,20
24,Cerro Maggiore,8.953,45.595,20
39,Esanatoglia,12.95,43.252,20
46,Calvera,16.143,40.149,20
66,Montalto,14.161,41.742,20
46,Mercatale,11.232,43.635,20
79,Marina,15.981,39.463,20
79,Satriano di Lucania,15.642,40.541,20
276,Otranto,18.482,40.149,24
39,Policastrello,16.049,39.687,20
28,Sant'Agnese,11.186,46.105,20
33,Spineda,10.512,45.061,20
24,Matino,18.134,40.027,20
28,Masio,8.408,44.87,20
28,San Vincenzo-Cerchiara,14.284,42.188,20
66,Resuttano,14.029,37.679,20
192,Recco,9.14,44.364,20
28,San Zenone al Po,9.36,45.108,20
79,Lucito,14.687,41.732,20
28,Costa di Rovigo,11.695,45.049,20
28,Frattamaggiore,14.273,40.939,20
46,Fortezza,11.609,46.791,20
24,Cassana,9.69,44.213,20
46,Piossasco,7.469,44.99,20
33,Roviano,12.997,42.025,20
55,Cadine,11.067,46.089,20
24,Arixi,9.155,39.535,20
39,Cominello,10.477,45.434,20
476,Monopoli,17.296,40.952,66
24,Seveso,9.137,45.642,20
24,Quartaccio,12.392,42.318,20
28,Vigo di Fassa,11.675,46.418,20
66,Monteverdi Marittimo,10.715,43.178,20
33,Molinetto,10.359,45.502,20
28,Ospitaletto,10.605,45.136,20
28,Lago,12.216,45.987,20
160,Cassibile,15.199,36.979,20
331,Bosa,8.492,40.296,55
1419,Aosta,7.317,45.737,134
33,San Nicolella,14.964,38.111,20
24,Borgo Masotti,12.103,44.476,20
46,Bevera,7.578,43.824,20
55,Erchie,17.733,40.439,20
66,Sandra,10.785,45.46,20
55,Quargnento,8.488,44.945,20
55,Guidonia,12.724,41.994,20
55,Sa Serra,9.474,40.702,20
28,Alviano,12.298,42.59,20
66,Napoli,14.276,40.859,20
66,Guazzora,8.844,45.013,20
112,Monselice,11.753,45.241,20
28,Costa de' Grassi,10.374,44.402,20
79,Sant'Anna,17.072,39.003,20
39,Vallalta,11.01,44.944,20
134,Lavis,11.11,46.143,20
39,Agnino,10.08,44.244,20
28,Roggio,10.295,44.14,20
33,Oliveto Lucano,16.186,40.536,20
28,La Villa-Farneta,11.868,43.223,20
33,Colle di Fuori,12.806,41.803,20
94,Barumini,9.004,39.701,20
28,Labro,12.8,42.526,20
39,Piovera,8.736,44.958,20
46,Farra d'Isonzo,13.517,45.906,20
24,Lemizzone,10.751,44.732,20
24,Montisi,11.653,43.158,20
24,Vocabolo Campetella,12.762,42.01,20
66,Scandicci,11.153,43.767,20
39,Beltiglio-San Giovanni,14.752,41.062,20
39,Annone Veneto,12.686,45.787,20
24,Rongolise,13.917,41.262,20
33,Romano d'Ezzelino,11.768,45.779,20
24,Maristella Porto Conte,8.214,40.593,20
28,Passano,12.595,43.954,20
66,Marrubiu,8.638,39.752,20
33,Marina di Montemarciano,13.338,43.653,20
94,Roccabianca,10.22,45.007,20
39,Moniga del Garda,10.538,45.527,20
66,Cannigione,9.44,41.111,20
192,Vernante,7.534,44.246,20
24,Sabbioni,10.626,45.029,20
55,Rino,10.354,46.15,20
24,Vigarano Mainarda,11.495,44.84,20
28,Ono San Pietro,10.328,46.017,20
39,Cuturella,16.779,38.987,20
24,Friola,11.677,45.677,20
39,Giuliano Teatino,14.278,42.307,20
55,Balestrino,8.17,44.124,20
33,Nosedole,10.983,45.12,20
55,Vagliano,12.368,43.147,20
46,Coppito,13.339,42.372,20
39,Scafa,13.999,42.266,20
28,Piedipaterno,12.863,42.769,20
46,San Giovanni in Marignano,12.71,43.939,20
112,Spiazzo,10.739,46.104,20
33,Castri di Lecce,18.263,40.274,20
39,Piosina,12.2,43.489,20
39,Torralba,8.764,40.514,20
33,Crava,7.746,44.431,20
28,Collazzone,12.436,42.901,20
39,Gravellona,8.765,45.327,20
28,Vellai,11.939,46.038,20
94,Aldino,11.353,46.367,20
160,San Marco dei Cavoti,14.88,41.31,28
397,Campo Tures,11.954,46.92,28
46,Montelago,10.583,44.454,20
134,Casole d'Elsa,11.048,43.34,20
33,Mornese,8.756,44.639,20
94,Serra de' Conti,13.036,43.542,20
24,Grancetta,13.361,43.593,20
39,Vobbia,9.039,44.601,20
55,Monterosso Calabro,16.288,38.718,20
55,Montasola,12.68,42.386,20
397,Modena,10.918,44.656,79
160,Ferentillo,12.787,42.621,20
39,Belmonte in Sabina,12.892,42.316,20
192,Pozzallo,14.849,36.73,24
46,Desana,8.36,45.27,20
66,Loreto Aprutino,13.984,42.434,20
28,Torricella,10.707,45.037,20
33,Villa,9.481,46.331,20
33,Latte,7.569,43.795,20
24,Caldaro sulla Strada del Vino,11.241,46.413,20
55,Legnaro,11.967,45.341,20
28,Secli,18.107,40.132,20
46,Calcinelli,12.918,43.753,20
66,Rionero Sannitico,14.138,41.713,20
192,Copertino,18.057,40.27,24
24,Gariga,9.684,44.983,20
28,Bauducchi,7.713,44.964,20
33,Gavignano Sabino,12.619,42.273,20
24,Recetto,8.436,45.46,20
46,Assergi,13.506,42.416,20
24,San Mariano,12.304,43.084,20
79,Smirra,12.671,43.584,20
28,Santa Teresa di Riva,15.368,37.947,20
46,San Vincenzo Valle Roveto Superiore,13.524,41.834,20
24,Spartimento,14.47,40.892,20
28,Poggio Picenze,13.539,42.321,20
24,Cardini,9.453,44.292,20
66,Vico Equense,14.431,40.66,20
134,Arsoli,13.018,42.04,20
55,Ponteginori,10.744,43.335,20
24,Masi,11.256,45.472,20
94,San Pietro,11.678,46.643,20
397,Terralba,8.638,39.718,39
39,Meano,11.116,46.125,20
33,Belvedere Ostrense,13.167,43.581,20
33,Ponte Chiona,12.685,42.975,20
160,Colleferro,13.005,41.726,33
112,Vinchiaturo,14.591,41.493,20
33,Pieve,10.338,45.672,20
46,Campodonico,12.864,43.229,20
39,Giovecca,11.877,44.533,20
33,Santa Maria,13.159,45.971,20
28,Frabosa Sottana,7.798,44.302,20
24,San Vittorino,14.105,41.665,20
28,Pietraferrazzana,14.374,41.969,20
39,Cavallotta,7.581,44.608,20
28,Maserno,10.931,44.254,20
55,Druogno,8.434,46.135,20
39,Cappadocia,13.28,42.006,20
39,Villaputzu,9.574,39.441,20
94,Bionaz,7.422,45.875,20
28,Scandolara Ripa d'Oglio,10.156,45.222,20
28,Monticelli,12.187,44.916,20
33,La Torba,11.328,42.415,20
46,Passaggio,12.507,43.022,20
33,Sugremaro,9.674,44.493,20
112,Romano di Lombardia,9.754,45.52,24
46,Albisola Superiore,8.514,44.337,20
66,Baranello,14.558,41.527,20
66,Cornaredo,9.027,45.497,20
160,Muro Lucano,15.484,40.751,39
33,Salionze,10.723,45.404,20
24,Tiggiano,18.365,39.904,20
39,Cornaleto,9.751,45.242,20
39,Besate,8.97,45.313,20
39,Serravalle,12.047,44.966,20
230,Orzinuovi,9.924,45.404,28
55,Marano sul Panaro,10.973,44.457,20
55,Pietracamela,13.554,42.523,20
39,Preturo,13.295,42.377,20
55,Cimolais,12.437,46.288,20
33,Camporotondo di Fiastrone,13.266,43.132,20
112,Grimaldi,16.234,39.141,20
66,Carro,9.606,44.274,20
24,Blessano,13.104,46.041,20
33,Cancello,16.431,38.942,20
66,Cabella Ligure,9.095,44.676,24
33,Formigara,9.771,45.224,20
33,Lettopalena,14.156,42.004,20
28,Vaiano Valle,9.215,45.429,20
46,Selvena,11.643,42.767,20
28,Montemarano,14.998,40.915,20
160,San Vigilio,11.935,46.699,20
28,Sarmego,11.675,45.501,20
33,Zugliano-Terenzano-Cargnacco,13.224,46.007,20
33,San Michele,11.689,45.777,20
39,Piozzano,9.495,44.926,20
24,Traghetto,11.687,44.641,20
46,Meda,9.16,45.658,20
33,Vigliano,13.219,42.348,20
476,Martina Franca,17.341,40.701,55
66,Ripatransone,13.762,42.996,20
28,Scandolara,12.093,45.617,20
79,Aritzo,9.192,39.959,20
94,Sacile,12.507,45.959,24
276,Fossano,7.721,44.55,33
24,Capergnanica,9.643,45.337,20
46,Solarolo,10.598,45.238,20
46,Paisco,10.293,46.079,20
24,Griante,9.236,45.995,20
28,Manciano,11.881,43.336,20
24,Pellizzari,8.677,45,20
46,Buonvicino,15.884,39.689,20
24,Ca' Stocco,12.66,45.526,20
39,Rittana,7.377,44.355,20
112,Osidda,9.218,40.524,20
160,Benetutti,9.168,40.458,24
28,Roccaspromonte,14.558,41.602,20
28,Settimo Vittone,7.831,45.549,20
28,Variano,13.11,46.028,20
39,Castellaccio,10.365,43.486,20
24,Castelmezzano,16.047,40.53,20
39,Belpasso,14.983,37.595,20
24,Santa Maria le Grotte,16.142,39.476,20
33,Borgo Carso,12.893,41.535,20
46,Galliavola,8.818,45.097,20
46,Pieve Cesato,11.958,44.337,20
94,Quarona,8.269,45.763,20
24,Fardella,16.17,40.113,20
46,Sogliano al Rubicone,12.301,44.005,20
134,Roccaraso,14.081,41.847,20
28,Maremmana,11.001,43.711,20
79,Frisa,14.369,42.263,20
24,Castelfranco di Sotto,10.743,43.7,20
28,Nuchis,9.151,40.917,20
24,Asciano,10.467,43.748,20
112,Albino,9.797,45.761,20
46,Medea,13.424,45.918,20
28,Flussio,8.541,40.267,20
66,Sant'Alessio Siculo,15.35,37.925,20
24,Magre sulla Strada del Vino,11.211,46.288,20
39,Aschi Alto,13.735,41.97,20
112,Moretta,7.536,44.763,20
28,Stazione di Torano,16.212,39.5,20
46,Villanova,11.98,44.248,20
66,Valdottavo,10.477,43.942,20
79,Maletto,14.863,37.83,20
79,San Nicolo,10.923,46.511,20
79,Bancali,8.462,40.738,20
79,Buccheri,14.85,37.125,20
28,Calosso,8.227,44.74,20
24,Defensola,16.154,41.897,20
46,Cadilana,9.545,45.329,20
28,Mis,12.084,46.152,20
55,Fortunago,9.183,44.923,20
33,Paganico,12.997,42.189,20
55,Latiano,17.72,40.551,20
28,Roreto,7.143,44.989,20
39,Sant'Antonio,10.416,46.462,20
46,Mazzeo,15.301,37.872,20
33,Azzago,11.047,45.546,20
79,Salerni,16.425,39.376,20
46,Ponzano,12.207,45.72,20
79,Priola,8.021,44.243,20
112,Trestina,12.237,43.368,20
33,Serravalle,8.145,44.947,20
28,Limite,10.985,43.745,20
28,La Pieve,11.428,43.587,20
33,San Prospero,10.4,44.779,20
39,Stazione,7.949,44.963,20
79,Pereto,13.102,42.058,20
66,Borgo Tossignano,11.59,44.277,20
24,Coldrano,10.825,46.621,20
33,Berruiles,9.662,40.727,20
33,Barbariga,10.055,45.405,20
160,Ostra,13.158,43.614,20
192,Levanto,9.619,44.176,28
94,Annunziata,14.355,41.121,20
24,Pimentel,9.065,39.486,20
33,Montenero Sabino,12.814,42.282,20
39,Montaldeo,8.73,44.668,20
46,Stagno Lombardo,10.088,45.073,20
33,Fagare,12.426,45.708,20
28,Carvico,9.481,45.703,20
112,Farra d'Alpago,12.357,46.12,20
55,Acquaria,10.764,44.278,20
28,Piegolelle-San Bartolomeo,14.825,40.686,20
39,Fossamerlo,12.327,45.896,20
33,Bordano,13.106,46.315,20
39,Molini di Tures,11.942,46.9,20
94,Bruzzano Zeffirio,16.082,38.013,20
46,Sigillo,13.079,42.497,20
46,Santa Maria Imbaro,14.449,42.218,20
66,Soveria Mannelli,16.372,39.084,20
33,Laino Castello-Nuovo Centro,15.977,39.936,20
24,Massarella,10.799,43.78,20
28,Ponte Nova,11.48,46.426,20
24,Mezzana Bigli,8.848,45.06,20
55,Caravino,7.96,45.398,20
79,Palazzolo sull'Oglio,9.889,45.593,28
55,Castel di Lucio,14.312,37.887,20
24,Nomi,11.069,45.93,20
39,Bagazzano,11.024,44.657,20
112,Ovindoli,13.516,42.137,20
55,Melendugno,18.337,40.275,20
39,Squillace Lido,16.57,38.779,20
33,Orsoleto,12.502,44.082,20
33,Zermen,11.944,46.024,20
24,Pradipozzo,12.76,45.782,20
46,Pallare,8.28,44.329,20
39,San Martino,8.419,45.063,20
28,Casino,10.389,44.448,20
39,Castelnuovo,13.451,42.087,20
112,Colle Sannita,14.835,41.364,20
79,Campochiaro,14.508,41.447,20
160,Copparo,11.827,44.895,33
24,San Rocco,7.951,44.758,20
24,Lizzola,10.016,46.023,20
28,Sorafurcia,12.002,46.747,20
94,Alberese,11.106,42.668,20
39,Premeno,8.597,45.979,20
24,Civitaluparella,14.303,41.945,20
685,Belluno,12.217,46.151,66
55,Gaggi,15.221,37.861,20
33,Santo Iona,13.51,42.099,20
33,Corcumello,13.347,42.009,20
33,Maesta,13.392,43.208,20
24,Piazzolo,9.671,45.98,20
94,Saluggia,8.011,45.238,20
46,Sequals,12.828,46.166,20
55,Mantignana,12.291,43.16,20
55,Pasturo,9.448,45.948,20
24,Casteltodino,12.508,42.664,20
33,Vietri sul Mare,14.725,40.669,20
46,Cereglio,11.069,44.306,20
39,Carnago,8.836,45.722,20
33,Magliolo,8.246,44.191,20
46,Maretto,8.033,44.945,20
55,Roccelletta,16.596,38.816,20
94,San Quirico d'Orcia,11.606,43.059,24
28,Cologne,9.939,45.581,20
28,Cavignaca,9.646,44.514,20
24,Gorghetti,11.798,45.123,20
28,Castel Castagna,13.717,42.543,20
79,San Bartolomeo,7.663,44.265,20
33,Pianoscafo-Liattughelle,16.468,39.716,20
24,Montanari,14.123,41.244,20
112,Alimena,14.113,37.694,20
33,Calvecchia-San Donato,12.601,45.647,20
28,Fregona,12.339,46.003,20
39,Villa Carcina,10.194,45.632,20
33,Monte Porzio Catone,12.714,41.812,20
39,Angri,14.568,40.743,20
24,Arten,11.83,46.009,20
55,Calamonaci,13.29,37.526,20
33,Caniparola,9.998,44.11,20
94,Chivasso,7.891,45.193,20
160,Olmedo,8.38,40.651,24
39,Forma,13.088,41.674,20
28,San Martino alla Palma,11.155,43.753,20
39,Ferrazze,11.079,45.444,20
39,Pedavena,11.882,46.038,20
33,Anterivo,11.366,46.278,20
134,Stroncone,12.655,42.502,20
46,Civitella San Paolo,12.578,42.198,20
112,Carpegna,12.338,43.782,20
230,San Foca,18.404,40.299,20
94,Guarcino,13.314,41.799,20
55,Nave,10.291,45.587,20
571,Treviso,12.24,45.674,46
66,Mezzenile,7.396,45.295,20
55,Montepulciano Stazione,11.854,43.135,20
33,Riofreddo,12.995,42.058,20
55,Cervaro,15.594,41.396,20
28,Ottiglio,8.339,45.054,20
79,Vastogirardi,14.26,41.775,20
28,Campomolino,12.514,45.866,20
112,Barrafranca,14.201,37.38,33
79,Bultei,9.064,40.456,20
55,Totari,14.382,41.302,20
28,Fonteno,10.024,45.761,20
28,Ceolini,12.601,45.991,20
79,Rocca Imperiale Marina,16.613,40.098,20
33,Campochiesa,8.195,44.074,20
66,Marano di Napoli,14.186,40.9,20
33,Collinello,12.146,44.116,20
28,Candide,12.513,46.592,20
24,Canevino,9.276,44.939,20
24,San Paolo-Cannistra,15.235,38.132,20
39,Busiago,11.83,45.563,20
55,Selegas,9.103,39.568,20
46,Vignolo,7.473,44.362,20
24,Casapesenna,14.138,40.991,20
46,Belcastro,16.786,39.018,20
39,Ca' Turcata,12.659,45.615,20
28,Drenchia,13.639,46.181,20
55,Caldogno-Rettorgole-Cresole,11.515,45.604,20
24,Frazione di Villa d'Arco,12.664,45.999,20
46,Andreis,12.614,46.202,20
39,Carpen,11.934,45.973,20
24,Codevilla,9.057,44.965,20
160,Sezze,13.057,41.5,28
46,Occagno,9.099,45.926,20
24,Pecetto di Valenza,8.671,44.99,20
55,Pieve,13.136,42.944,20
55,Ortiano,16.695,39.45,20
24,Savignano sul Panaro,11.035,44.48,20
55,Marcato Bianco,13.704,37.742,20
94,Graffignano,12.203,42.574,20
28,Villarboit,8.337,45.437,20
571,Ragusa,14.716,36.929,94
79,Ticineto,8.552,45.096,20
28,Selva,12.033,46.45,20
39,Villanterio,9.362,45.219,20
24,Cerro,8.6,45.894,20
28,Santa Barbara,18.078,40.224,20
79,Tramutola,15.788,40.318,20
28,Moncenisio,6.981,45.206,20
79,Montemerano,11.49,42.623,20
24,Filette,15.109,41.034,20
33,Gatteo-Sant'Angelo,12.387,44.124,20
55,Forni di Sotto,12.672,46.394,20
24,Terzoglio,8.219,45.532,20
55,Capo Rizzuto,17.096,38.904,20
33,Piagge,12.969,43.735,20
24,Palazzolo,11.436,43.69,20
39,Torre Suda,18.033,39.955,20
24,Colombare,11.513,45.12,20
24,San Filippo del Mela,15.273,38.17,20
28,Oga,10.347,46.463,20
39,Tre Fontane,12.731,37.574,20
331,Bonorva,8.769,40.419,39
39,San Cassiano,10.635,44.039,20
33,Pietranico,13.911,42.276,20
112,Montallegro,13.351,37.392,20
28,Briga Novarese,8.454,45.733,20
112,Tagliacozzo,13.255,42.07,28
24,Mezzane di Sotto,11.127,45.482,20
986,Parma,10.329,44.803,94
33,San Giovanni,7.891,45.008,20
192,Moena,11.661,46.377,20
33,Baia Domizia,13.799,41.199,20
28,Scrofiano,11.715,43.23,20
24,Bettona,12.487,43.012,20
46,Piancaldoli,11.433,44.214,20
55,Caprie,7.333,45.12,20
24,Sant'Anna Morosina,11.835,45.603,20
46,Missano,9.532,44.276,20
24,Castello del Lago,14.922,41.074,20
39,Cessapalombo,13.258,43.109,20
112,Siligo,8.726,40.576,20
28,Bagni,8.473,44.664,20
112,Medicina-Buda,11.638,44.479,20
46,Varapodio,15.984,38.317,20
79,Lattarico,16.126,39.45,20
39,Ca' Corner,12.433,45.56,20
46,Marsia,13.476,42.86,20
79,San Gemini,12.543,42.61,20
134,Rosarno,15.983,38.488,20
66,Selva,11.629,44.556,20
39,Agnadello,9.558,45.445,20
39,Ornaro Basso,12.858,42.296,20
33,Fiumenero,9.957,46.021,20
55,Piubega,10.531,45.227,20
28,Fonte,14.66,41.596,20
39,Muoio,14.988,40.329,20
33,Purgatorio,13.703,41.65,20
33,Ceppaloni,14.76,41.045,20
230,Mirandola,11.066,44.886,33
24,Quarto della Colonna,12.756,41.848,20
46,Procida,14.016,40.755,20
24,Valpone,8.021,44.805,20
24,Terdobbiate,8.696,45.377,20
28,Sant'Agapito,14.221,41.544,20
55,Ponte,12.369,42.776,20
55,Marina di Schiavonea,16.541,39.652,20
66,Casacastalda,12.648,43.196,20
94,Semproniano,11.542,42.728,24
112,Galeata,11.909,43.995,20
39,Spinello,11.976,43.925,20
24,Pogi,11.614,43.466,20
160,Spilimbergo,12.893,46.11,33
94,Paesana,7.275,44.687,20
39,Bagnolo del Salento,18.352,40.15,20
39,Aielli,13.591,42.081,20
94,Ponte di Legno,10.509,46.259,28
112,Santa Marinella,11.864,42.037,20
112,Sorgono,9.101,40.026,20
192,Egna,11.273,46.319,20
94,Castelraimondo,13.056,43.209,20
55,Marausa,12.512,37.945,20
28,Gemini,18.186,39.912,20
66,Montopoli,10.734,43.673,20
66,Puntarazzi,14.661,36.9,20
46,Lucca Sicula,13.307,37.579,20
94,Riotorto,10.684,42.981,20
55,Simeri Mare,16.704,38.864,20
79,Vische,7.948,45.335,20
46,Carlantino,14.976,41.595,20
28,San Bartolomeo,8.978,44.545,20
39,Ceretto,7.653,44.865,20
33,Alessandria del Carretto,16.381,39.959,20
39,Vanzo,11.813,45.233,20
39,Montoggio,9.052,44.518,20
55,Scillato,13.907,37.857,20
28,Villa-Nabian,7.706,45.69,20
55,Angrogna,7.224,44.844,20
28,Cicerone,17.307,40.705,20
24,Zona Industriale Artigianale,11.252,46.424,20
28,Colle Santa Maria-Varano,13.721,42.705,20
24,Novate Milanese,9.135,45.531,20
24,Marginone,10.69,43.839,20
66,Venasca,7.403,44.565,20
28,Brusimpiano,8.889,45.945,20
66,Montegabbione,12.092,42.92,20
55,Dolina,13.858,45.605,20
39,Petrignano,11.94,43.152,20
33,Poggio San Vicino,13.079,43.375,20
66,Acerra,14.371,40.943,20
24,Banari,8.702,40.571,20
28,Fossatone,11.57,44.496,20
28,Mosorrofa,15.72,38.096,20
24,Bagnolo di Po,11.501,45.015,20
46,Castelli,13.712,42.485,20
33,Antermoia,11.849,46.691,20
112,Anzi,15.924,40.517,20
39,Fontanigorda,9.306,44.546,20
46,Ca di Buffa,11.909,43.542,20
66,Caposele,15.223,40.816,20
39,La Principina,11.058,42.738,20
55,Castiglioni,13.007,43.506,20
24,Celso,15.056,40.202,20
39,Pallerone,10.005,44.203,20
24,Rocchetta Belbo,8.176,44.637,20
24,Vaglie,13.96,41.352,20
28,Castiglione,8.217,46.023,20
24,Tartinis-Colza,12.87,46.422,20
24,Santa Giulia,9.376,44.304,20
160,Serra San Bruno,16.323,38.575,39
39,Fierozzo,11.313,46.108,20
55,Castell'Ottieri,11.751,42.731,20
28,Boves,7.551,44.332,20
79,Colfiorito,12.891,43.028,20
24,Sant'Ambrogio di Torino,7.362,45.099,20
24,Pezze,14.995,40.671,20
134,Piandimeleto,12.411,43.724,20
24,Salettuol,12.323,45.763,20
55,Mombaldone,8.332,44.569,20
33,Bedero,8.718,45.979,20
33,Gambassi Terme,10.952,43.537,20
24,Villa San Giorgio in Vezzano,11.749,44.265,20
24,Spindoli,12.9,43.195,20
46,La Crocera,7.409,44.748,20
28,San Pietro Infine,13.96,41.446,20
39,Domatore,12.772,41.752,20
28,Filippona,8.75,44.927,20
28,Sant'Elpidio a Mare,13.686,43.229,20
66,Gairo Sant'Elena,9.506,39.848,20
55,Perlezzi,9.421,44.444,20
46,Cudacciolu,9.381,41.053,20
46,Vetriolo,12.118,42.606,20
33,San Tomaso,10.683,44.795,20
46,Rovasenda,8.317,45.539,20
276,Cogne,7.361,45.608,24
28,Godega,12.38,45.921,20
55,Castelluccio Valmaggiore,15.199,41.342,20
33,Novagli,10.439,45.387,20
79,Portovenere,9.834,44.066,20
55,Marciana Marina,10.196,42.803,20
55,Mafalda,14.712,41.942,20
39,Cusciano,13.584,42.569,20
28,Tualis,12.879,46.532,20
79,Lugagnano,10.885,45.434,20
28,Carturo,11.748,45.588,20
28,Castelnuovo Calcea,8.285,44.788,20
24,Fontana Scurano,13.367,41.735,20
55,Cocullo,13.774,42.033,20
39,Fabbriche di Vergemoli,10.432,43.999,20
46,Salvo Marina,14.773,42.07,20
33,Bosco Marengo,8.677,44.824,20
66,Cervaro,13.902,41.484,20
33,Gabella Grande,17.102,39.152,20
33,Spello,12.666,42.993,20
46,Fara Gera d'Adda,9.537,45.556,20
39,Villa Potenza,13.424,43.319,20
24,Ghetto Tombanuova,12.602,44.008,20
160,Cianciana,13.433,37.521,20
33,Poggio,13.582,43.554,20
28,Malafesta,12.962,45.829,20
112,Civitella del Lago,12.284,42.71,20
33,Viola,7.965,44.292,20
33,Massazza,8.165,45.493,20
33,Pratovecchio,11.723,43.787,20
66,Oggiono,9.347,45.791,20
134,Campora San Giovanni,16.094,39.068,20
55,Pozzilli,14.061,41.512,20
28,Savi,7.961,44.978,20
55,Bandito,7.821,44.724,20
79,Conselve,11.873,45.232,20
230,Minervino Murge,16.077,41.084,33
55,Calvari,9.286,44.382,20
33,Bondo,10.692,45.998,20
33,Villa d'Asolo,11.903,45.771,20
33,Fiesco,9.779,45.336,20
24,Ramon,11.866,45.715,20
39,Chitignano,11.881,43.662,20
28,Casalino,8.249,45.103,20
55,Monteviale,11.461,45.556,20
28,Crocefisso,12.827,41.467,20
33,Santa Caterina,10.934,46.688,20
66,Giffone,16.15,38.438,20
134,Torvaianica,12.449,41.633,20
55,Tolle,12.411,44.955,20
112,Radicondoli,11.043,43.261,20
33,Quercia,10.009,44.233,20
39,Gherghenzano,11.385,44.681,20
39,Procchio,10.244,42.785,20
79,Accadia,15.331,41.159,20
39,Ghiandaro,16.195,39.584,20
55,Derby-Villaret,7.088,45.728,20
28,Costa Masnaga,9.278,45.765,20
39,Lainate,9.025,45.565,20
28,Serole,8.258,44.555,20
33,Altavilla Monferrato,8.377,44.993,20
79,Suvereto,10.678,43.077,20
6094,Palermo,13.337,38.11,685
24,Lido di Iesolo,12.671,45.515,20
79,Morra,12.13,43.386,20
192,Montevarchi,11.568,43.528,55
55,Selva,14.353,42.116,20
28,Noviglio,9.051,45.359,20
33,Leoni,14.614,42.168,20
24,Castelliri,13.551,41.678,20
66,Pozzomaggiore,8.661,40.398,20
28,Rivarotta,13.079,45.822,20
46,Capriata d'Orba,8.691,44.728,20
28,Fornaci di Barga,10.473,44.047,20
79,Erula,8.944,40.793,20
112,Talana,9.497,40.042,20
46,Savorgnano,12.854,45.897,20
24,Stabiuzzo,12.38,45.768,20
24,Santa Caterina,10.98,44.925,20
33,Ganaceto,10.9,44.709,20
46,Trevenzuolo,10.934,45.27,20
28,Casale della Madonna,13.172,45.777,20
28,San Michele in Bosco,10.57,45.113,20
55,Boschi,11.556,44.691,20
39,Mombaruzzo,8.449,44.772,20
46,Villanova,12.043,44.444,20
55,Santa Maria del Focallo,14.942,36.715,20
476,Salerno,14.792,40.68,79
28,Monzoro,9.042,45.46,20
79,Marinella,12.842,37.591,20
24,Bonfadina,10.029,45.571,20
66,Borgosatollo,10.24,45.481,20
46,Casalromano,10.366,45.198,20
24,Pino d'Asti,7.985,45.057,20
24,Chero,9.827,44.93,20
24,Pramollo,7.208,44.901,20
28,Bosco,11.164,45.338,20
24,Marittima,18.4,39.996,20
160,Faenza,11.876,44.292,28
55,Canistro Inferiore,13.413,41.941,20
24,Moncestino,8.16,45.155,20
28,Passo di Mirabella-Pianopantano,15.006,41.058,20
79,Grisolia,15.856,39.726,20
33,Monacizzo-Librari-Truglione,17.485,40.313,20
66,Bordolano,9.988,45.291,20
55,Montecchio,11.924,43.315,20
33,Casalsottano,15.036,40.216,20
66,Pecorone,15.857,40.072,20
33,Vigolo Vattaro,11.197,46.006,20
66,San Giovanni Valdarno,11.532,43.563,20
24,Casalina,12.4,42.951,20
28,Portanuova,8.632,44.81,20
46,Duomo,10.022,45.533,20
66,Serrenti,8.978,39.493,20
112,Santa Caterina,10.49,46.413,20
39,Buttrio,13.334,46.01,20
39,Plasencis,13.081,46.069,20
24,San Matteo,10.629,45.016,20
55,Fiano,11.118,43.589,20
46,Villa-Campolasta,11.365,46.665,20
39,Villanova,12.973,46.133,20
39,Filigheddu,8.602,40.748,20
94,Noale,12.069,45.546,20
28,Comun Nuovo,9.66,45.623,20
24,Montagna,8.368,44.281,20
46,Rialto,8.262,44.227,20
55,San Pasquale,9.279,41.168,20
28,Pennar,11.54,45.862,20
112,Mogoro,8.776,39.685,24
79,Avetrana,17.734,40.352,20
46,Landriano,9.261,45.312,20
55,San Gaetano,11.678,45.878,20
28,Santopadre,13.635,41.602,20
94,Cocconato,8.037,45.088,20
230,Peccioli,10.715,43.55,20
28,Rosazza,7.974,45.677,20
24,Cosizza,13.555,46.147,20
55,Giardina Gallotti,13.521,37.352,20
24,Riolo,9.52,45.336,20
55,Centenaro,10.547,45.429,20
33,Cerenzia,16.784,39.244,20
24,Crugnola,8.75,45.73,20
39,Loceri,9.584,39.859,20
94,Grotti,12.947,42.355,20
94,Petritoli,13.66,43.069,20
66,Predappio,11.981,44.102,20
55,Castel Giuliano,12.126,42.054,20
33,Strada in Chianti,11.301,43.657,20
46,San Quirico,11.764,42.669,20
46,Bracigliano,14.706,40.822,20
33,Gerbido,9.749,45.055,20
276,Este,11.656,45.225,33
24,Strembo,10.752,46.119,20
112,Manoppello Scalo,14.058,42.31,20
66,Sostegno,8.27,45.653,20
33,Alagna,8.89,45.169,20
66,Aggio,9.011,44.466,20
66,Arsie,11.759,45.983,20
66,Asigliano Vercellese,8.408,45.261,20
230,Varzi,9.191,44.824,28
46,Rigoroso,8.9,44.665,20
94,Ornavasso,8.416,45.968,20
46,Clauzetto,12.916,46.23,20
33,Cesana Torinese,6.791,44.952,20
55,Tarsia,16.273,39.624,20
79,San Gusme,11.497,43.388,20
134,Mazzarrone,14.564,37.09,20
94,Paulilatino,8.763,40.084,20
55,Fontignano,12.189,43.027,20
55,Amaro,13.096,46.374,20
28,Quindici,14.648,40.864,20
55,San Colombano,12.054,44.1,20
24,Montesegale,9.125,44.907,20
39,Soveria Simeri,16.681,38.944,20
33,Montepennino,12.643,42.907,20
66,Limbiate,9.124,45.604,20
55,Civitella Roveto,13.427,41.916,20
24,Stanghe,11.378,46.882,20
28,Sessame,8.336,44.671,20
79,Guidomandri Marina,15.467,38.048,20
24,Manca di Basso,16.129,40.075,20
39,Marina Julia,13.53,45.777,20
66,Pettinara,11.869,44.259,20
24,Cesi,12.58,42.611,20
39,Cimbro,8.719,45.737,20
39,Santa Croce del Sannio,14.733,41.387,20
28,Pieve al Toppo,11.798,43.408,20
94,Ormea,7.919,44.155,20
55,San Marzano di San Giuseppe,17.505,40.454,20
24,Dragoni Superiore,16.284,38.322,20
66,Gaiola,7.407,44.335,20
28,Macchia Valfortore,14.912,41.595,20
134,Nicastro-Sambiase,16.312,38.967,55
66,Isola Fossara,12.738,43.433,20
46,Passarella,12.605,45.594,20
24,Tortoreto Lido,13.942,42.798,20
94,Gaby,7.882,45.714,20
55,Piano del Voglio,11.216,44.169,20
39,Mortilla,16.211,38.942,20
33,Cassinino,9.14,45.224,20
55,Orria,15.172,40.3,20
28,Corpo di Cava,14.691,40.683,20
33,Massa Finalese,11.214,44.85,20
112,Carpineto Romano,13.085,41.603,20
28,Vanga,11.384,46.561,20
46,Gorgo,13.024,45.747,20
55,Rocca di Cambio,13.489,42.236,20
24,Pozzo della Chiana,11.799,43.293,20
134,Sale,8.81,44.981,20
33,Sant'Antonio,9.484,45.757,20
33,Torchione-Moia,9.853,46.153,20
28,Bellisio Solfare,12.826,43.521,20
33,Rai,12.393,45.808,20
55,Castell'Alfero,8.21,44.981,20
24,San Cataldo,13.572,41.512,20
66,Montespertoli,11.074,43.644,20
46,Bagni di Lucca,10.575,44.009,20
33,Credera,9.654,45.303,20
79,Montefalcione,14.881,40.96,20
55,Bellavista,11.162,43.441,20
55,Varco d'Amendola,16.257,39.755,20
79,Saracena,16.159,39.779,20
28,Sant'Ilario,10.214,42.763,20
28,Strassoldo,13.32,45.856,20
46,Vitinia,12.407,41.792,20
33,Torre Alfina,11.945,42.755,20
33,Lesignano de' Bagni,10.299,44.643,20
55,San Miniato,10.817,43.69,24
66,Apollosa,14.703,41.093,20
46,Gordona,9.366,46.292,20
94,Mongreno,7.751,45.064,20
28,Porto Alabe,8.477,40.251,20
28,Solignano Nuovo,10.924,44.526,20
66,La Vecchia,10.529,44.567,20
28,Gardone Riviera,10.563,45.621,20
94,Dolegna del Collio,13.478,46.032,20
160,Rocca di Mezzo,13.519,42.205,20
24,Villaggio Sant'Antonio,15.004,37.556,20
55,Confienza,8.556,45.332,20
66,Abriola,15.815,40.507,20
79,Focene,12.213,41.815,20
28,Rumianca,8.288,45.994,20
33,Ferrazzano,14.672,41.53,20
24,San Germano dei Berici,11.466,45.402,20
66,Santa Croce,12.915,42.467,20
112,Lenola,13.459,41.406,20
28,Baragazza,11.201,44.129,20
46,Ostra Vetere,13.061,43.604,20
55,Corte de' Frati,10.101,45.218,20
28,Matini-Casette,14.844,38.128,20
39,San Salvatore Telesino,14.498,41.237,20
24,Rio San Martino,12.11,45.592,20
55,Olia Speciosa,9.526,39.279,20
55,Lucignano d'Arbia,11.436,43.213,20
24,Visome,12.199,46.114,20
33,Caselle,11.363,45.275,20
66,Salo,10.519,45.609,20
24,Vicolungo,8.463,45.478,20
33,Migliara-San Silvestro,14.492,41.128,20
94,Sparanise,14.095,41.187,24
94,Sarsina,12.143,43.92,20
66,Fossa,11.024,44.924,20
66,Branca,12.68,43.271,20
66,Cusano Mutri,14.511,41.336,20
24,Castello,14.132,41.62,20
24,Gasponi,15.905,38.663,20
24,Robecchetto con Induno,8.767,45.531,20
24,Ponte,13.944,41.271,20
79,Roverbella,10.769,45.267,20
28,Nepezzano,13.756,42.689,20
134,Deliceto,15.384,41.223,33
24,Sala al Barro,9.361,45.822,20
160,Bagnasco,8.045,44.302,20
55,Concesio,10.218,45.605,20
55,Boretto,10.545,44.902,20
46,Capilungo,18.068,39.922,20
94,Corridonia,13.508,43.247,20
24,Rogliano,16.322,39.181,20
46,Costa Saracena - Castelluccio,15.134,37.306,20
94,Amendolara,16.581,39.952,20
46,Tuili,8.96,39.713,20
24,Sant'Elena Sannita,14.47,41.576,20
94,Auletta,15.425,40.561,20
79,Pennapiedimonte,14.194,42.157,20
33,Colombiera-Molicciara,10.009,44.091,20
986,Siracusa,15.273,37.084,94
39,Casatico,10.549,45.141,20
79,Felegara,10.114,44.722,20
94,Roccalbegna,11.509,42.786,20
46,Caprarola,12.236,42.32,20
112,Solarussa,8.674,39.956,20
476,Piacenza,9.706,45.045,112
24,Soriso,8.41,45.741,20
112,Campoformido,13.156,46.018,20
134,Pomaretto,8.049,45.152,20
33,Cinisello Balsamo,9.214,45.558,20
66,Campoli Appennino,13.683,41.736,20
55,Villa Ottone,11.948,46.865,20
160,Umbertide,12.336,43.305,39
33,Canneto,12.739,42.186,20
160,Mallare,8.297,44.289,20
33,Povegliano,12.207,45.759,20
55,Spigno Monferrato,8.334,44.543,20
55,Ziracco,13.345,46.111,20
33,Campi,10.812,45.911,20
46,Mille Pertiche,12.51,45.594,20
66,Scafati,14.524,40.75,20
55,Gandellino,9.946,45.99,20
46,Schieti,12.631,43.784,20
66,Listolade,12.007,46.317,20
39,Cumignano sul Naviglio,9.836,45.354,20
55,Forio,13.862,40.733,20
46,Civitella d'Agliano,12.186,42.604,20
46,Surdo,16.2,39.329,20
28,Pietransieri,14.119,41.847,20
39,Faiete,13.865,42.609,20
28,Salice,15.494,38.251,20
46,Sala Baganza,10.228,44.721,20
39,Marinella,16.119,37.99,20
46,Padule-San Marco,12.606,43.33,20
79,Cagnano Varano,15.772,41.829,28
33,Villa Celiera,13.859,42.382,20
66,Cusercoli,12.01,44.046,20
33,Vigna,7.667,44.281,20
24,Cento,12.33,44.055,20
134,Ales,8.815,39.768,20
230,Atina Inferiore,13.79,41.632,20
33,Bella,15.541,40.761,20
28,Prepotto,13.694,45.763,20
94,Porto Recanati,13.661,43.436,20
55,Seriate,9.724,45.683,20
28,Casale,11.397,45.797,20
24,San Filippo sul Cesano,13.018,43.674,20
24,Pontone,14.384,40.607,20
66,Polignano a Mare,17.21,40.998,20
24,Pontelatone,14.25,41.194,20
39,Lozzo Atestino,11.63,45.29,20
33,San Donato,12.201,43.881,20
28,Salvaterra,10.768,44.6,20
24,Villanovaforru,8.87,39.632,20
33,Zerman,12.267,45.577,20
24,Boffalora d'Adda,9.494,45.36,20
33,San Biagio,13.412,43.436,20
33,Cade-Gaida,10.517,44.74,20
33,Tambre,12.419,46.126,20
28,Corciano-Pigge,12.752,42.852,20
55,Villa Oliveti,14.067,42.338,20
39,Villa Santo Stefano,13.311,41.517,20
79,Osteria del Gatto,12.75,43.291,20
66,San Martino d'Agri,16.052,40.239,20
160,Nulvi,8.744,40.785,28
28,Foresta-Mazzarella,13.859,41.472,20
66,Fratte Rosa,12.902,43.633,20
112,Bompietro,14.093,37.745,20
24,Cistio,11.448,43.922,20
79,Marano Lagunare,13.168,45.764,20
24,Borgatello,11.091,43.426,20
39,Pievebovigliana,13.084,43.062,20
94,Palizzi,15.987,37.967,20
28,Diano d'Alba,8.027,44.65,20
28,Scoppito,13.256,42.373,20
55,Murello,7.601,44.752,20
24,Romea Vecchia,12.232,44.39,20
55,Armento,16.065,40.308,20
33,Regalgioffoli,13.638,37.821,20
46,Mucinasso,9.723,45.014,20
33,Santa Margherita d'Adige,11.556,45.212,20
94,Picerno,15.643,40.641,20
24,Faiolo,12.078,42.897,20
46,Ghiaie,8.952,45.066,20
28,Ripe,13.106,43.669,20
79,Rotello,15.005,41.748,20
79,Fiano,7.523,45.217,20
24,Mornago,8.751,45.746,20
33,San Pier d'Isonzo,13.463,45.845,20
79,Agnone,14.997,40.217,20
28,Torella dei Lombardi,15.109,40.937,20
79,San Lorenzo in Campo,12.947,43.602,20
79,Stolvizza,13.355,46.361,20
55,Tavoleto,12.596,43.842,20
46,Poli,12.891,41.889,20
39,Salasco,8.264,45.326,20
112,Cogolo,10.692,46.353,20
39,Timau,12.996,46.585,20
28,Spinone al Lago,9.92,45.763,20
66,Baselice,14.974,41.394,20
134,Troina,14.598,37.785,39
28,Zovencedo,11.503,45.428,20
24,Ponte Gorzone,11.763,45.145,20
28,Gualdo,12.476,42.454,20
112,Taurisano,18.213,39.957,20
24,Favorita,12.242,45.524,20
39,Marcaria,10.534,45.122,20
79,Introdacqua,13.898,42.01,20
94,Castelnuovo di Val di Cecina,10.902,43.211,20
55,Pignataro Maggiore,14.173,41.19,20
112,Colombella,12.481,43.149,20
28,Villa Milana,11.548,45.618,20
28,San Savino,11.983,44.482,20
46,Masseria de Gregorio,14.78,41.16,20
55,Tarsogno,9.625,44.449,20
33,Massumatico,11.375,44.722,20
28,Cogoleto,8.645,44.39,20
39,Casarsa,15.095,40.607,20
24,Bastia-Borgo Pasna,12.167,44.26,20
24,Boscazzo,8.08,45.51,20
39,Nocera Scalo,12.768,43.097,20
28,Riccardina,11.524,44.552,20
28,Vallio,12.413,45.638,20
39,Santa Giustina,12.039,46.083,20
94,Ardara,8.81,40.622,20
33,Collina,12.843,46.586,20
39,Castiglione della Valle,12.251,43.019,20
39,Pontelangorino,12.149,44.863,20
79,Siamanna,8.76,39.921,20
28,Acireale,15.16,37.607,20
24,Rosa Marina,17.552,40.798,20
24,Campagna Lupia,12.098,45.352,20
24,Azienda Agricola Resteja,12.503,45.921,20
46,Cuceglio,7.817,45.359,20
276,Colico Piano,9.373,46.133,33
55,Castelgomberto,11.394,45.584,20
28,Mazzarra Sant'Andrea,15.135,38.089,20
28,Bitetto,16.747,41.04,20
134,Priolo Gargallo,15.18,37.158,20
24,Quarna Sotto,8.362,45.869,20
24,Castelnuovo di Farfa,12.743,42.232,20
112,Reggiolo,10.802,44.922,20
39,Cavaria con Premezzo,8.801,45.693,20
33,Giumarra,14.651,37.478,20
331,Tarquinia,11.757,42.248,39
46,Montecilfone,14.837,41.901,20
134,Castelfranco Veneto,11.926,45.676,24
66,Doria,16.357,39.729,20
24,Bottega,12.747,43.843,20
55,Cambiano,10.96,43.634,20
39,Castel Chiodato,12.697,42.057,20
55,Candiana,11.994,45.222,20
79,Vaglia,11.279,43.911,20
46,Pian Camuno,10.138,45.842,20
33,Cadipietra,11.98,46.996,20
28,Monte Giberto,13.632,43.091,20
39,Anitrella-Chiaiamari,13.55,41.641,20
79,Sonnino,13.244,41.414,20
39,Sporula,9.494,40.902,20
24,Montefegatesi,10.593,44.062,20
39,Grezzano-Pian delle Rose,12.362,42.18,20
33,Sutri,12.218,42.244,20
24,Cadepiaggio,8.781,44.673,20
24,Carnola,10.4,44.415,20
24,Piano Croce-Piano Valle,14.618,42.14,20
24,Quinzano,11.367,44.262,20
79,Creto,10.64,45.942,20
39,Boschetto,10.024,45.165,20
46,Borghetto,12.026,43.187,20
39,Localita San Calogero,13.122,37.517,20
112,Levanzo,12.341,37.987,20
46,Orte,12.388,42.457,20
55,Montabone,8.389,44.699,20
39,Dossobuono,10.913,45.395,20
94,Varcaturo,14.063,40.904,20
39,Sirolo,13.613,43.522,20
24,Bedizzano,10.124,44.079,20
24,Ruffre,11.178,46.415,20
112,Serradifalco,13.881,37.456,20
24,Sasso Morelli,11.738,44.415,20
28,Gello,10.451,43.967,20
24,Folignano,13.635,42.821,20
46,Birbesi,10.575,45.292,20
55,Petricci,11.557,42.757,20
28,Soluri,16.53,38.957,20
39,Aguzzo,12.621,42.474,20
46,Termeno,11.241,46.341,20
33,Cortenova,9.388,46.002,20
24,Cessole,8.244,44.648,20
94,Nonantola,11.039,44.676,20
46,San Giustino Valdarno,11.703,43.551,20
24,Frontignano,10.038,45.42,20
39,Rossana,7.433,44.545,20
28,Zenson di Piave,12.487,45.678,20
28,Genovese,14.679,36.77,20
24,Scaltenigo,12.082,45.47,20
160,Mogliano Veneto,12.236,45.562,20
134,Tramonti di Sopra,12.789,46.309,20
79,Sant'Anna,13.147,41.71,20
46,Casano,10.033,44.071,20
24,Conche,12.168,45.235,20
28,Monterubiaglio,12.017,42.77,20
24,Musone,13.592,43.445,20
33,Ponte Forca,10.647,44.818,20
33,Bagaladi,15.822,38.026,20
79,Gadoni,9.186,39.913,20
66,Lido Manfria,14.149,37.099,20
112,San Pietro Vernotico,17.996,40.491,20
46,Volvera,7.512,44.954,20
33,San Giuliano di Puglia,14.963,41.686,20
46,Ardore Marina,16.198,38.178,20
46,Santa Lucia,17.29,40.844,20
28,Colognola ai Colli,11.183,45.433,20
39,Cologna,11.894,44.968,20
46,Settimo,16.241,39.393,20
39,Santa Maria,9.344,44.786,20
46,Fontevivo,10.174,44.859,20
46,Caino,10.314,45.609,20
55,Buscoldo,10.696,45.092,20
79,Gioi,15.218,40.29,20
55,Giuncarico,10.992,42.907,20
28,Calvanico,14.828,40.775,20
66,Cutrofiano,18.202,40.127,20
46,Madonnuccia,12.078,43.6,20
28,Colorina,9.729,46.154,20
28,Cannole,18.365,40.166,20
33,Scala Coeli,16.887,39.448,20
55,Contignano,11.74,42.976,20
79,Polizzi Generosa,14.006,37.811,24
33,Sorbara,11.005,44.746,20
24,Treville,8.361,45.098,20
112,Trecate,8.738,45.436,20
192,Treviglio,9.592,45.524,24
24,Fermata Toscano-Nubrica,16.712,39.608,20
28,Carpello,13.685,41.705,20
28,San Vito di Leguzzano,11.379,45.682,20
94,San Giorgio Lucano,16.39,40.111,20
192,Palena,14.139,41.984,28
134,Badia Prataglia,11.879,43.794,20
24,Genga Stazione,12.979,43.406,20
66,Prato Nevoso,7.788,44.256,20
55,Serrata,16.099,38.514,20
46,Montecelio,12.743,42.022,20
46,Colognole,10.448,43.51,20
28,Stazione di Fasano,17.382,40.847,20
46,Quattro Strade,13.284,41.593,20
33,Vignate,9.375,45.495,20
33,San Sisto,10.494,44.846,20
28,Galli,8.068,45.189,20
55,Zone,10.115,45.762,20
39,Scorzo,15.264,40.577,20
28,Cordignano,12.411,45.95,20
33,Zane,11.451,45.721,20
66,Ponterio,12.411,42.81,20
28,Celle sul Rigo,11.821,42.862,20
33,Vasto,10.61,45.276,20
24,Chiugiana-La Commenda,12.311,43.104,20
55,Roncaglia,9.796,45.043,20
33,Caronia,14.442,38.024,20
94,Leuca,18.358,39.799,20
33,Catobagli,12.855,43.478,20
66,Calascibetta,14.27,37.591,20
46,Colle del Pino,12.496,41.743,20
28,Senole-Bosco,16.093,38.201,20
24,Miglierina,16.473,38.951,20
39,Pontboset,7.686,45.608,20
66,Piana degli Albanesi,13.282,37.997,20
331,Villasimius,9.517,39.145,55
94,Valpiana,10.85,43.005,20
46,Rocca Santo Stefano,13.025,41.911,20
55,Colleridente,12.895,43.368,20
24,Navole,12.587,45.812,20
24,Bastia,8.171,44.058,20
66,Sant'Antonio di Mavignola,10.79,46.192,20
28,Afragola,14.31,40.923,20
160,Galatina,18.17,40.175,24
33,San Cassiano,9.397,46.277,20
33,Castellace,15.94,38.317,20
55,Versano,14.071,41.278,20
33,Pagliara,13.207,42.22,20
46,Nughedu San Nicolo,9.022,40.558,20
28,San Pietro Val Lemina,7.312,44.906,20
55,Genivolta,9.879,45.333,20
28,Canale,11.862,45.064,20
24,San Pietro,14.784,40.825,20
33,Porcari,10.616,43.844,20
28,Piazza di Pandola,14.772,40.809,20
28,Merlino,9.43,45.434,20
55,Mogorella,8.86,39.865,20
46,Fonte di Mare,13.741,43.285,20
46,Poggio San Litardo,11.986,42.981,20
46,Torino di Sangro,14.542,42.192,20
33,Sariano,11.419,45.008,20
28,Camerano,8.091,44.992,20
46,Mezzano,11.809,46.154,20
55,Plataci,16.433,39.899,20
55,Macenano,12.824,42.647,20
24,Sola,9.724,45.483,20
24,Aie,12.196,44.119,20
33,Precasaglio,10.517,46.273,20
33,Mussotto,8.023,44.712,20
39,Canneto,14.961,38.493,20
46,Persichello,10.078,45.167,20
134,Ronco Canavese,7.545,45.498,20
33,Vidalenzo,10.048,45.015,20
33,Quellenhof,11.204,46.745,20
33,Paderno Dugnano,9.164,45.573,20
24,Lemignano,10.263,44.771,20
79,Fabrica di Roma,12.3,42.336,20
79,Castel del Monte,13.727,42.366,20
39,Cicala,16.486,39.021,20
28,Velo Veronese,11.095,45.607,20
66,Cerreto d'Esi,12.985,43.319,20
66,Cavareno,11.138,46.409,20
28,Penna,11.612,43.568,20
94,Ruota,10.574,43.765,20
134,Borzonasca,9.39,44.42,20
24,Marco,11.48,46.29,20
55,Biandronno,8.708,45.815,20
55,Lido di Volano,12.265,44.797,20
28,Riomoro,13.88,42.859,20
79,Farindola,13.821,42.443,20
94,Miane,12.095,45.945,20
39,Pero dei Santi,13.453,41.88,20
24,Mezzomerico,8.605,45.618,20
33,Piegaro,12.083,42.966,20
39,Borgo Ottomila,13.542,41.999,20
39,Ronzo-Chienis,10.949,45.89,20
24,Brenta dell'Abba,12.114,45.232,20
94,Isola del Gran Sasso d'Italia,13.655,42.508,20
39,Piana,12.009,43.139,20
28,Cortandone,8.057,44.96,20
39,Sambuci,12.937,41.986,20
28,Botta,9.614,45.768,20
24,Sillicano,10.36,44.124,20
79,Vaiano,11.126,43.965,20
39,Prunetta,10.805,44.007,20
33,Borgo Baraglia,12.357,43.288,20
39,Gombito,9.729,45.262,20
33,Gaibanella-Sant'Edigio,11.653,44.766,20
28,Pinarolo Po,9.167,45.07,20
55,Castelsantangelo sul Nera,13.154,42.893,20
39,San Donato di Lecce,18.182,40.267,20
33,Moscheri,11.073,45.869,20
66,Rotzo,11.396,45.862,20
33,Fontanelle,14.014,41.245,20
28,Villareggia,7.977,45.31,20
46,Stezzano,9.654,45.652,20
28,Traversella,7.748,45.509,20
39,Titi,16.434,38.443,20
24,Sant'Urbano,11.647,45.124,20
66,Quinto di Treviso,12.163,45.644,20
112,Martano,18.303,40.203,20
46,Ballo,12.07,45.457,20
28,Ailoche,8.219,45.699,20
230,Castel Goffredo,10.476,45.298,20
33,Santa Giulia,12.38,44.837,20
39,Villanova,14.124,42.383,20
24,Vigonza,11.965,45.431,20
79,Marina di Fuscaldo,16.007,39.42,20
24,Santa Cristina,11.288,43.669,20
192,Viu,7.376,45.239,20
46,Acuto,13.174,41.791,20
112,Fiorenzuola d'Arda,9.914,44.922,24
33,Marcena,11.86,43.549,20
55,Borgo Quinzio,12.716,42.162,20
24,Isengo,9.842,45.419,20
33,San Bartolomeo Val Cavargna,9.148,46.082,20
46,Capistrano,16.289,38.692,20
28,Arietta,16.789,39.052,20
39,Tedeschi,7.72,45.203,20
66,Marcellina,15.823,39.767,20
46,Lama Pezzoli,11.91,45.044,20
134,San Martino in Passiria,11.227,46.784,24
24,Duronia,14.46,41.658,20
46,Decimomannu,8.97,39.308,20
46,Casa Milite,14.688,40.725,20
55,Chialamberto,7.343,45.363,20
55,San Calogero,16.02,38.574,20
24,Villanova Truschedu,8.752,39.989,20
24,Zimone,8.038,45.451,20
39,Via di Mezzo,11.321,45.032,20
33,Gragnano,12.097,43.58,20
46,Labico,12.871,41.794,20
55,Morlupo,12.496,42.146,20
28,Santa Maria,12.235,45.898,20
33,Cassinelle-Concentrico,8.563,44.602,20
66,Brentonico,10.955,45.819,20
66,Cattolica Eraclea,13.396,37.439,24
685,Policoro,16.67,40.209,94
28,Gonnoscodina,8.836,39.7,20
33,Commessaggio,10.545,45.038,20
55,Rovereto,10.955,44.842,20
28,Combe,7.682,44.356,20
33,Robecco Pavese,9.15,45.049,20
94,Sant'Antonio d'Ascula,17.339,40.882,20
24,Terranera,13.534,42.236,20
33,San Romano,10.756,43.689,20
39,Pioppe di Salvaro,11.162,44.309,20
24,Muzzana del Turgnano,13.124,45.816,20
79,Canicattini Bagni,15.065,37.032,20
55,Villa Fontana,11.076,45.298,20
24,Vallonecupo,16.386,39.545,20
571,Noasca,7.313,45.455,20
79,Cilavegna,8.745,45.31,20
39,Carona,9.787,46.022,20
46,Campo,10.479,43.71,20
33,Campomaggiore,16.073,40.567,20
28,Santellone,9.895,45.548,20
46,Latignano,10.557,43.655,20
79,Marina,16.065,39.167,20
66,Cellole,13.853,41.204,20
28,Santa Lucia,12.25,43.42,20
66,Campodimele,13.532,41.388,20
24,Mercato,14.942,40.718,20
55,Borgo Podgora,12.854,41.51,20
24,Isiata,12.62,45.621,20
28,Ponte Sfondato,12.649,42.204,20
55,Caneva,12.449,45.962,20
24,Gombitelli,10.371,43.921,20
476,Cecina,10.519,43.314,55
28,Plodio,8.242,44.358,20
112,Colle Sestriere,6.877,44.958,20
33,Frisolino,9.423,44.331,20
24,Castel d'Emilio,13.384,43.565,20
46,Lovero,10.229,46.234,20
33,Fasana Polesine,12.008,45.095,20
39,Pero,9.084,45.511,20
28,Magliano Romano,12.437,42.157,20
66,Castel Giorgio,11.978,42.708,20
160,Budoni,9.708,40.703,20
28,Antegnate,9.791,45.486,20
192,Orosei,9.692,40.38,20
66,Lago,14.911,40.549,20
55,Golferenzo,9.305,44.963,20
39,Cergneu Superiore,13.317,46.216,20
79,Fulgatore - Torretta,12.685,37.954,20
28,Fabro,12.016,42.875,20
55,Carrara,10.051,44.047,20
46,San Basilio,14.778,38.017,20
46,Montefiore dell'Aso,13.753,43.052,20
28,Silla,10.981,44.181,20
33,San Marco Argentano,16.12,39.558,20
192,Nardo,18.031,40.179,46
46,Partina,11.823,43.749,20
24,La Petrizia,16.714,38.884,20
24,Balconevisi,10.834,43.631,20
192,Agrigento,13.589,37.321,55
94,Ponte Galeria-La Pisana,12.35,41.844,20
39,Musei,8.667,39.303,20
28,Torriana,12.385,43.986,20
24,Cucciago,9.096,45.74,20
33,Laurino,15.337,40.338,20
46,Pralboino,10.218,45.269,20
79,Bressana,9.132,45.079,20
55,Cervere,7.791,44.635,20
397,Frosinone,13.351,41.639,79
28,Agana,11.793,46.002,20
39,Rondover,12.617,45.917,20
28,Sini,8.905,39.754,20
28,Pugnolo,10.203,45.082,20
39,Colma,11.524,46.59,20
66,Coccanile-Cesta,11.875,44.924,20
192,Valpelline,7.324,45.824,20
55,Vaccolino,12.18,44.801,20
24,Copanello,16.569,38.762,20
39,Cravegna,8.311,46.239,20
39,Serra San Quirico,13.023,43.446,20
55,Pie' Falcade,11.875,46.358,20
55,Castagneto Po,7.888,45.159,20
28,Minozzo,10.433,44.357,20
1419,Perugia,12.379,43.099,192
134,Fonteblanda,11.17,42.566,20
33,Nuova Portis,13.14,46.357,20
134,Ostuni,17.576,40.728,46
28,Stazione,13.411,41.531,20
331,Suzzara,10.745,44.99,39
39,Cassano Spinola,8.863,44.768,20
55,Torre d'Arese,9.314,45.244,20
24,Villanova Marchesana,11.966,44.993,20
46,Pieve San Giacomo,10.186,45.13,20
33,Chiarino,13.608,43.402,20
39,Missiano,12.101,43.005,20
24,Ottaviano,14.503,40.848,20
33,Fonte Alto,11.862,45.802,20
39,Alliste,18.089,39.949,20
276,Visso,13.086,42.933,28
79,Portofino,9.209,44.304,20
28,Rustico,13.363,43.51,20
55,Montalbano Elicona,15.014,38.023,20
33,Forte dei Marmi,10.167,43.96,20
46,Gioiosa Marea,14.898,38.171,20
33,Luserna,11.323,45.922,20
33,Soleto,18.207,40.188,20
39,Trivella,11.975,44.122,20
24,Montedomenico,9.436,44.311,20
66,Ghirla,8.823,45.925,20
79,Giussano,9.211,45.694,20
39,Lonato,10.477,45.464,20
24,Valli,16.164,39.285,20
33,Pieve d'Olmi,10.123,45.09,20
79,Monterosso Almo,14.765,37.089,20
66,Tasonis,9.269,39.308,20
134,San Piero Patti,14.967,38.051,20
39,L.P. Tor Tre Ponti,12.945,41.512,20
33,Taurasi,14.959,41.009,20
79,Baganzola,10.307,44.855,20
39,Portalbera,9.319,45.098,20
55,Villa Basilica,10.645,43.925,20
134,Bastardo,12.561,42.87,20
66,Lutago,11.92,46.951,20
39,Pedivigliano,16.304,39.11,20
28,Castra,10.991,43.772,20
39,Macchia,14.981,40.655,20
33,Monteleone di Fermo,13.529,43.048,20
66,Moneglia,9.495,44.238,20
39,Comerconi,15.935,38.583,20
134,Rocca di Neto,17.007,39.184,24
66,Galatone,18.069,40.145,20
230,Seregno,9.206,45.652,20
134,Illasi,11.181,45.467,20
24,Scorciosa,14.435,42.229,20
39,Ceretto,7.481,44.546,20
39,Vanzago,8.991,45.525,20
46,Is Urigus,8.495,39.136,20
28,Rivalta Bormida,8.554,44.709,20
160,Lungro,16.122,39.739,20
28,Antria,11.91,43.496,20
33,Tripi,15.097,38.047,20
33,Torricella Peligna,14.255,42.025,20
33,Pollenza,13.348,43.266,20
46,Montefiridolfi,11.214,43.611,20
112,San Sperate,9.008,39.359,20
230,Ortona,14.405,42.353,24
55,Montemaggiore Belsito,13.761,37.847,20
39,Neirone,9.191,44.455,20
46,Casalazzara,12.583,41.624,20
192,Varzo,8.246,46.21,20
28,Ludos,9.457,40.931,20
66,Mandatoriccio,16.835,39.468,24
55,Celleno,12.127,42.559,20
79,Ferla,14.94,37.12,20
33,Mormorola,9.883,44.568,20
79,Francavilla al Mare,14.283,42.421,20
24,Villafranca,8.103,44.034,20
192,Pianoro,11.341,44.393,20
112,Lula,9.487,40.47,20
39,Vicomoscano,10.451,44.974,20
39,Nosate,8.727,45.551,20
112,Marta,11.925,42.533,20
55,Castello Tesino,11.632,46.063,20
33,Sant'Anna d'Alfaedo,10.952,45.627,20
55,Garino,7.616,44.975,20
112,Ostiglia,11.136,45.074,24
33,Tenna,11.264,46.016,20
33,Pezzano-Filetta,14.868,40.699,20
24,Buca Bertona,10.683,44.934,20
55,Mamusi,9.47,40.77,20
134,Verzuolo,7.484,44.594,20
66,Marmirolo,10.757,45.219,20
79,Mattine,15.025,40.385,20
94,Miranda,14.248,41.645,20
24,Tret,11.14,46.48,20
39,Tavullia,12.752,43.897,20
33,Monte San Giovanni,11.167,44.413,20
79,Rezzato,10.316,45.514,20
192,Demonte,7.297,44.315,24
33,Settecrociari,12.186,44.132,20
55,Antey-Saint-Andre,7.588,45.807,20
33,Segonzano,11.26,46.19,20
24,Pozzomoretto,10.823,45.375,20
46,Macchie,12.365,42.599,20
276,Mesoraca,16.789,39.077,39
685,Vipiteno,11.431,46.891,46
46,Samatzai,9.035,39.483,20
24,Campodoro,11.753,45.489,20
79,Calizzano,8.12,44.236,20
24,Vescovo,11.974,45.33,20
39,Ceneselli,11.37,45.013,20
39,Calenzano,11.162,43.856,20
134,Roggiano Gravina,16.16,39.615,24
55,San Rocco al Porto,9.698,45.081,20
33,Priula-Colfosco,12.233,45.831,20
24,Ferrante,16.413,39.452,20
46,Bellocchi,12.999,43.796,20
55,Esenta,10.479,45.416,20
33,Caronno Pertusella,9.048,45.597,20
46,Reda,11.978,44.307,20
39,Pian di Sco,11.545,43.642,20
79,Pietraperzia,14.137,37.419,20
33,Valmir,13.678,43.049,20
33,San Cristoforo-Caroni,11.996,43.616,20
46,San Leone Mose,13.612,37.277,20
79,Camastra,13.791,37.255,20
28,Villa San Sebastiano,13.312,42.03,20
55,Tufara,14.947,41.481,20
46,San Giuliano Terme,10.439,43.761,20
55,Brunella,9.636,40.688,20
33,Sant'Elia,12.814,42.37,20
79,Borgia,16.513,38.825,20
66,Bagnacavallo,11.974,44.417,20
46,Borgo,7.954,44.715,20
39,San Marco,8.331,45.459,20
33,Abbadia,13.834,42.839,20
24,Calliera,10.653,45.236,20
46,Romagnano al Monte,15.455,40.629,20
94,Ottava,8.477,40.787,20
28,Santa Lucia,13.251,43.616,20
24,Cavalier,12.553,45.754,20
39,Trentinara,15.115,40.401,20
28,Sangano,7.449,45.026,20
28,Ponte del Colombarone,12.794,43.948,20
24,Dogna,12.313,46.26,20
79,Santa Maria Amaseno,13.436,41.731,20
33,Frontino,12.376,43.765,20
24,Comeglians,12.866,46.515,20
94,Pratola Peligna,13.874,42.098,20
55,Salara,11.427,44.983,20
33,Penitro,13.697,41.274,20
55,Castellarano,10.735,44.514,20
24,Pradivisi,12.662,45.603,20
134,Scalo Ferroviario,16.06,39.247,20
33,Turania,13.009,42.138,20
134,Narcao,8.675,39.169,20
55,San Gregorio da Sassola,12.875,41.919,20
39,Capena,12.544,42.141,20
28,Figino Serenza,9.13,45.707,20
24,Casalnoceto,8.982,44.913,20
46,Concorezzo,9.333,45.589,20
79,Cavallermaggiore,7.686,44.708,20
66,Piazza,10.158,45.591,20
24,Montalto Ligure,7.844,43.928,20
33,Anzu,11.934,46.009,20
39,Chiesa,11.692,44.978,20
39,Ceriara,13.145,41.487,20
112,Mede,8.735,45.098,20
28,Torre Annunziata,14.464,40.749,20
66,Carasco,9.346,44.349,20
112,Sissa,10.26,44.959,20
79,Villorba,12.26,45.713,20
24,Collimento,13.339,42.291,20
28,Campolungo-Villa Sant'Antonio,13.699,42.853,20
230,Cremona,10.02,45.143,55
66,Vidor,12.046,45.871,20
55,San Giorgio,14.312,41.271,20
134,Corato,16.413,41.154,24
28,Usmate-Velate,9.357,45.648,20
28,Popiglio,10.753,44.046,20
94,Carrozziere,15.272,37.036,20
39,Baldissero Torinese,7.811,45.068,20
160,Fregene,12.199,41.853,24
39,Sabbio Chiese,10.42,45.657,20
24,Morciano di Leuca,18.312,39.848,20
24,Colle Campano-Scrima,13.464,41.625,20
94,Oulx,6.831,45.036,20
24,Pieve Terzagni,10.221,45.185,20
94,Orciano di Pesaro,12.971,43.689,20
79,Sizzano,8.435,45.578,20
33,Mercatello,12.266,42.97,20
24,Teneggia,10.622,44.463,20
66,Montanaro,7.854,45.234,20
55,Chiassa-Tregozzano,11.891,43.514,20
33,Muzzi,11.425,45.561,20
39,San Carlo-Condofuri Marina,15.872,37.932,20
33,Casavecchia-Colle-Piaggia,13.33,42.309,20
39,Tombolo,10.257,43.892,20
192,Irsina,16.242,40.746,28
46,Strada San Zeno,11.882,44.02,20
112,Torano,13.26,42.15,20
28,Tritanti,16.1,38.449,20
66,Corazzano,10.872,43.619,20
39,Fiave,10.842,46.004,20
112,Cherasco,7.858,44.646,20
28,Valle di Suio,13.864,41.311,20
33,Robella,8.33,45.205,20
33,Teggiano-Macchiaroli,15.561,40.375,20
46,Mazzanta,10.463,43.325,20
28,San Nazzaro,9.9,45.077,20
24,Santa Lucia del Mela,15.282,38.142,20
24,Lacchiarella,9.137,45.322,20
39,Buriasco,7.411,44.874,20
33,Castello di Godego,11.878,45.693,20
55,Beaulard,6.76,45.045,20
39,Remondo,8.805,45.241,20
33,Macere,12.405,42.056,20
39,Capralba,9.643,45.444,20
46,Bettegno,10.102,45.302,20
33,Chiarano,12.572,45.729,20
24,Ercolano,14.356,40.808,20
28,Olgiate Comasco,8.969,45.784,20
46,Castiglione di Garfagnana,10.411,44.15,20
160,Sardara,8.82,39.616,20
55,Fara San Martino,14.205,42.09,20
28,Maglio Giavenale,11.388,45.712,20
79,Osasco,7.343,44.849,20
160,Montalto di Castro,11.607,42.35,28
28,Casali-San Potito,14.675,40.764,20
79,Savignano sul Rubicone,12.402,44.093,20
55,Altedo,11.49,44.671,20
33,Crocetta,11.284,44.742,20
46,Torbiera,12.084,44.871,20
39,Gera Lario,9.37,46.171,20
55,Canna,16.504,40.095,20
28,Riva,7.813,44.688,20
28,Villarbasse,7.47,45.045,20
39,Feisoglio,8.105,44.544,20
112,Castel San Giovanni,9.436,45.059,39
24,Gosi - Planaval,7.777,44.337,20
160,Offida,13.701,42.936,20
24,Casa Serena,7.809,43.834,20
79,Jenne,13.169,41.888,20
33,Isola,7.805,44.501,20
94,Francavilla in Sinni,16.203,40.079,20
66,Spilinga,15.907,38.629,20
46,Breda Cisoni,10.53,45.01,20
79,Villadossola,8.267,46.073,20
134,Luino,8.749,46.001,33
39,Sant'Angelo in Formis,14.254,41.113,20
39,San Giovanni Reatino,12.854,42.345,20
94,Piovene Rocchette,11.436,45.758,20
33,San Pietro,7.478,45.303,20
39,San Giovanni di Baiano,12.678,42.73,20
39,Sali Vercellese,8.329,45.31,20
134,Magugnano,10.761,45.7,20
33,Saitta,14.843,36.91,20
112,Busseto,10.042,44.98,24
24,Cacciola,10.721,44.634,20
79,Robilante,7.512,44.293,20
28,Gaggio Montano,10.933,44.196,20
94,Casazza,9.907,45.749,20
24,Pantanelle,12.678,41.532,20
66,Badetto,10.343,45.997,20
55,Magliano Nuovo,15.256,40.335,20
46,Roccapietra,8.276,45.793,20
39,Colle Mazzolino,13.148,42.264,20
24,San Martino,11.899,46.778,20
28,La Vittoria,13.43,41.678,20
28,Palmoli,14.582,41.939,20
55,Pozzolo Formigaro,8.783,44.794,20
24,Massimeno,10.772,46.141,20
94,Fucecchio,10.802,43.734,20
39,Taviano,10.25,44.435,20
46,San Biase,16.093,39.224,20
24,Castroncello,11.886,43.306,20
28,Sant'Angelo,15.951,39.556,20
134,Arzignano,11.338,45.519,33
24,Giungatelle,14.979,40.259,20
28,Dragoncello,11.198,44.97,20
66,San Giorgio la Molara,14.928,41.272,20
66,Collalto Sabino,13.049,42.135,20
24,Borgo Catena,13.188,43.698,20
24,Monte Bagnolo I,12.401,43.155,20
1183,Sondrio,9.877,46.169,79
24,Marina I,13.949,42.772,20
46,Meggiano,12.865,42.755,20
46,Agliandroni-Paternella,13.071,38.128,20
28,Civitella del Tronto,13.674,42.773,20
94,Uri,8.492,40.637,20
33,Castrignano de' Greci,18.297,40.174,20
66,Delia,13.93,37.359,20
66,Aldeno,11.093,45.978,20
28,Quercegrossa,11.31,43.394,20
134,Robbio,8.595,45.29,24
33,Cadoneghe,11.927,45.442,20
46,Scalo Ferroviario,14.848,42.034,20
55,Bellano,9.305,46.043,20
33,Regona,9.819,45.203,20
94,Bibbona,10.594,43.269,20
66,Porzano,10.197,45.399,20
79,Cerveteri,12.088,41.988,20
39,Bauladu,8.672,40.021,20
79,San Sosti,16.027,39.66,20
