rmax,name,lon,lat
94,Canzo,9.271,45.849
46,Lasa,10.7,46.617
33,Velo,11.367,45.789
46,Breno,10.306,45.958
24,Scala,15.036,38.132
33,Funo,11.365,44.593
112,Sava,17.554,40.4
112,Gavoi,9.195,40.162
986,Linosa,12.862,35.86
46,Mozzanica,9.69,45.478
94,Policaretto,16.379,39.454
33,Pisoniano,12.959,41.905
230,Guspini,8.633,39.541
33,Attiggio,12.921,43.305
39,Verzegnis,12.986,46.387
28,Pombia,8.621,45.653
112,Piobbico,12.509,43.588
66,Meolo,12.455,45.619
46,Zogno,9.651,45.792
46,San Pietro Vara,9.588,44.336
94,Saliceto,8.169,44.413
46,Sairano,9.051,45.137
55,Pasian di Prato,13.19,46.045
28,Scomigo,12.312,45.934
24,Cancelliera-Massimetta-Pantanelle,12.61,41.704
79,Collepietra,11.457,46.483
134,Narzole,7.87,44.596
55,Loiri,9.494,40.845
28,San Martino,12.338,45.957
39,Montanera,7.666,44.461
55,Trefiumi,10.117,44.391
66,Castellana Sicula,14.039,37.785
39,Serra,16.305,38.982
66,Affile,13.099,41.885
134,Collesano,13.936,37.918
28,Rocca Massima,12.921,41.678
79,Vibo Marina,16.101,38.709
28,Dogana,10.95,43.617
79,Borgata Costiera,12.641,37.71
94,Vallecorsa,13.405,41.445
24,Colombaro,10.898,44.549
230,Lesina,15.353,41.862
24,Quattrocase,10.486,44.976
79,San Pantaleo,9.469,41.045
24,Collobiano,8.345,45.398
94,Borgo Virgilio,10.788,45.118
39,Ghiardello,10.526,44.656
24,Belvedere Langhe,7.973,44.494
24,Villaguattera,11.819,45.444
46,Passons,13.189,46.074
39,Grange,7.555,45.22
39,Rovere,11.885,45.151
134,Nocera Umbra,12.791,43.117
112,Castel San Pietro Terme,11.587,44.399
46,Villaperuccio,8.67,39.111
24,San Vero Congius,8.718,39.938
46,Cirvoi,12.239,46.104
112,Roccanova,16.205,40.21
46,Trivignano Udinese,13.341,45.948
28,Valtorta,9.535,45.978
33,Lassolaz,7.588,45.739
134,Lagaro,11.178,44.216
79,San Pancrazio Salentino,17.836,40.419
134,Rio di Pusteria,11.668,46.797
24,Artogne,10.16,45.856
46,Flavon,11.03,46.3
24,Cabiate,9.174,45.674
55,Nurachi,8.541,39.973
66,San Pantaleone,15.843,37.989
55,Sarego,11.408,45.408
66,Lusevera,13.268,46.276
192,Sassello,8.492,44.48
33,Serra,14.852,40.969
33,San Pietro di Morubio,11.228,45.244
39,Montemarzo,8.258,44.866
79,Bergamasco,8.455,44.828
79,Martis,8.81,40.777
33,Torri,12.516,42.853
28,Vanoni-Remelli,10.763,45.314
24,Variana,8.94,44.695
24,Acqua Vogliera,12.567,42.591
94,Bagno di Gavorrano,10.887,42.938
24,Pavignane,11.179,44.862
134,Varazze,8.571,44.36
39,Guarenna Nuova,14.358,42.13
192,Marina di Camerota,15.369,40.002
28,Faraone Nuovo,13.674,42.803
79,Pioppo,13.223,38.045
33,Solano Superiore,15.8,38.253
28,Fornace Crocicchio,8.232,45.444
24,Mornico,9.202,45.011
28,Maceratola,12.669,42.95
33,Borgo Piave,18.216,40.417
46,Rivalta Nuova,8.811,44.842
24,Campocroce,12.218,45.585
66,Roccabernarda,16.87,39.134
55,Cerreto di Spoleto,12.92,42.822
28,Mombasiglio,7.967,44.367
160,Gradisca d'Isonzo,13.489,45.885
33,Filighera,9.316,45.175
79,Bosco,10.036,44.443
46,Sorga,10.98,45.215
28,Piova Massaia,8.05,45.055
33,San Martino-Sant'Anzino,12.609,42.082
33,Anela,9.058,40.443
55,Gagliole,13.067,43.238
79,Stazione di Frasso,13.2,41.368
39,Cropani Marina,16.808,38.923
28,Mandolossa,10.158,45.558
134,Ficarolo,11.436,44.954
79,Moglia,10.914,44.937
46,Cerretto Langhe,8.097,44.575
55,Scalini,11.367,45.824
28,Visnadello,12.247,45.76
33,Pove del Grappa,11.729,45.797
28,Castello del Matese,14.376,41.368
33,Capezzano Inferiore,14.774,40.702
55,Casaleone,11.199,45.17
46,Piamborno,10.225,45.919
55,Malalbergo,11.532,44.719
94,Chieri,7.822,45.014
39,Casaprota,12.804,42.251
94,Verzi,8.236,44.154
28,Taino,8.616,45.766
94,Baruchella,11.453,45.067
33,Castellazzo,8.944,45.474
33,Cerezzola,10.409,44.573
33,San Cipriano Po,9.28,45.11
66,Madonna del Piano,13.406,41.517
79,Capodacqua,12.783,43.017
39,Pagno,7.426,44.612
39,Roncadello,10.469,44.946
39,Cisliano,8.985,45.444
79,Vaglio Basilicata,15.917,40.667
46,Faleria,12.446,42.226
33,Foce,12.454,42.567
66,Nova Levante,11.538,46.43
24,Castello Balestini,10.949,44.852
33,Molteno,9.303,45.778
33,Gozzolina,10.486,45.359
46,Villa Santa Lucia,13.769,41.514
66,Kamma,12.036,36.798
112,Mirano,12.114,45.497
33,Sammomme,10.909,44.027
28,Paschera San Carlo (Soprana),7.413,44.439
112,Lamoli,12.255,43.623
134,Villanova d'Asti,7.938,44.942
33,Vaggio,11.508,43.641
46,Arbus,8.599,39.526
24,Marano,11.016,45.896
46,Sugano,12.057,42.71
134,Felizzano,8.436,44.9
134,Laurenzana,15.973,40.458
39,Pracchia,10.908,44.055
39,Civitella Casanova,13.884,42.364
24,Malanghero,7.655,45.203
39,Tramuschio,11.09,44.958
46,Peonis,13.04,46.258
46,Vallefratta,13.392,41.498
28,Piantravigne,11.567,43.608
46,Monterubbiano,13.718,43.085
24,Borgone Susa,7.231,45.124
134,San Benedetto dei Marsi,13.622,42.006
24,Capodarco,13.76,43.189
24,Volte Basse,11.269,43.289
28,Luneo,12.121,45.51
33,Broccostella,13.639,41.703
24,Lovolo,11.607,45.38
55,Ozzano dell'Emilia,11.475,44.444
94,Falerna Scalo,16.152,38.972
24,Sellitte,16.236,39.507
33,Ferrito,16.532,38.925
46,Sasso d'Ombrone,11.327,42.933
79,Cassine,8.528,44.753
94,Montaione,10.913,43.553
24,Borgarello,9.14,45.239
46,Pallanzeno,8.259,46.042
24,Grazie,10.695,45.152
33,Losson della Battaglia,12.482,45.633
28,Cambiasca,8.544,45.962
160,Castiglione Messer Marino,14.451,41.867
2940,Bari,16.879,41.113
112,Penna San Giovanni,13.427,43.057
46,Saletti II,14.442,42.145
33,Ca' Ballarin,12.515,45.469
55,Costalta,12.575,46.579
112,Mercato Saraceno,12.198,43.964
55,Varano Marchesi,10.033,44.753
28,Piano Risteccio,13.649,42.763
55,Quarto Inferiore,11.415,44.532
24,Madonna di Paris,13.593,41.59
24,Valverde,8.581,44.971
39,Lillianes,7.841,45.63
33,Badesse,11.275,43.383
28,Pintura,13.581,43.306
55,Ognina,15.259,36.982
66,Breme,8.626,45.128
24,Pieve di Compresseto,12.692,43.234
24,San Ponzo Semola,9.101,44.836
33,Bodio,8.751,45.788
94,Serre,15.187,40.582
46,Pradleves,7.283,44.418
66,San Fiorano,9.723,45.137
66,Boccioleto,8.111,45.831
55,Martiniana Po,7.362,44.627
46,Pitelli,9.885,44.095
94,San Fele,15.539,40.818
46,Bragno,8.299,44.375
66,Villanovafranca,9.003,39.645
112,Laghetti,11.24,46.275
112,Cinigiano,11.39,42.891
55,Peschiera del Garda,10.688,45.436
46,Torri,12.107,44.492
46,Agazzano,9.518,44.945
33,Marmorta,11.716,44.619
94,Bionde,11.095,45.211
66,Amato,15.962,38.374
192,Posina,11.26,45.79
79,Coriano,12.601,43.968
160,Seneghe,8.613,40.082
46,Terzigno,14.494,40.812
55,Orsaria,13.381,46.039
28,Erto,12.372,46.277
24,Case Lunghe,12.012,43.006
39,Canal San Bovo,11.732,46.156
66,Coreggia,17.265,40.807
79,Ghemme,8.422,45.599
24,Caltrano,11.449,45.775
39,Pozzuolo,11.961,43.121
33,Mercato Vecchio,12.378,43.805
192,Sarnano,13.299,43.035
94,Frontone,12.734,43.514
94,Mombercelli,8.296,44.818
46,Montecalvoli,10.662,43.686
55,Macellara,16.099,39.665
39,Colelli,15.723,38.212
134,Moggio di Sotto,13.195,46.404
55,Borselli,11.538,43.795
39,Solaro,9.083,45.615
28,Casette,13.555,42.827
397,Alghero,8.321,40.557
39,Basse Dora,7.613,45.091
46,Nocchi,10.344,43.921
46,Sedrano,12.665,46.053
55,Tremenico,9.366,46.076
55,Bolca,11.21,45.595
55,Mirabello Monferrato,8.523,45.035
39,Ponte San Michele,14.591,40.832
46,Piscitelli,13.216,41.714
33,Piana di Monte Verna,14.335,41.169
24,Narni Scalo,12.518,42.535
46,Caravonica,7.959,43.993
39,Santa Mama,11.854,43.629
79,Padenghe sul Garda,10.505,45.508
28,La Luce,13.718,43.21
55,Melicucca,15.881,38.304
94,Cologno al Serio,9.706,45.581
33,Segno,11.075,46.305
33,Bagno,10.751,44.657
66,Sedini,8.816,40.853
79,Marcianise,14.299,41.035
94,Bevagna,12.608,42.934
55,Burgos,8.994,40.391
134,Vetto,10.339,44.484
33,Calcinate,9.799,45.621
24,San Vittore Olona,8.941,45.585
33,Ca' del Lago,11.218,45.221
55,Onies,11.865,46.749
66,Cisternino,17.422,40.744
94,Badia Calavena,11.152,45.566
112,Jolanda di Savoia,11.98,44.881
66,Gromo,9.927,45.963
39,Madone,9.547,45.651
24,Cosseria,8.237,44.368
33,Pozzo dell'Inferno,12.705,41.514
134,San Gregorio Magno,15.399,40.661
33,Spropolo,16.039,37.925
112,Albidona,16.472,39.924
134,Farini,9.57,44.713
66,Annifo,12.86,43.054
24,Susa,11.222,46.051
79,Noceto,10.177,44.81
134,Serramanna,8.923,39.424
39,Durazzano,14.451,41.062
79,Corvara,13.872,42.276
79,Murisengo,8.135,45.082
28,Compignano,12.281,42.949
66,Villa San Pietro,8.999,39.036
46,Grumes,11.294,46.221
55,Toano,10.56,44.377
112,Stanghella,11.758,45.134
33,Passo dei Pecorai,11.285,43.62
24,Bagnolo,11.374,45.357
39,Civitella Cesi,12.024,42.216
28,Laglio,9.139,45.883
33,Mottafollone,16.064,39.649
192,Rho,9.04,45.531
112,Migliarino,11.934,44.77
39,Montaner,12.38,45.997
55,Cropani,16.128,40.044
39,Cittiglio,8.66,45.897
55,Baschi,12.217,42.674
134,Aquileia,13.363,45.766
66,Urbisaglia,13.374,43.192
24,Sant'Antonio Abate,14.548,40.723
79,Sant'Arcangelo,12.157,43.083
94,Le Caselle,13.822,41.667
33,Vistrorio,7.768,45.442
55,Onani,9.443,40.486
112,San Martino,12.227,46.811
55,Vezzano sul Crostolo,10.548,44.602
55,Delianuova,15.916,38.237
33,Sagliano,9.163,44.839
33,Roveredo di Gua,11.442,45.273
66,Galtelli,9.615,40.385
28,Trivignano,12.192,45.527
33,Gombio,10.15,45.669
134,Varese Ligure,9.594,44.377
66,Sommacampagna,10.845,45.407
33,Borghetto di Vara,9.72,44.224
39,Uta,8.956,39.291
28,Varco Sabino,13.02,42.24
24,Minucciano,10.206,44.17
33,Vicarello,10.465,43.614
55,Torre,10.799,43.758
24,Montafia,8.023,44.989
94,Dolceacqua,7.624,43.847
24,Carmine-La Pineta-Vernetta,8.454,44.434
39,Cecchina,12.649,41.691
94,Tezze,11.704,45.686
94,Morciano di Romagna,12.65,43.915
46,Maleo,9.761,45.167
46,Guarda Veneta,11.801,44.981
33,Romeno,11.12,46.395
112,Rotonda,16.04,39.949
46,Rivodora,7.787,45.088
397,Isili,9.109,39.741
28,Bergiola,10.124,44.067
39,Marega,11.395,45.201
134,Marianopoli,13.915,37.599
55,Torremezzo di Falconara,16.057,39.271
33,Zona 167,15.845,41.858
66,Portacomaro,8.258,44.957
112,Canneto sull'Oglio,10.383,45.149
66,Masi Torello,11.8,44.795
33,Marciana,10.168,42.789
33,Caselle-Gore,11.776,43.182
46,Colla-Muggiasca,9.621,45.984
28,Pavigliana,15.724,38.107
39,Alberone,11.84,44.963
192,Piaggine,15.378,40.346
112,Rapolano Terme,11.604,43.284
39,Selvarella,12.237,42.435
33,Bottai,11.223,43.726
28,Martelletto,16.535,38.891
134,Saltusio,11.199,46.729
39,Casciago,8.777,45.827
33,Riobianco,11.875,46.95
66,San Biase,14.589,41.715
46,Bonnanaro,8.764,40.533
39,Gaggiolo,8.91,45.839
66,Torrenieri,11.549,43.086
134,Auronzo,12.42,46.562
66,Groppo,10.337,44.438
24,Favari-Avatanei,7.796,44.913
55,Santa Gertrude,10.873,46.489
24,Piamaggio,11.321,44.201
79,Pulsano,17.358,40.382
112,Finocchieto,12.658,42.453
55,Cepina,10.357,46.435
46,San Bortolo,11.758,45.215
55,Dogato,11.889,44.75
28,Creazzo,11.476,45.534
39,Nuragus,9.038,39.778
33,Gavorrano,10.909,42.924
160,Cerreto Sannita,14.555,41.282
28,Piantonia,10.094,44.665
39,Toscanella,11.641,44.381
33,Alfiano Natta,8.208,45.049
134,Castelbuono,14.09,37.928
55,Bonvicino,8.015,44.505
24,Case Basse,12.804,43.103
28,Pesco Sannita,14.813,41.233
331,Licata,13.951,37.104
33,Santa Fiora,12.11,43.561
94,Guasila,9.041,39.558
24,Fontechiari,13.675,41.669
28,La Fornace,11.17,44.469
112,Umbriatico,16.918,39.353
28,Vallerona,11.471,42.794
33,Cadimarco,10.356,45.227
24,Fornesighe,12.195,46.362
28,Germagno,8.388,45.892
66,Grantorto,11.728,45.601
28,Arpino,14.323,40.891
33,Leporano Marina,17.299,40.382
33,Stio,16.317,39.388
46,Bolognetta,13.458,37.964
24,Castro dei Volsci,13.405,41.508
46,Gaiofana,12.569,44.005
24,Sassuolo,10.785,44.539
46,Faeto,15.161,41.325
39,Bisuschio,8.87,45.872
28,San Giovanni,12.509,46.023
94,Monte San Savino,11.724,43.333
33,Favaco,16.486,38.361
55,Cittanova,16.08,38.352
39,Ospedaletti,7.718,43.804
39,Fascia,9.22,44.583
46,Pagliara,14.839,37.996
55,Molella,13.06,41.277
134,Capalbio,11.422,42.453
55,Scurcola Marsicana,13.339,42.064
46,Saccon,12.362,45.875
331,San Giovanni in Fiore,16.698,39.254
33,Lurisia,7.711,44.306
24,Fantasina,10.178,45.574
39,Merlara,11.443,45.167
66,Bagnoli del Trigno,14.457,41.702
33,Prastio,16.116,39.958
33,Battaglione-Bagnara,10.065,45.117
66,Fossalto,14.546,41.673
33,Cozzano,10.195,44.574
160,Tolve,16.017,40.694
66,Altilia,16.88,39.181
33,Puglia,11.882,43.501
33,San Nazzaro,10.293,44.955
33,Casalbore,15.008,41.234
55,Chiomonte,6.986,45.12
55,Lago Patria,14.035,40.925
28,Sambuca,11.214,43.573
33,Turri,8.917,39.705
39,Bottega,10.864,44.391
28,Terranuova Bracciolini,11.585,43.552
112,Lazzaro,15.661,37.977
39,Borgo,11.455,46.051
46,San Giovanni,14.139,37.762
94,Brescia,10.221,45.525
39,Gatta,10.464,44.409
33,Cinaglio,8.1,44.975
112,Ciminna,13.56,37.898
79,Pieve,11.955,46.481
66,Revo,11.06,46.392
79,Collamato,12.95,43.291
46,San Pier Niceto,15.353,38.158
24,Comitini,13.643,37.408
46,Piana del Sole,12.304,41.826
39,Borgo Carige,11.419,42.425
28,Campiglio,10.856,43.98
476,Ravenna,12.203,44.416
24,Berzano di San Pietro,7.953,45.094
79,Pozzo,12.508,42.905
46,Riobianco,11.368,46.771
94,San Buono,14.569,41.981
39,Montecchio,10.742,43.524
79,Episcopia,16.096,40.073
112,Ovada,8.645,44.638
79,Modugno,16.773,41.098
55,Sasso Marconi,11.245,44.396
28,Borgo Faina,12.211,44.348
66,Costacciaro,12.713,43.359
33,Basella,9.731,45.615
24,Pontirolo Nuovo,9.569,45.569
66,Angoli,16.437,38.971
33,San Martino,12.341,45.909
39,Chiuduno,9.85,45.651
112,San Giorgio Ionico,17.379,40.459
39,Flagogna,12.961,46.208
39,Striano,14.578,40.817
39,Bellaguarda,10.58,44.995
55,Villastellone,7.748,44.924
33,Santa Maria Coghinas,8.868,40.904
94,Viticuso,13.971,41.524
46,Brozzo,10.23,45.719
46,San Pietro Valdastico,11.362,45.887
397,Lodi,9.503,45.314
55,Carpeneto,8.606,44.678
28,Pezzolo,10.063,45.998
112,Valles,11.627,46.842
55,Carpineti,10.518,44.456
28,Roio del Sangro,14.373,41.912
28,San Bellino,11.59,45.03
33,Odolo,10.386,45.646
24,San Giovanni,15.16,37.736
55,San Carlo,13.253,37.624
94,Bagno Roselle,11.138,42.81
79,Formigliana,8.291,45.429
39,Barchi,10.426,45.194
55,Ghizzole,11.637,45.451
39,Varago,12.312,45.737
46,Ospedaletto d'Alpinolo,14.744,40.938
33,Montemiletto,14.902,41.011
28,Graffignana,9.454,45.206
66,Mercatino Conca,12.491,43.87
39,Fognano,11.737,44.206
134,Porto Potenza Picena,13.692,43.37
24,Sant'Andrea-Caporipe,13.895,42.674
24,Baldichieri d'Asti,8.091,44.905
28,Cosa,12.89,46.057
55,Ottobiano,8.83,45.154
28,Concadalbero,12.083,45.214
55,Bianze,8.124,45.309
66,Mandas,9.129,39.656
94,Usellus,8.851,39.81
24,Canterano,13.037,41.942
79,Gioia del Colle,16.924,40.8
112,Lavezzola,11.876,44.563
55,Ripa-Pozzi-Querceta-Ponterosso,10.204,43.975
55,Caminata,11.544,46.959
24,Telgate,9.851,45.629
28,Calvenzano,9.381,45.27
94,San Pietro in Volta,12.314,45.313
28,Ponte Cingoli,10.105,45.599
24,Castiglione,11.057,45.413
55,Marene,7.737,44.662
28,Vanze,18.318,40.322
24,Spongano,18.365,40.018
39,Montecorice,14.984,40.234
39,San Zeno Naviglio,10.216,45.496
33,Casa del Diavolo,12.451,43.188
79,Villanova Monferrato,8.479,45.182
112,San Giovanni-San Bernardino,9.606,44.777
28,Madonna di Viatosto,8.187,44.925
55,Bleggio Superiore,10.838,46.025
28,Murazzo,7.651,44.483
33,Mileo,16.031,40.058
66,Torricella,17.499,40.356
94,Laghi,11.271,45.825
55,Furci,14.588,42.009
33,Lucolena in Chianti,11.388,43.574
66,Usseglio,7.216,45.233
55,Attimis,13.313,46.192
66,Torella del Sannio,14.519,41.64
33,Belforte,10.562,45.08
94,Appignano,13.345,43.364
28,Pianomarotta,15.089,40.926
79,Fagnano Alto,13.57,42.258
28,Caldare,12.408,42.453
79,Castiglione d'Adda,9.694,45.219
46,Serra di Maiolo,12.312,43.873
160,Codigoro,12.11,44.83
39,Perrazze,15.292,40.681
33,Valle San Silvestro,12.234,46.746
46,Lauro,14.631,40.878
79,Marziai,11.982,45.987
33,Arzona-Pizzinni,16.043,38.621
55,Caccuri,16.776,39.227
33,Contrada Noce del Conte,15.645,40.322
66,Mondaino,12.669,43.858
46,Bareggio,8.997,45.477
94,Domanico,16.207,39.216
66,Cicirata,15.137,36.884
79,Gonnosno,8.872,39.76
55,Staffoli,10.702,43.754
66,Venas,12.299,46.41
39,San Donato di Ninea,16.048,39.711
28,Tre Torri,15.113,41.083
46,Giarole,8.567,45.061
331,Isola di Capo Rizzuto,17.091,38.96
33,Malvagna,15.055,37.919
55,Mulazzano,12.535,43.96
160,Ottana,9.044,40.234
39,Monfumo,11.923,45.828
55,Pianola,13.407,42.324
112,Champoluc-Champlan,7.726,45.833
33,Sas Murtas,9.699,40.671
33,Trana,7.422,45.039
112,Diamante,15.824,39.677
28,Badile,9.126,45.351
33,San Benedetto in Alpe,11.687,43.984
55,Poianella,11.627,45.631
24,Caldana,8.694,45.872
24,Carceri Alte,14.164,41.851
331,Manduria,17.635,40.399
33,Montescudaio,10.625,43.326
66,Roccaforte del Greco,15.896,38.048
331,Marina,16.598,40.036
46,Ponte Rio,13.093,43.725
39,Talocci,12.699,42.189
55,San Marco,14.94,40.267
33,Coseano,13.019,46.098
39,Alanno,13.971,42.295
33,Santo Stefano Lodigiano,9.735,45.119
28,San Michele e Grato,7.703,44.858
33,Roccaforte Mondovi,7.745,44.318
276,Verbania-Pallanza-Intra,8.557,45.93
79,Anzano di Puglia,15.285,41.123
55,Camerata Picena,13.351,43.578
79,Lesmo,9.308,45.649
276,Popoli,13.832,42.172
33,Auduni,14.431,41.314
276,Rezzoaglio,9.386,44.527
46,Montallese,11.913,43.062
39,Pascarola,14.306,40.977
28,Frangarto,11.296,46.479
46,Terrigoli,11.145,44.027
33,Nichelino,7.646,44.995
24,Fonte al Giunco,11.831,43.158
39,Villastrada,12.01,43.048
94,Piazze,11.919,42.907
33,San Paolo di Jesi,13.172,43.454
160,Piedimonte Matese,14.375,41.356
331,Milazzo,15.238,38.222
55,Limatola,14.393,41.141
46,Santa Croce sull'Arno,10.781,43.71
134,Laterza,16.798,40.629
112,Riace Marina,16.526,38.389
28,Ramuscello,12.883,45.882
192,Rosolini,14.948,36.824
112,Oriolo,16.446,40.054
46,Scerne,14.038,42.648
66,Giuliano di Roma,13.279,41.54
46,Fornase,12.161,45.476
33,San Mauro Pascoli,12.414,44.106
24,Pagazzano,9.671,45.535
112,Massa Martana,12.525,42.773
24,Schivenoglia,11.076,44.997
24,Castel dei Britti,11.434,44.427
66,Arsiero,11.354,45.803
33,Riomurtas,8.704,39.179
33,Medicina,10.677,43.942
33,Valle San Giovanni,13.618,42.621
28,Arignano,7.903,45.039
46,Dragonetti,15.716,40.83
33,Padria,8.63,40.396
79,Lajatico,10.727,43.473
39,Mezzano Superiore,10.425,44.93
33,Villa del Bosco,12.031,45.216
39,Druento,7.576,45.135
46,Pannaconi,16.044,38.694
28,Stazione Masotti,10.855,43.91
24,Pezza di Piro,16.308,39.447
134,Bore,9.793,44.719
24,San Polo dei Cavalieri,12.839,42.012
112,Mejaniga,11.905,45.459
24,Castello,15.941,40.063
24,Colombano,11.523,45.106
134,Malonno,10.32,46.123
3528,Pantelleria,11.946,36.829
46,Postiglione,15.232,40.559
33,Budrio,10.741,44.751
33,Torre,15.92,38.497
39,Marteggia,12.457,45.591
24,Piateda Centro,9.934,46.16
55,Cesole,10.648,45.063
33,Crocetta,9.309,44.353
46,Dattilo,12.637,37.971
28,Carrodano Inferiore,9.658,44.241
66,Montefano,13.438,43.41
28,Neviano degli Arduini,10.316,44.582
24,Rosegaferro,10.807,45.344
79,Falconara Marittima,13.383,43.624
33,Villa del Ferro,11.471,45.384
94,Casaleggio Novara,8.492,45.489
33,Fossanova San Marco,11.631,44.793
66,Biccari,15.196,41.398
39,Zimella,11.376,45.332
33,Missiano,11.255,46.485
24,Montecampano,12.431,42.516
55,Corniolo,11.794,43.908
66,Maiero,11.831,44.723
24,Badi,11.026,44.119
94,Pontestura,8.333,45.142
55,Valzella,9.925,45.917
24,Fossa-Solfara Mare,16.711,39.618
28,Rustigne,12.482,45.751
33,Torre San Marco,12.911,43.646
24,Palmas Arborea,8.643,39.877
24,Zona Cisterna,13.321,43.221
46,Castelfranco di Sopra,11.563,43.62
160,Rionero in Vulture,15.672,40.925
55,Monteleone,9.41,45.193
66,Massa Lombarda,11.826,44.447
192,Villa,7.155,44.7
28,Prascorsano,7.616,45.368
24,Lover,11.024,46.247
24,Calvisi,14.423,41.325
55,Castel de' Ceveri-Casal de' Ceveri,12.425,42.033
276,Amatrice,13.294,42.627
24,Sabatella,15.015,40.472
33,San Pietro Clarenza,15.022,37.571
46,Ciaculli,13.405,38.077
46,Castagnole Piemonte,7.567,44.898
28,Pauli Arbarei,8.922,39.663
33,Casasco,9.004,44.828
28,Taggi,11.819,45.463
94,Monteiasi,17.381,40.5
46,Castelromano,14.198,41.619
55,Sasso Pisano,10.865,43.168
46,Tonengo-Casale,7.939,45.287
39,Merle,11.156,45.272
24,Torbe,12.1,46.154
28,Cassiglio,9.611,45.968
39,Brattiro,15.888,38.646
112,Zungri,15.983,38.655
112,Scanno,13.88,41.902
46,Besozzo,8.666,45.846
46,Fontanelle,12.469,45.834
39,Ruviano,14.41,41.211
28,Tregasio,9.29,45.679
46,Triscina,12.79,37.585
39,Cadignano,10.058,45.36
112,Rapagnano,13.595,43.161
39,Madonna Prati,11.203,44.525
28,Mione-Corte Inferiore,11.029,46.438
33,Tortora,15.804,39.942
33,Capo Mazzo,14.35,40.925
33,San Simone,17.264,40.617
33,Fane,10.964,45.58
230,Piove di Sacco,12.036,45.297
66,Roccavivara,14.6,41.834
46,Carbonera,12.29,45.683
28,Protonotaro,15.192,38.12
134,Salandra,16.318,40.528
39,Madonnina,8.308,45.104
39,Maranza,11.658,46.813
39,Selva dei Molini,11.86,46.891
55,Petrella Salto,13.069,42.294
28,Lardaro,10.661,45.97
28,San Carlo,11.409,44.804
112,Paceco,12.556,37.978
39,Perticaro,16.891,39.339
28,Osiglia,8.198,44.282
112,Pragelato-Rua,6.942,45.014
39,Sales,13.726,45.748
55,Volla,14.344,40.879
33,Filetti,13.735,41.481
46,Mazara II,12.601,37.682
28,Monteveglio Capoluogo,11.101,44.471
39,Caprafico,13.766,42.632
33,Trarego,8.672,46.035
33,Gargallo,10.863,44.743
66,Villafranca Tirrena,15.437,38.24
33,Varedo,9.163,45.599
55,Pariana,10.635,43.945
46,Castelpagano,14.809,41.402
112,Agosta,13.035,41.98
192,Reggio di Calabria,15.664,38.111
39,Casoni,10.738,44.94
33,Marcellise,11.107,45.463
33,Canepina,12.233,42.383
571,Albenga,8.215,44.053
28,Archi,15.282,38.198
46,Osteria Bianca,10.903,43.694
39,Castions,12.794,45.97
39,Santa Anatolia,13.294,42.147
66,Ostellato,11.945,44.745
79,Pianello Val Tidone,9.403,44.947
24,Belprato,10.37,45.725
46,Santa Croce,11.255,44.984
46,Malchina,13.659,45.785
33,Madonna dell'Acqua,10.366,43.748
134,San Felice Circeo,13.088,41.233
331,Sossano,11.51,45.359
55,Marigliano,14.457,40.926
33,Saint-Nicolas,7.182,45.716
55,Riparbella,10.598,43.364
24,Casafredda,14.021,41.27
55,Archi,14.995,40.307
39,Borgo Montenero,13.102,41.279
55,Mazzo di Valtellina,10.254,46.256
39,San Marcello Pistoiese,10.793,44.056
33,Dogana di Verucchio II,12.411,43.968
46,Rimiti,15.266,37.994
33,Luogosano,14.991,40.988
28,Castelvero,11.204,45.561
33,Murge,15.854,40.058
33,Isolabona,7.641,43.88
33,Serramezzana,15.032,40.245
24,Quattrocase,11.14,44.992
112,Cavour,7.378,44.789
24,Falvaterra,13.523,41.504
28,La Bassa,10.782,45.28
24,Santa Francesca,13.448,41.715
66,Penone,11.201,46.302
46,Cavanella d'Adige,12.246,45.112
33,Tezze,11.367,45.532
33,Montecastrilli,12.489,42.652
46,Sant'Agata di Puglia,15.381,41.152
79,Bisacquino,13.258,37.705
24,San Giorgio,14.423,41.055
28,Lamalunga,17.345,40.87
24,Agugliano,13.388,43.543
55,Conflenti,16.285,39.071
160,Acquasparta,12.541,42.689
24,Cagliari,9.116,39.23
33,Cadorago-Caslino al Piano,9.036,45.722
66,Stella,13.809,42.887
112,Vado Centro,8.431,44.266
24,San Giovanni delle Contee,11.764,42.753
28,Suelli,9.133,39.563
55,Morbello,8.519,44.607
24,Casanova Pansarine,11.424,43.303
39,Torrenova,14.68,38.093
160,Marina di Ginosa,16.886,40.428
46,Cossoine,8.714,40.431
134,Valledolmo,13.826,37.747
94,Altipiani di Arcinazzo,13.196,41.847
112,Sant'Antonio di Gallura,9.302,40.992
33,Albuzzano,9.273,45.188
160,Squinzano,18.039,40.436
46,San Savino,12.597,43.938
55,Santorso,11.381,45.734
55,Ranzano,10.25,44.46
55,Santa Maddalena,12.24,46.836
46,Prarolo,8.478,45.281
33,Scopeto Madonna Gulia,12.961,41.424
33,Ossolaro,9.942,45.206
79,Casperia,12.672,42.341
331,Oschiri,9.102,40.72
66,Montecchia di Crosara,11.256,45.483
28,Fornaci,8.608,45.594
28,Bettola-Zeloforomagno,9.313,45.43
24,Cicognolo,10.196,45.166
160,Coreno Ausonio,13.778,41.344
94,Buggerru,8.402,39.398
46,Magnano,16.056,40.056
94,Gambara,10.293,45.256
94,Crichi,16.643,38.954
28,Vaglierano Basso,8.126,44.879
46,Cinto Caomaggiore,12.782,45.829
46,Resana,11.958,45.636
112,Montechiaro d'Acqui,8.377,44.595
331,Muravera,9.574,39.421
33,Castellaro Lagusello,10.637,45.375
66,Petriolo,13.464,43.221
24,Pettinengo,8.104,45.613
79,Libertinia,14.576,37.53
94,Rivignano,13.042,45.878
33,Santa Fosca,12.061,46.445
55,Maccarese,12.214,41.878
28,Ferrania,8.316,44.357
24,Santo Marino,12.406,44.014
66,Trequanda,11.667,43.188
79,Casalbuttano,9.962,45.252
79,Brumano,9.499,45.855
39,San Biagio,7.611,44.482
39,Berenzi,10.488,45.282
39,Cantarana,12.1,45.199
46,Marina di Gioiosa Ionica,16.325,38.307
28,Cordona,8.565,45.655
33,Pille,10.677,45.361
134,Filadelfia,16.293,38.782
33,Camugnano,11.089,44.169
28,Sarmede,12.386,45.979
46,Invorio,8.488,45.757
28,Roccasecca dei Volsci,13.212,41.479
134,Capoiaccio,14.752,41.431
33,Frassineto Po,8.534,45.133
33,San Michele del Carso,13.561,45.881
331,Cerignola,15.901,41.264
28,Sant'Andrea,9.994,45.543
24,Altolia,15.447,38.075
28,Santa Maria d'Oriente,13.273,42.058
66,Serrazzano,10.813,43.218
134,Bellaria-Igea Marina,12.47,44.14
46,Mattina,15.423,40.582
24,Caldarella,16.549,38.427
46,Sant'Ambrogio,14.087,38.019
39,Fratticciola,11.906,43.254
39,Gazzola,9.549,44.961
79,Sezzadio,8.573,44.787
55,Pie la Costa,13.271,42.318
28,Quercia Ompiso,14.07,42.411
79,Gerace,16.221,38.271
46,Puia-Villanova,12.565,45.866
66,Forno,8.288,45.936
33,Boccaleone,11.801,44.641
134,Itri,13.533,41.292
55,San Donato Milanese,9.266,45.417
46,Tocco da Casauria,13.915,42.213
55,Grignano Polesine,11.75,45.044
24,Trecastagni,15.078,37.619
39,Stazione di Aragona - Caldare,13.637,37.382
24,Piane d'Archi-Quadroni,14.372,42.103
55,Las Plassas,8.985,39.68
55,Volania,12.134,44.726
24,Sant'Eleuterio,13.553,41.597
79,Castellazzo Bormida,8.576,44.845
39,Albonese,8.706,45.292
39,Croci di Calenzano,11.213,43.945
39,Calalunga-Pietragrande,16.551,38.739
28,Vitelleria,14.94,37.605
24,Boschiera,11.77,45.532
55,Carmignano di Brenta,11.704,45.629
24,Calzaiolo,11.179,43.633
33,Ceceraio,12.531,42.757
24,Tordibetto,12.57,43.089
33,Monastero Bormida,8.326,44.648
160,Nerito,13.478,42.549
33,Pisa,10.415,43.711
28,Alluvioni Cambio,8.795,45.001
33,Quinto,11.016,45.498
28,Mascione,14.703,41.552
39,Sale delle Langhe,8.08,44.395
39,Nardodipace,16.343,38.475
79,Apollinara,16.418,39.702
39,Marina Palmense,13.812,43.146
33,Aquilano,14.352,42.359
46,Bergeggi,8.441,44.247
79,Scanzano Jonico,16.699,40.25
79,Lamon,11.75,46.048
28,Gassino Torinese,7.828,45.132
66,Taipana,13.341,46.248
46,Lamen,11.887,46.059
192,Tione di Trento,10.727,46.036
33,Caresana,13.834,45.592
160,Miglionico,16.501,40.568
46,Ponte di Nanto,11.595,45.427
24,Gremiasco,9.105,44.797
79,Zerba,9.283,44.668
24,Castions di Strada,13.185,45.906
46,Croce di Baffi,16.35,39.479
24,Valpiana,9.742,45.884
39,Licciana Nardi,10.035,44.263
46,Montecorvino Rovella,14.978,40.692
24,Sala,12.096,45.702
24,Croce,12.59,43.924
24,Bolzano Novarese,8.44,45.758
28,Capannaccia,9.322,41.17
66,Dossi,11.569,45.236
33,Preabocco,10.86,45.624
28,Parlapiani,14.7,41.377
112,Monghidoro,11.316,44.219
33,Selve,11.277,44.292
24,Binanuova,10.18,45.232
112,Gais,11.95,46.837
33,Bafia,15.206,38.076
66,Rivalta di Torino,7.518,45.034
28,Maida,16.266,38.345
24,Nocella,13.671,42.717
39,Dont,12.144,46.355
28,Soddi,8.878,40.13
28,Castel San Giovanni,12.706,42.835
46,Usini,8.538,40.664
94,Quattromiglia,16.243,39.354
46,San Michele,13.884,41.51
46,Montalbano,11.576,44.756
134,Collalbo,11.457,46.542
28,San Vito,11.716,45.96
24,Le Villette,7.769,45.154
79,San Giuliano,9.995,45.071
24,Ghevio,8.503,45.782
46,Castrezzato,9.981,45.512
46,Monti d'Arena-Bosco Caggione,17.363,40.355
33,Silvano Pietra,8.947,45.04
24,Montrigiasco,8.511,45.773
55,Rocca di Papa,12.706,41.761
112,Pergine Valsugana,11.241,46.061
33,Vellezzo Bellini,9.1,45.269
28,Pizzale,9.051,45.039
39,Borgomasino,7.988,45.363
39,Albano Vercellese,8.381,45.426
94,Valdaora di Mezzo,12.031,46.76
79,Castelnuovo Berardenga,11.503,43.346
112,Montiano,11.223,42.645
94,Nucetto,8.06,44.34
33,Frassineto,11.265,46.564
55,Mercenasco,7.881,45.357
66,Frascineto,16.264,39.836
46,Valle Bernardo,13.44,41.389
24,Lardirago,9.233,45.235
39,Civesio,9.246,45.395
94,Cerami,14.508,37.81
33,Marinella,13.027,45.697
33,Nuvolato,11.006,45.032
28,Montegrazie,7.985,43.919
134,Breuil-Cervinia,7.631,45.935
24,Polverigi,13.395,43.524
39,Caselle,11.977,45.741
33,Migliuso,16.433,38.954
192,Ribera,13.265,37.5
192,Palma di Montechiaro,13.765,37.193
24,San Pellegrino,13.935,42.413
192,Camerino,13.069,43.14
39,Cavagliano,8.63,45.534
2042,Trieste,13.803,45.634
24,Possidente,15.776,40.781
79,Pincara,11.61,44.992
66,Casteldaccia,13.53,38.054
33,Osteria di Piavola,12.13,44.025
46,Filorsi,13.988,41.272
276,Spinazzola,16.091,40.967
39,Saragiolo,11.643,42.835
55,Pellegrino Parmense,9.933,44.73
46,Fossalta di Portogruaro,12.908,45.795
24,Pognano,9.643,45.585
39,Vitellino,12.019,43.11
79,Alife,14.333,41.327
46,Spina,12.282,42.986
24,Biassa,9.776,44.096
33,Cesano Maderno,9.143,45.631
24,Grosotto,10.26,46.283
33,Maestrello,12.32,43.189
94,Ururi,15.016,41.816
24,Sant'Andrea in Casale,12.653,43.933
46,Pienza,11.679,43.078
33,Agrate Conturbia,8.56,45.675
24,Marina di Saluto,16.149,39.067
28,Polcenigo,12.495,46.036
39,Villarotta,10.745,44.924
24,Pasteria-Lapide,15.224,37.806
112,Gonnesa,8.471,39.266
24,Cizzago-Comezzano,9.954,45.469
66,Castione della Presolana,10.066,45.916
39,Pancalieri,7.587,44.833
33,Porcellengo,12.143,45.707
28,Luicciana,11.107,44.028
33,Valleve,9.743,46.029
33,Allocco,11.263,44.332
33,Beni Comuni,12.963,45.719
28,Mapello,9.55,45.71
134,Fasana,15.137,40.252
79,Ribolla,11.035,42.969
39,Marano,12.119,45.463
33,Maglio dell'Inferno,12.006,45.803
28,Motta Baluffi,10.256,45.056
24,Cineto Romano,12.96,42.049
33,Stella,7.437,44.852
33,Bastiglia,10.997,44.726
66,Lotzorai,9.665,39.969
46,San Benedetto,9.775,44.133
79,Cornuda,12.006,45.833
24,Ponso,11.587,45.192
24,Alone,10.291,45.686
39,Lesegno,7.966,44.402
39,Avoscan-Sot Colaru-Vare,11.987,46.382
28,Celleta,13.274,41.579
33,Nenno,9.029,44.559
28,Bonassola,9.583,44.184
28,Mattie,7.115,45.118
28,Noferi-Lavatoio,11.564,43.509
94,San Daniele Po,10.18,45.064
33,Santa Tecla-Castelpagano,14.921,40.676
28,Santo Stefano,14.611,41.613
55,Gorgofreddo,17.263,40.887
24,La Romita,12.693,42.572
33,Erice,12.587,38.037
66,Castelli Calepio,9.894,45.62
46,Chilivani,8.936,40.611
39,Erve,9.452,45.821
39,Nogarole Vicentino,11.287,45.56
33,Brecciarola,14.096,42.323
66,Maddaloni,14.38,41.039
33,Bevazzana,13.073,45.689
276,Sesto,12.351,46.702
24,Bertassi,7.376,45.088
24,Chiesa Nuova di Marzaglia,10.805,44.641
28,Denore,11.832,44.833
192,Lacedonia,15.423,41.051
134,Cesaro,14.713,37.845
192,Albinia,11.21,42.505
55,Nettuno,12.681,41.493
39,Terzo,13.02,46.433
66,Albera Ligure,9.066,44.702
55,San Cono,14.367,37.291
33,Gattinara,8.367,45.618
28,Villafranca,11.058,44.835
79,Verrayes,7.538,45.764
33,San Martino al Tagliamento,12.87,46.014
94,Domaso,9.329,46.153
66,San Giacomo,16.465,39.524
55,Ferruzzano,16.091,38.035
46,Burana,11.351,44.914
24,Colle Paganello,12.91,43.321
46,Magliano Alpi,7.802,44.46
33,Capriglio,8.009,45.004
79,Finale,14.162,38.018
79,Fonzaso,11.801,46.016
39,San Costantino,15.688,40.073
55,Chiampo,11.283,45.543
66,Rosolina Mare,12.322,45.132
55,Oniferi,9.17,40.272
28,Pescosansonesco,13.884,42.254
55,Amandola,13.355,42.979
55,Peveragno,7.62,44.331
79,Ozzero,8.924,45.367
55,San Genesio Atesino,11.33,46.536
160,Asola,10.418,45.221
24,Barza,8.621,45.798
33,Ciausi,7.356,45.027
46,Capoliveri,10.375,42.746
46,Salina,10.574,44.953
46,Mottura,7.524,44.805
160,Guglionesi,14.917,41.914
39,Ponteromito,15.039,40.896
24,Viola,10.835,45.001
24,Cervara,10.305,44.864
66,Cetica,11.655,43.712
39,Cala Gonone,9.631,40.281
79,Sestu,9.094,39.298
46,Tinchi,16.649,40.358
28,Nespoledo-Villacaccia,13.082,45.978
24,Tortoreto,13.911,42.809
39,Carlentini Nord,15.011,37.295
66,San Martino in Freddana-Monsagrati,10.429,43.909
28,Castegnato,10.116,45.564
24,San Mango d'Aquino,16.193,39.061
66,Aprica,10.152,46.153
24,Cosniga-Zoppe,12.35,45.886
24,Santa Maria in Valle,12.753,42.893
112,Quart,7.423,45.749
28,Malavicina,16.269,39.311
55,Torrione,8.478,45.325
33,Doberdo del Lago,13.539,45.846
55,Costano,12.536,43.044
39,Andriano,11.232,46.518
33,Trebiciano,13.824,45.673
112,Gerola Alta,9.551,46.061
33,Pradulins,13.178,45.79
28,San Cristoforo,15.55,40.091
55,Opera,9.212,45.373
24,San Martino del Lago,10.316,45.073
46,Ludriano,9.933,45.447
33,Brovello,8.532,45.843
39,Selbagnone,12.11,44.173
39,Camini,16.483,38.431
160,Valdobbiadene,12.003,45.902
79,Guarda,11.326,44.307
24,Conca Casale,14.007,41.495
24,Lauco,12.933,46.424
230,San Sebastiano,10.268,45.649
66,Roncanova,11.111,45.146
39,Dresano,9.357,45.373
24,Briona,8.478,45.543
24,Colli,13.529,41.611
476,Lavello,15.793,41.048
79,Riva presso Chieri,7.872,44.984
66,San Mango,15.06,40.263
33,Reali-Bosco d'Olmi-Trivio,13.859,41.352
79,Gallo,7.983,44.661
55,Dipignano,16.252,39.239
33,Sauze di Cesana,6.859,44.941
55,Pederiva,11.466,45.423
46,Borgo Picciano A,16.485,40.71
94,Stribugliano,11.459,42.851
24,Ronco Pascolo,10.278,44.845
24,Cascina Braghe-Traversa,9.041,45.682
66,Verghereto,12.005,43.795
79,Dovadola,11.886,44.121
39,Laces,10.857,46.617
28,Paschero-Ponte,7.286,44.478
24,Sona,10.825,45.439
39,Porcellino,11.51,43.58
28,Roncobilaccio,11.231,44.118
24,Saccolongo,11.745,45.406
24,Pettenasco,8.408,45.819
33,Dolzago,9.34,45.767
134,Montagnana,11.467,45.233
55,Serra,15.163,40.444
28,Ponte Ronca,11.193,44.502
46,Soave,10.724,45.194
33,Gambulaga,11.79,44.745
55,Marcellinara,16.485,38.924
79,Narbolia,8.576,40.047
39,Casalciprano,14.53,41.582
33,Madonna del Poggio,11.199,44.626
24,Collarmele,13.626,42.059
46,Gerolanuova,10.004,45.406
79,Cerignale,9.35,44.678
94,Belforte del Chienti,13.247,43.162
79,Scarnafigi,7.567,44.681
33,Vasi,16.447,38.337
79,San Nicola Arcella,15.791,39.843
39,Bonarcado,8.656,40.098
33,Sampieri,14.739,36.724
79,Vetulonia,10.971,42.86
24,Cardoso,10.48,44.025
134,Vallefiorita,16.461,38.776
39,Quarti,8.353,45.127
46,Pirato,14.754,36.829
79,Elva,7.088,44.542
28,Pradello,10.996,45.143
28,Adami,16.358,39.073
39,San Cassiano,11.934,46.571
39,Alberona,15.123,41.433
94,Salaparuta,13.01,37.758
28,Valeriano,12.922,46.167
24,Caporio,14.4,41.549
24,Sanguinaro,10.144,44.842
79,Venaria Reale,7.635,45.124
24,Cinquemiglia,12.257,43.379
160,Lana,11.156,46.612
28,Pisignano,18.272,40.304
192,Masone,8.716,44.502
55,Castel Frentano,14.353,42.198
24,Zona Industriale-Artigianale,14.959,40.632
66,Montefollonico,11.745,43.127
55,Borgo Fornari-Pieve,8.937,44.589
24,Borgetto,11.81,43.356
192,Cuglieri,8.567,40.188
39,Vallarga,11.729,46.842
28,Fusea,12.992,46.424
24,Ciliegi,11.457,43.666
24,Largo Zullo-Sterparo,14.587,41.522
112,Ameglia,9.968,44.068
24,Carignano,10.275,44.725
39,Carpiano,9.273,45.341
28,Melazzo,8.426,44.644
230,Mezzolombardo,11.095,46.208
66,Colvalenza,12.486,42.745
55,Tartano,9.677,46.107
33,Triggianello,17.168,40.926
24,Petraro-Varia De Franchis,16.594,39.592
55,Albareto,10.967,44.69
24,Vallefredda,13.645,41.735
24,Marsure di Sotto-Nuova,13.301,46.13
55,Baitoni,10.54,45.808
24,Ganna,8.826,45.902
79,Staiti,16.033,38
46,Tires,11.526,46.468
24,Medeuzza,13.394,45.941
66,Leno,10.215,45.365
24,Castellone,14.443,41.495
79,Murano,12.352,45.457
28,Palo-Patare,8.547,44.491
94,Ortovero,8.098,44.055
46,Maciano,12.284,43.843
66,Mathi,7.542,45.255
28,Paupisi,14.665,41.197
46,Coldragone,13.602,41.556
685,Alessandria,8.619,44.913
28,Concagno,8.91,45.799
24,Battaglia,13.637,42.714
55,Giardini-Naxos,15.266,37.824
33,Marina di San Vito,14.45,42.305
160,Caoria,11.68,46.196
28,San Giacomo,8.626,44.378
24,Sennariolo,8.556,40.212
55,Columbrina-Za Minica,13.231,38.153
33,Cappellazzo,7.771,44.65
94,Spotorno,8.414,44.229
33,Serravalle di Chienti,12.952,43.072
39,Orsomarso,15.909,39.799
24,Motta,7.671,44.835
66,San Elpidio,13.181,42.24
39,Crotta d'Adda,9.854,45.159
39,Madonna del Pasco,7.761,44.365
94,Calasetta,8.368,39.108
24,Larzana,10.751,46.058
33,Povo,11.164,46.067
94,Condino,10.6,45.89
39,Montemarciano,13.306,43.639
46,Nibbiola,8.656,45.371
55,Tosi,11.534,43.749
28,Monte Magre,11.337,45.682
33,Matzaccara,8.453,39.132
55,Monteflavio,12.832,42.109
33,Castiglione,14.306,41.726
28,Bosco-Belloro,16.125,38.144
46,Pozzoleone,11.667,45.648
28,Sciaves,11.664,46.768
79,Formigine,10.847,44.57
28,Marchirolo,8.833,45.948
28,Calozzo,9.276,46.102
46,Maniga,7.737,44.744
94,Parenti,16.412,39.161
39,Borgo Revel,8.023,45.191
66,Pietralta,13.448,42.71
33,Borgo Bainsizza,12.791,41.484
39,Leva,11.533,45.665
28,Rosario,16.231,39.292
33,Subbiano,11.872,43.579
66,Sospiro,10.158,45.108
79,Castroregio,16.478,39.992
39,Macchia Grande,15.26,40.71
55,Roccagiovine,12.899,42.05
79,Filettino,13.326,41.891
33,Ponzano di Fermo,13.661,43.104
79,Ulignano,11.082,43.504
66,Gualtieri,10.63,44.898
192,Pieve Santo Stefano,12.04,43.673
33,Bolzano,12.187,46.164
94,Catignano,13.947,42.346
192,La Thuile,6.951,45.714
33,Riscone,11.941,46.781
46,Valeggio sul Mincio,10.738,45.355
134,Serramazzoni,10.79,44.429
55,Carrito,13.719,42.027
55,Carmignanello,11.141,44
94,Poggio Moiano,12.881,42.205
46,Albare Stazione,10.757,45.573
94,Pierantonio,12.392,43.264
112,Cortina-Glera-Selva,12.613,46.119
24,Grumello del Monte,9.877,45.637
39,Prado,9.221,45.205
28,Fontanello,10.735,45.381
46,Molare,8.6,44.619
28,Carapelle Calvisio,13.682,42.3
24,Bettola,10.457,45.477
24,Villate,7.845,45.352
55,Trecchina,15.776,40.026
55,San Martino,11.418,46.688
28,Durazzanino,12.099,44.282
24,Canegrate,8.922,45.565
24,Riofreddo,12.073,43.838
571,Fermignano,12.642,43.686
55,San Lazzaro,11.414,44.467
28,Sant'Albino,11.807,43.071
192,Corio,7.532,45.314
33,Sant'Antonio,11.22,45.755
28,Silva,8.276,44.921
33,Berzo San Fermo,9.901,45.719
39,Rocchetta Cairo,8.299,44.428
66,Carpinello,12.117,44.238
39,Castelnuovo Vomano,13.848,42.629
33,Tuna,9.577,44.981
39,Prata di Principato Ultra,14.835,40.985
46,Nus,7.467,45.74
46,Bagnoli Irpino,15.073,40.833
66,Capovalle,10.545,45.753
33,Sant'Apollinare,11.822,45.04
24,Ronco Briantino,9.409,45.666
160,Sinnai,9.203,39.304
33,Romanore,10.754,45.063
39,Marina San Nicola,12.12,41.932
28,Verrone,8.113,45.512
24,San Rocco,12.188,45.78
79,Voghiera,11.751,44.759
24,Masare,12.014,46.398
94,Cupra Marittima,13.859,43.03
134,Torpe,9.68,40.628
33,Vestigne,7.955,45.386
28,Castrocucco,15.764,39.937
24,Zona Artigianale Foroni,10.736,45.34
66,Monno,10.339,46.213
33,San Potito,11.938,44.433
55,Badia Polesine,11.493,45.097
112,Urbania,12.521,43.668
79,Alberoro,11.807,43.366
24,Le Botteghe,10.819,43.744
33,Barzano,9.313,45.733
55,Vicchio,11.464,43.933
24,San Nicola,16.16,38.134
24,San Giovanni,12.614,45.787
94,Castelcivita,15.233,40.494
39,Monticello,8.596,45.376
33,San Marino,10.915,44.808
39,Celle di Macra,7.18,44.481
39,Pollenza Scalo,13.371,43.242
39,Casalbeltrame,8.467,45.438
24,Stazione,8.261,45.06
39,Matinella,15.068,40.503
24,Chia,12.277,42.471
46,Macere,12.859,41.748
33,Ceserano,10.054,44.192
160,Tula,8.985,40.733
1183,Siena,11.334,43.32
94,Vedeseta,9.543,45.89
46,Cinquecerri,10.328,44.349
94,Borgomaro,7.945,43.975
24,Tarres,10.878,46.608
66,Budoia,12.533,46.046
79,Mascali,15.199,37.758
66,Aragona,13.617,37.401
24,Marasso,11.66,45.089
66,Anfo,10.494,45.766
46,Mortizzuolo-Ponte San Pellegrino,11.145,44.872
134,Gagliano Castelferrato,14.536,37.711
33,Lasen,11.914,46.072
94,Classe,12.238,44.377
46,Castello-Prato,11.621,43.744
39,Pianello,12.539,43.143
112,Entracque,7.397,44.239
66,Marche,12.038,47.021
33,Cecina,10.875,43.846
66,Terme,15.157,38.136
33,Uppello,12.738,42.956
79,Luzzara,10.69,44.961
66,Piavon,12.525,45.764
28,Settimo Rottaro,7.994,45.408
46,Trinita d'Agultu,8.914,40.985
28,Monte Rotondo,13.827,41.514
46,Villafranca Piemonte,7.5,44.779
28,Abazia,8.433,44.866
24,Il Romito,10.645,43.649
66,Angera,8.59,45.777
46,Olmeto,12.323,42.986
33,Vigonovo,12.57,45.975
94,Contursi Terme,15.241,40.651
39,Sumirago,8.781,45.74
39,Cortaccione,12.759,42.764
192,Certaldo,11.04,43.547
24,Mombarcaro,8.086,44.468
94,Gergei,9.1,39.7
46,La Passerina,11.56,44.352
39,Starza Vecchia,14.41,40.891
24,Ponte Caffaro,10.529,45.82
39,Padula,16.269,39.337
134,Guastalla,10.654,44.922
55,San Carlo,13.918,41.311
46,San Sossio Baronia,15.201,41.072
24,San Martino sul Fiora,11.595,42.673
46,San Severino Marche,13.181,43.233
28,Madonna del Pilone,7.749,44.697
55,Raveo,12.871,46.434
33,Grinzano,7.763,44.621
55,San Giorgio di Lomellina,8.789,45.175
39,Piazza di Brancoli,10.54,43.942
24,Porra,7.584,43.834
66,Fontecchio,13.606,42.231
33,Valvestino,10.587,45.761
28,Ponte di Cetti,12.077,42.38
46,Tuglie,18.097,40.075
94,Vas,11.937,45.939
66,Greve in Chianti,11.315,43.587
28,Montopoli di Sabina,12.692,42.245
28,Lentigione-Sorbolo a Mane,10.475,44.861
94,Magazzeno,14.855,40.613
79,Paglieta,14.498,42.164
160,Novellara,10.73,44.845
33,Montenero,12.404,42.536
28,Cavenago d'Adda,9.598,45.283
79,Camposampiero,11.934,45.566
46,Monte San Marino,13.307,41.71
24,Gerbola,7.566,44.536
28,San Zeno,10.83,45.32
94,Ortueri,8.987,40.036
66,Portico di Romagna,11.78,44.025
160,Berchidda,9.165,40.786
79,Casale di Scodosia,11.465,45.196
28,Contrada,8.143,44.445
28,Torbecchia,10.867,43.95
33,Palazzo Canavese,7.979,45.459
94,Ficulle,12.066,42.836
66,San Vito sullo Ionio,16.405,38.709
55,Borgo San Giacomo,9.968,45.35
33,Tor di Bruno,12.599,41.664
46,Colle Carino,13.604,41.668
28,Cadriano,11.395,44.55
397,Isernia,14.24,41.6
55,Sant'Ilario,15.666,40.791
112,Lago,16.148,39.173
55,Pantanella,12.261,43.107
28,Somendenna,9.695,45.8
33,Moimacco,13.373,46.091
134,Passignano sul Trasimeno,12.131,43.192
55,Frisanco,12.726,46.212
24,Maenza,13.183,41.525
24,Fontanetto Po,8.193,45.195
55,Isola del Piano,12.784,43.737
134,Cupramontana,13.115,43.445
33,Montefranco,12.765,42.598
39,Motta Santa Lucia,16.292,39.091
79,Lama di Reno,11.216,44.365
230,Acqui Terme,8.463,44.677
24,Fornovo San Giovanni,9.676,45.498
55,Centro Urbano,15.318,40.819
39,Piani Poggio Fidoni,12.797,42.392
39,Semivicoli,14.214,42.277
28,Castellina,16.228,38.539
28,Carnea,9.818,44.154
28,Spineto Scrivia,8.874,44.837
986,La Spezia,9.85,44.114
28,Castellaro,7.869,43.864
55,Basaluzzo,8.718,44.769
55,Quingentole,11.046,45.039
160,Castelsaraceno,15.991,40.161
79,Albignano,9.494,45.501
33,Canale Nuovo,12.133,42.688
28,Paludea,12.902,46.199
112,Margherita Iv,17.105,39.135
24,Canove di Roana,11.475,45.865
134,Vallese,11.089,45.327
39,Turano Lodigiano,9.623,45.249
28,Roe Alte,12.116,46.135
39,Due Sture,8.37,45.198
33,Bellombra,12.034,45.011
66,Verolengo,7.968,45.19
55,San Giorgio,13.533,42.595
39,Marocchi,7.819,44.94
46,Greti,11.306,43.607
46,Polaveno,10.136,45.656
24,San Floriano del Collio,13.596,45.98
28,Cargeghe,8.615,40.668
55,Lucignano,11.745,43.271
79,Alesso,13.053,46.318
66,Salvano,13.79,43.162
39,Linera,15.135,37.665
134,Ponton dell'Elce,12.235,42.023
112,Canazei,11.772,46.476
33,Acquacalda,15.758,38.208
66,Appignano del Tronto,13.662,42.898
46,Specchia,18.298,39.937
66,Piancastagnaio,11.686,42.85
134,Canino,11.753,42.467
55,Pescaglia,10.412,43.965
46,Carpaneto Piacentino,9.789,44.915
94,Cittadella,11.78,45.65
28,Casape,12.886,41.907
55,Santa Maria della Versa,9.299,44.988
55,Solero,8.508,44.918
66,Grotte di Castro,11.868,42.674
46,Arveaco,10.455,45.691
79,Bocca di Piazza,16.485,39.164
28,Carlino,13.185,45.804
39,Sant'Anna Pelago,10.555,44.191
24,Bienca-Tomalino,7.897,45.51
33,Vicomarino,9.393,44.982
33,Santa Domenica,15.863,38.664
33,Bettola,9.493,45.563
46,Mazzano Romano,12.397,42.21
24,Sant'Ambrogio,11,44.623
55,Piazzolla,15.745,40.356
33,Calimera,16.018,38.556
33,Navarons,12.755,46.224
33,Rondissone,7.964,45.245
46,Fonte San Giovanni,14.437,41.967
28,Marina,16.602,39.94
28,Garzeno,9.25,46.134
28,Corne,11.744,45.025
28,Assisi,12.624,43.067
397,Panarea,15.076,38.637
46,Montemerlo,11.709,45.378
46,Mariana Mantovana,10.487,45.193
55,Vallongo,7.751,44.902
55,Antessano,14.778,40.733
571,Ventotene,13.43,40.796
79,Mordano,11.812,44.398
24,Cona,14.064,42.507
94,Tredozio,11.74,44.077
94,Anghiari,12.053,43.541
28,Chiusavecchia,7.984,43.968
112,Santa Maria a Valle,14.079,42.593
39,Bancone di Sopra,15.75,40.712
28,Lavandaio,16.173,39.599
46,San Martino,8.791,45.447
39,Barbavara,8.782,45.344
112,Castellaneta,16.935,40.631
46,Fino Mornasco,9.047,45.743
79,Miazzina,8.522,45.976
46,Barbara,13.027,43.579
112,Maddalena,7.029,44.622
39,Santa Severina,16.91,39.148
55,Cogollo,11.156,45.544
55,Chiusaforte,13.304,46.406
94,Alagna Valsesia,7.938,45.851
46,Bortigali,8.837,40.283
24,Brembilla,9.596,45.822
66,Lari,10.592,43.568
24,Serravalle a Po,11.091,45.07
28,Crepaldo,12.696,45.596
24,Turate,9.002,45.656
28,Latina,14.273,41.29
28,San Nicola,16.145,38.203
28,San Sebastiano,11.213,45.925
46,Giardoni,14.426,41.12
24,Scavolino,12.3,43.825
33,Spirano,9.669,45.582
28,Terno d'Isola,9.534,45.687
192,Frosolone,14.447,41.6
39,Musellaro,13.954,42.193
331,Pinzolo,10.763,46.158
55,Orte Scalo,12.408,42.434
39,Agerola,14.545,40.638
28,Villa Sant'Angelo,13.537,42.27
39,Carfizzi,16.976,39.307
79,Ciggiano,11.711,43.364
33,Cassacco,13.195,46.177
112,Campofiorito,13.269,37.754
571,Sapri,15.629,40.075
94,Santo Stefano in Aspromonte,15.79,38.17
28,Merlino,7.446,45.015
192,Pontremoli,9.879,44.375
94,Sassi,10.393,44.083
46,Magnacavallo,11.181,45.005
24,Brescello,10.511,44.895
79,Monte Cavallo,13.002,42.994
55,Cavallerleone,7.663,44.739
192,Sant'Angelo Lodigiano,9.411,45.237
28,Nocelleto,14.015,41.172
46,Borso del Grappa,11.788,45.81
28,Novedo,9.164,45.267
46,Cerneglons,13.311,46.053
33,Stazione Vergiano,12.501,44.046
28,Marina di Davoli,16.549,38.664
33,Appiano Gentile,8.98,45.736
28,Cartoceto,12.883,43.765
39,Stazione,12.54,42.727
24,Arcidosso,11.538,42.872
39,Torretta-Manfredonia,17.788,40.578
46,Cantello,8.899,45.824
33,Sillavengo,8.441,45.521
46,Faggiano,14.521,41.107
24,Curtarolo,11.836,45.522
33,San Panfilo d'Ocre,13.475,42.285
160,Castiglione delle Stiviere,10.483,45.391
331,Formia,13.668,41.258
46,Sergnano,9.701,45.429
55,Venaus,7.009,45.158
276,Varallo,8.259,45.814
94,Marzanello,14.11,41.316
33,San Martino Spino,11.241,44.934
33,Barone,16.638,38.852
33,Maresso,9.354,45.689
66,Capitan Loreto,12.648,43.018
24,Cavernago,9.766,45.625
112,Castano Primo,8.778,45.553
39,Veglia,7.79,44.673
39,Pietrastornina,14.729,40.992
24,Boca,8.409,45.679
46,San Bartolomeo a Quarate,11.335,43.69
39,Gamberale,14.209,41.906
94,Corsico,9.108,45.432
66,Tiarno di Sopra,10.669,45.888
33,Castroreale,15.21,38.099
28,Limena,11.844,45.473
79,Mirto,16.778,39.605
24,San Vito,11.405,46.483
46,Ogliastro Cilento,15.046,40.352
39,Pollena Trocchia,14.379,40.855
33,Campozillone,14.003,41.385
79,Monsano,13.249,43.562
39,Settepolesini,11.459,44.897
39,Sant'Angelo Limosano,14.603,41.693
28,Montevago,12.986,37.702
1183,Gela,14.243,37.07
28,Crespignaga,11.942,45.794
94,Cantiano,12.629,43.476
397,Pietramelara,14.188,41.272
33,Marotta-Pirilli,15.963,38.436
39,Montecatini Val di Cecina,10.749,43.393
55,Gavello,11.179,44.926
160,Desenzano del Garda,10.573,45.458
66,Rignano sull'Arno,11.453,43.725
33,Taiedo,12.774,45.89
24,Loreggiola,11.92,45.608
55,Vasia,7.954,43.932
39,Pretoro,14.141,42.217
331,Samugheo,8.941,39.948
24,San Cassiano,10.573,45.356
28,Fontana,11.238,44.385
39,Taviano,18.087,39.983
39,Nova Milanese,9.2,45.591
55,Ginestra Fiorentina,11.074,43.708
66,Gazoldo degli Ippoliti,10.582,45.202
33,Centrale,11.481,45.728
33,Montagnaga,11.237,46.099
39,Puglianello,14.45,41.224
46,Borgo Scoline,11.534,44.827
39,Semiana,8.732,45.137
79,La Maddalena,9.015,39.147
24,Montauro,16.514,38.75
79,Savelli,13.127,42.726
33,Gassano,10.094,44.204
46,Poiano,11.018,45.472
28,Stazzema,10.31,43.993
46,Loreto,13.62,43.44
55,Stazione di Populonia,10.54,42.996
28,Alice,8.803,44.661
33,San Pietro Novello,12.432,45.665
28,Cerro Maggiore,8.953,45.595
24,Locarno,8.258,45.783
39,Esanatoglia,12.95,43.252
55,Calvera,16.143,40.149
79,Montalto,14.161,41.742
55,Mercatale,11.232,43.635
112,Marina,15.981,39.463
94,Satriano di Lucania,15.642,40.541
134,Otranto,18.482,40.149
46,Policastrello,16.049,39.687
24,Castagnola,9.569,44.223
33,Sant'Agnese,11.186,46.105
33,Spineda,10.512,45.061
28,Matino,18.134,40.027
28,Masio,8.408,44.87
33,San Vincenzo-Cerchiara,14.284,42.188
24,Le Grazie,12.243,45.617
66,Resuttano,14.029,37.679
94,Recco,9.14,44.364
28,San Zenone al Po,9.36,45.108
94,Lucito,14.687,41.732
28,Costa di Rovigo,11.695,45.049
33,Frattamaggiore,14.273,40.939
46,Fortezza,11.609,46.791
28,Cassana,9.69,44.213
46,Piossasco,7.469,44.99
39,Roviano,12.997,42.025
24,Arixi,9.155,39.535
46,Cominello,10.477,45.434
571,Monopoli,17.296,40.952
28,Seveso,9.137,45.642
28,Quartaccio,12.392,42.318
33,Vigo di Fassa,11.675,46.418
79,Monteverdi Marittimo,10.715,43.178
39,Molinetto,10.359,45.502
24,Sant'Andrea in Besanigo,12.624,43.986
28,Ospitaletto,10.605,45.136
33,Lago,12.216,45.987
160,Cassibile,15.199,36.979
397,Bosa,8.492,40.296
2042,Aosta,7.317,45.737
33,San Nicolella,14.964,38.111
24,Borgo Masotti,12.103,44.476
55,Bevera,7.578,43.824
66,Erchie,17.733,40.439
79,Sandra,10.785,45.46
55,Quargnento,8.488,44.945
55,Guidonia,12.724,41.994
66,Sa Serra,9.474,40.702
33,Alviano,12.298,42.59
66,Napoli,14.276,40.859
39,Guazzora,8.844,45.013
230,Monselice,11.753,45.241
28,Costa de' Grassi,10.374,44.402
94,Sant'Anna,17.072,39.003
46,Vallalta,11.01,44.944
24,Vicomero,10.326,44.885
160,Lavis,11.11,46.143
46,Agnino,10.08,44.244
28,Roggio,10.295,44.14
39,Oliveto Lucano,16.186,40.536
33,La Villa-Farneta,11.868,43.223
33,Colle di Fuori,12.806,41.803
94,Barumini,9.004,39.701
28,Labro,12.8,42.526
39,Piovera,8.736,44.958
55,Farra d'Isonzo,13.517,45.906
28,Lemizzone,10.751,44.732
28,Montisi,11.653,43.158
24,San Donino,11.309,44.667
28,Vocabolo Campetella,12.762,42.01
66,Scandicci,11.153,43.767
39,Beltiglio-San Giovanni,14.752,41.062
39,Annone Veneto,12.686,45.787
24,Rongolise,13.917,41.262
39,Romano d'Ezzelino,11.768,45.779
28,Maristella Porto Conte,8.214,40.593
33,Passano,12.595,43.954
79,Marrubiu,8.638,39.752
39,Marina di Montemarciano,13.338,43.653
112,Roccabianca,10.22,45.007
46,Moniga del Garda,10.538,45.527
79,Cannigione,9.44,41.111
331,Vernante,7.534,44.246
46,Sabbioni,10.626,45.029
66,Rino,10.354,46.15
28,Vigarano Mainarda,11.495,44.84
24,Falerone,13.471,43.105
39,Ono San Pietro,10.328,46.017
55,Cuturella,16.779,38.987
24,Friola,11.677,45.677
46,Giuliano Teatino,14.278,42.307
28,Balestrino,8.17,44.124
39,Nosedole,10.983,45.12
33,Vagliano,12.368,43.147
55,Coppito,13.339,42.372
66,Scafa,13.999,42.266
33,Piedipaterno,12.863,42.769
55,San Giovanni in Marignano,12.71,43.939
134,Spiazzo,10.739,46.104
33,Castri di Lecce,18.263,40.274
46,Piosina,12.2,43.489
46,Torralba,8.764,40.514
33,Crava,7.746,44.431
24,Tobbiana,11.04,43.961
33,Collazzone,12.436,42.901
46,Gravellona,8.765,45.327
33,Vellai,11.939,46.038
134,Aldino,11.353,46.367
160,San Marco dei Cavoti,14.88,41.31
230,Campo Tures,11.954,46.92
46,Montelago,10.583,44.454
134,Casole d'Elsa,11.048,43.34
33,Mornese,8.756,44.639
112,Serra de' Conti,13.036,43.542
24,Grancetta,13.361,43.593
46,Vobbia,9.039,44.601
55,Monterosso Calabro,16.288,38.718
55,Montasola,12.68,42.386
397,Modena,10.918,44.656
94,Ferentillo,12.787,42.621
39,Belmonte in Sabina,12.892,42.316
230,Pozzallo,14.849,36.73
24,Albaro,11.196,45.354
94,Desana,8.36,45.27
66,Loreto Aprutino,13.984,42.434
33,Torricella,10.707,45.037
39,Villa,9.481,46.331
66,Latte,7.569,43.795
28,Caldaro sulla Strada del Vino,11.241,46.413
66,Legnaro,11.967,45.341
28,Secli,18.107,40.132
55,Calcinelli,12.918,43.753
79,Rionero Sannitico,14.138,41.713
230,Copertino,18.057,40.27
28,Gariga,9.684,44.983
33,Bauducchi,7.713,44.964
39,Gavignano Sabino,12.619,42.273
24,Surano,18.345,40.027
24,Recetto,8.436,45.46
55,Assergi,13.506,42.416
24,San Giovanni in Croce,10.377,45.077
24,Torrazza,8.959,44.473
28,San Mariano,12.304,43.084
94,Smirra,12.671,43.584
33,Santa Teresa di Riva,15.368,37.947
55,San Vincenzo Valle Roveto Superiore,13.524,41.834
33,Spartimento,14.47,40.892
28,Poggio Picenze,13.539,42.321
24,Cardini,9.453,44.292
79,Vico Equense,14.431,40.66
24,San Marco,11.414,44.595
160,Arsoli,13.018,42.04
66,Ponteginori,10.744,43.335
66,San Pietro,11.678,46.643
476,Terralba,8.638,39.718
46,Meano,11.116,46.125
39,Belvedere Ostrense,13.167,43.581
39,Ponte Chiona,12.685,42.975
192,Colleferro,13.005,41.726
24,Vidolasco,9.712,45.451
134,Vinchiaturo,14.591,41.493
55,Pieve,10.338,45.672
46,Campodonico,12.864,43.229
46,Giovecca,11.877,44.533
24,Benevello,8.106,44.63
39,Santa Maria,13.159,45.971
33,Frabosa Sottana,7.798,44.302
28,San Vittorino,14.105,41.665
33,Pietraferrazzana,14.374,41.969
46,Cavallotta,7.581,44.608
39,Maserno,10.931,44.254
33,Druogno,8.434,46.135
39,Cappadocia,13.28,42.006
55,Villaputzu,9.574,39.441
112,Bionaz,7.422,45.875
28,Scandolara Ripa d'Oglio,10.156,45.222
28,Monticelli,12.187,44.916
28,Morgano,12.104,45.648
39,La Torba,11.328,42.415
55,Passaggio,12.507,43.022
39,Sugremaro,9.674,44.493
112,Romano di Lombardia,9.754,45.52
39,Corrutto,16.165,38.513
55,Albisola Superiore,8.514,44.337
79,Baranello,14.558,41.527
79,Cornaredo,9.027,45.497
160,Muro Lucano,15.484,40.751
39,Salionze,10.723,45.404
28,Tiggiano,18.365,39.904
46,Cornaleto,9.751,45.242
46,Besate,8.97,45.313
46,Serravalle,12.047,44.966
276,Orzinuovi,9.924,45.404
66,Marano sul Panaro,10.973,44.457
66,Pietracamela,13.554,42.523
39,Preturo,13.295,42.377
66,Cimolais,12.437,46.288
24,Bronzolo,11.32,46.403
33,Camporotondo di Fiastrone,13.266,43.132
134,Grimaldi,16.234,39.141
79,Carro,9.606,44.274
33,Blessano,13.104,46.041
39,Cancello,16.431,38.942
66,Cabella Ligure,9.095,44.676
33,Formigara,9.771,45.224
39,Lettopalena,14.156,42.004
33,Vaiano Valle,9.215,45.429
55,Selvena,11.643,42.767
33,Montemarano,14.998,40.915
24,Giacciano,11.453,45.057
24,Casciana Alta,10.598,43.538
160,San Vigilio,11.935,46.699
33,Sarmego,11.675,45.501
33,Zugliano-Terenzano-Cargnacco,13.224,46.007
33,San Michele,11.689,45.777
46,Piozzano,9.495,44.926
28,Traghetto,11.687,44.641
55,Meda,9.16,45.658
33,Vigliano,13.219,42.348
331,Martina Franca,17.341,40.701
66,Ripatransone,13.762,42.996
28,Scandolara,12.093,45.617
79,Aritzo,9.192,39.959
24,Straelle,11.975,45.555
112,Sacile,12.507,45.959
24,Soiano,10.515,45.534
331,Fossano,7.721,44.55
28,Capergnanica,9.643,45.337
55,Solarolo,10.598,45.238
55,Paisco,10.293,46.079
28,Griante,9.236,45.995
33,Manciano,11.881,43.336
28,Pellizzari,8.677,45
55,Buonvicino,15.884,39.689
28,Ca' Stocco,12.66,45.526
79,Ome,10.12,45.625
55,Rittana,7.377,44.355
134,Osidda,9.218,40.524
160,Benetutti,9.168,40.458
39,Roccaspromonte,14.558,41.602
33,Settimo Vittone,7.831,45.549
33,Variano,13.11,46.028
46,Castellaccio,10.365,43.486
28,Castelmezzano,16.047,40.53
24,Valzemola,8.173,44.365
46,Belpasso,14.983,37.595
24,Caporio,12.97,42.377
28,Santa Maria le Grotte,16.142,39.476
39,Borgo Carso,12.893,41.535
55,Galliavola,8.818,45.097
24,Cinque Poderi,12.529,41.657
55,Pieve Cesato,11.958,44.337
112,Quarona,8.269,45.763
28,Fardella,16.17,40.113
46,Sogliano al Rubicone,12.301,44.005
192,Roccaraso,14.081,41.847
28,Maremmana,11.001,43.711
79,Frisa,14.369,42.263
28,Castelfranco di Sotto,10.743,43.7
33,Nuchis,9.151,40.917
28,Asciano,10.467,43.748
24,Benabbio,10.605,43.999
134,Albino,9.797,45.761
55,Medea,13.424,45.918
33,Flussio,8.541,40.267
94,Sant'Alessio Siculo,15.35,37.925
33,Magre sulla Strada del Vino,11.211,46.288
46,Aschi Alto,13.735,41.97
134,Moretta,7.536,44.763
28,Stazione di Torano,16.212,39.5
55,Villanova,11.98,44.248
24,Fago-Savini,16.261,38.592
134,Valdottavo,10.477,43.942
112,Maletto,14.863,37.83
94,San Nicolo,10.923,46.511
24,Taru,12.206,45.536
94,Bancali,8.462,40.738
79,Buccheri,14.85,37.125
46,Calosso,8.227,44.74
28,Defensola,16.154,41.897
55,Cadilana,9.545,45.329
24,Zona 167 Giuliani,17.313,40.694
66,Mis,12.084,46.152
66,Fortunago,9.183,44.923
39,Paganico,12.997,42.189
79,Latiano,17.72,40.551
33,Roreto,7.143,44.989
46,Rasun di Sotto,12.048,46.778
33,Mazzeo,15.301,37.872
24,Selva-Casa Martini,10.793,44.396
39,Azzago,11.047,45.546
94,Salerni,16.425,39.376
46,Ponzano,12.207,45.72
94,Priola,8.021,44.243
134,Trestina,12.237,43.368
39,Serravalle,8.145,44.947
33,Limite,10.985,43.745
33,La Pieve,11.428,43.587
33,San Prospero,10.4,44.779
55,Stazione,7.949,44.963
94,Pereto,13.102,42.058
66,Borgo Tossignano,11.59,44.277
24,Coldrano,10.825,46.621
33,Berruiles,9.662,40.727
28,Barbariga,10.055,45.405
192,Ostra,13.158,43.614
230,Levanto,9.619,44.176
112,Annunziata,14.355,41.121
28,Pimentel,9.065,39.486
39,Montenero Sabino,12.814,42.282
46,Montaldeo,8.73,44.668
46,Stagno Lombardo,10.088,45.073
33,Fagare,12.426,45.708
24,Barbere,11.158,45.193
24,Tiboni,14.261,42.37
134,Farra d'Alpago,12.357,46.12
66,Acquaria,10.764,44.278
33,Piegolelle-San Bartolomeo,14.825,40.686
46,Fossamerlo,12.327,45.896
39,Bordano,13.106,46.315
24,Pilcante,11,45.771
46,Molini di Tures,11.942,46.9
55,Bruzzano Zeffirio,16.082,38.013
55,Sigillo,13.079,42.497
55,Santa Maria Imbaro,14.449,42.218
79,Soveria Mannelli,16.372,39.084
39,Laino Castello-Nuovo Centro,15.977,39.936
24,Massarella,10.799,43.78
33,Ponte Nova,11.48,46.426
24,Celle di San Vito,15.181,41.326
28,Mezzana Bigli,8.848,45.06
55,Caravino,7.96,45.398
94,Palazzolo sull'Oglio,9.889,45.593
55,Castel di Lucio,14.312,37.887
28,Nomi,11.069,45.93
46,Bagazzano,11.024,44.657
112,Ovindoli,13.516,42.137
79,Melendugno,18.337,40.275
46,Squillace Lido,16.57,38.779
39,Orsoleto,12.502,44.082
46,Zermen,11.944,46.024
24,Pradipozzo,12.76,45.782
46,Pallare,8.28,44.329
24,Sabbionara,10.956,45.741
46,San Martino,8.419,45.063
24,Ossi,8.591,40.675
33,Casino,10.389,44.448
39,Castelnuovo,13.451,42.087
134,Colle Sannita,14.835,41.364
24,Guanzate,9.006,45.728
24,Valli,13.598,42.835
79,Campochiaro,14.508,41.447
192,Copparo,11.827,44.895
28,San Rocco,7.951,44.758
28,Lizzola,10.016,46.023
33,Sorafurcia,12.002,46.747
94,Alberese,11.106,42.668
24,Civitella Alfedena,13.942,41.765
46,Premeno,8.597,45.979
24,Civitaluparella,14.303,41.945
397,Belluno,12.217,46.151
55,Gaggi,15.221,37.861
39,Santo Iona,13.51,42.099
46,Corcumello,13.347,42.009
39,Maesta,13.392,43.208
24,Piazzolo,9.671,45.98
112,Saluggia,8.011,45.238
55,Sequals,12.828,46.166
66,Mantignana,12.291,43.16
66,Pasturo,9.448,45.948
28,Casteltodino,12.508,42.664
33,Vietri sul Mare,14.725,40.669
55,Cereglio,11.069,44.306
39,Magliolo,8.246,44.191
46,Maretto,8.033,44.945
66,Roccelletta,16.596,38.816
24,Ciorlano,14.158,41.45
94,San Quirico d'Orcia,11.606,43.059
33,Cologne,9.939,45.581
33,Cavignaca,9.646,44.514
28,Gorghetti,11.798,45.123
79,San Bartolomeo,7.663,44.265
39,Pianoscafo-Liattughelle,16.468,39.716
28,Montanari,14.123,41.244
134,Alimena,14.113,37.694
33,Calvecchia-San Donato,12.601,45.647
24,Oliosi,10.751,45.406
33,Fregona,12.339,46.003
46,Villa Carcina,10.194,45.632
39,Monte Porzio Catone,12.714,41.812
46,Angri,14.568,40.743
24,Arten,11.83,46.009
66,Calamonaci,13.29,37.526
39,Caniparola,9.998,44.11
112,Chivasso,7.891,45.193
24,Celle Ligure-Pecorile,8.551,44.347
192,Olmedo,8.38,40.651
46,Forma,13.088,41.674
33,San Martino alla Palma,11.155,43.753
46,Ferrazze,11.079,45.444
55,Pedavena,11.882,46.038
39,Anterivo,11.366,46.278
160,Stroncone,12.655,42.502
24,Borgo Sant'Antonio,13.084,42.942
46,Civitella San Paolo,12.578,42.198
276,Carpegna,12.338,43.782
79,San Foca,18.404,40.299
94,Guarcino,13.314,41.799
55,Nave,10.291,45.587
685,Treviso,12.24,45.674
112,Mezzenile,7.396,45.295
66,Montepulciano Stazione,11.854,43.135
24,San Briccio,11.119,45.453
46,Riofreddo,12.995,42.058
66,Cervaro,15.594,41.396
33,Ottiglio,8.339,45.054
79,Vastogirardi,14.26,41.775
134,Barrafranca,14.201,37.38
94,Bultei,9.064,40.456
66,Totari,14.382,41.302
66,Fonteno,10.024,45.761
28,Ceolini,12.601,45.991
94,Rocca Imperiale Marina,16.613,40.098
39,Campochiesa,8.195,44.074
55,Marano di Napoli,14.186,40.9
33,Collinello,12.146,44.116
33,Candide,12.513,46.592
28,Canevino,9.276,44.939
33,San Paolo-Cannistra,15.235,38.132
24,Busiago,11.83,45.563
66,Selegas,9.103,39.568
55,Vignolo,7.473,44.362
28,Casapesenna,14.138,40.991
55,Belcastro,16.786,39.018
28,Seminario,16.625,39.565
39,Ca' Turcata,12.659,45.615
24,Valeggio,8.861,45.151
33,Drenchia,13.639,46.181
79,Caldogno-Rettorgole-Cresole,11.515,45.604
28,Frazione di Villa d'Arco,12.664,45.999
55,Andreis,12.614,46.202
24,Bricco Favole,7.812,44.655
46,Carpen,11.934,45.973
28,Codevilla,9.057,44.965
160,Sezze,13.057,41.5
55,Occagno,9.099,45.926
28,Pecetto di Valenza,8.671,44.99
24,Pieve,13.136,42.944
66,Ortiano,16.695,39.45
28,Savignano sul Panaro,11.035,44.48
24,Marina di Caronia,14.45,38.033
66,Marcato Bianco,13.704,37.742
24,Poggio Morello,13.872,42.783
94,Graffignano,12.203,42.574
28,Villarboit,8.337,45.437
571,Ragusa,14.716,36.929
94,Ticineto,8.552,45.096
33,Selva,12.033,46.45
46,Villanterio,9.362,45.219
28,Cerro,8.6,45.894
33,Santa Barbara,18.078,40.224
39,Correzzana,9.308,45.667
94,Tramutola,15.788,40.318
39,Moncenisio,6.981,45.206
79,Montemerano,11.49,42.623
33,Gatteo-Sant'Angelo,12.387,44.124
66,Forni di Sotto,12.672,46.394
33,Terzoglio,8.219,45.532
55,Capo Rizzuto,17.096,38.904
39,Piagge,12.969,43.735
24,Palazzolo,11.436,43.69
46,Torre Suda,18.033,39.955
28,Colombare,11.513,45.12
28,San Filippo del Mela,15.273,38.17
24,Santa Maria Apparente,13.695,43.298
24,Oga,10.347,46.463
46,Tre Fontane,12.731,37.574
24,Pietra Forcella,15.001,37.608
397,Bonorva,8.769,40.419
39,San Cassiano,10.635,44.039
39,Pietranico,13.911,42.276
134,Montallegro,13.351,37.392
33,Briga Novarese,8.454,45.733
24,Riccio,14.36,42.368
112,Tagliacozzo,13.255,42.07
24,Mezzane di Sotto,11.127,45.482
1183,Parma,10.329,44.803
24,Aquilea,10.515,43.918
33,San Giovanni,7.891,45.008
24,Cafarone,16.225,38.917
24,Bosaro,11.764,44.999
230,Moena,11.661,46.377
33,Baia Domizia,13.799,41.199
33,Maddalena,7.304,45.032
24,Asso,9.269,45.858
33,Scrofiano,11.715,43.23
28,Bettona,12.487,43.012
46,Piancaldoli,11.433,44.214
28,Sant'Anna Morosina,11.835,45.603
28,Castello del Lago,14.922,41.074
39,Cessapalombo,13.258,43.109
112,Siligo,8.726,40.576
24,Maiera,15.851,39.717
33,Bagni,8.473,44.664
230,Medicina-Buda,11.638,44.479
39,Varapodio,15.984,38.317
79,Lattarico,16.126,39.45
46,Ca' Corner,12.433,45.56
55,Marsia,13.476,42.86
112,San Gemini,12.543,42.61
160,Rosarno,15.983,38.488
46,Selva,11.629,44.556
46,Agnadello,9.558,45.445
79,Ornaro Basso,12.858,42.296
39,Fiumenero,9.957,46.021
66,Piubega,10.531,45.227
39,Fonte,14.66,41.596
46,Muoio,14.988,40.329
46,Purgatorio,13.703,41.65
39,Ceppaloni,14.76,41.045
276,Mirandola,11.066,44.886
24,Quarto della Colonna,12.756,41.848
24,Vitulano,14.648,41.174
24,Longera,13.831,45.64
46,Procida,14.016,40.755
28,Valpone,8.021,44.805
33,Terdobbiate,8.696,45.377
24,Vattaro,11.217,45.995
33,Sant'Agapito,14.221,41.544
55,Ponte,12.369,42.776
66,Marina di Schiavonea,16.541,39.652
66,Casacastalda,12.648,43.196
112,Semproniano,11.542,42.728
24,Madonnetta,13.476,43.155
134,Galeata,11.909,43.995
46,Spinello,11.976,43.925
28,Pogi,11.614,43.466
112,Spilimbergo,12.893,46.11
112,Paesana,7.275,44.687
39,Bagnolo del Salento,18.352,40.15
46,Aielli,13.591,42.081
94,Ponte di Legno,10.509,46.259
28,Pralongo,12.485,45.644
134,Santa Marinella,11.864,42.037
134,Sorgono,9.101,40.026
134,Egna,11.273,46.319
112,Castelraimondo,13.056,43.209
66,Marausa,12.512,37.945
33,Gemini,18.186,39.912
66,Montopoli,10.734,43.673
79,Puntarazzi,14.661,36.9
24,Arson,11.934,46.074
55,Lucca Sicula,13.307,37.579
112,Riotorto,10.684,42.981
66,Simeri Mare,16.704,38.864
94,Vische,7.948,45.335
55,Carlantino,14.976,41.595
24,Forcella,13.768,42.623
24,Dallarosta,10.625,44.635
33,San Bartolomeo,8.978,44.545
24,Scaglia,11.771,42.128
46,Ceretto,7.653,44.865
39,Alessandria del Carretto,16.381,39.959
33,Vanzo,11.813,45.233
46,Montoggio,9.052,44.518
94,Scillato,13.907,37.857
24,Introini,9.054,45.621
33,Villa-Nabian,7.706,45.69
94,Angrogna,7.224,44.844
28,Cicerone,17.307,40.705
24,San Giacomo,13.925,42.596
24,Zona Industriale Artigianale,11.252,46.424
28,Colle Santa Maria-Varano,13.721,42.705
24,Is Pillonis,8.615,38.977
24,Novate Milanese,9.135,45.531
24,Marginone,10.69,43.839
79,Venasca,7.403,44.565
39,Brusimpiano,8.889,45.945
79,Montegabbione,12.092,42.92
66,Dolina,13.858,45.605
46,Petrignano,11.94,43.152
39,Poggio San Vicino,13.079,43.375
66,Acerra,14.371,40.943
28,Banari,8.702,40.571
33,Fossatone,11.57,44.496
28,Mosorrofa,15.72,38.096
28,Bagnolo di Po,11.501,45.015
55,Castelli,13.712,42.485
33,Antermoia,11.849,46.691
24,Querce,10.744,43.8
134,Anzi,15.924,40.517
46,Fontanigorda,9.306,44.546
55,Ca di Buffa,11.909,43.542
79,Caposele,15.223,40.816
46,La Principina,11.058,42.738
55,Castiglioni,13.007,43.506
24,Acquappesa,15.954,39.495
28,Celso,15.056,40.202
46,Pallerone,10.005,44.203
24,Rocchetta Belbo,8.176,44.637
24,Sant'Angelo,16.386,39.531
28,Vaglie,13.96,41.352
28,Castiglione,8.217,46.023
28,Tartinis-Colza,12.87,46.422
28,Santa Giulia,9.376,44.304
192,Serra San Bruno,16.323,38.575
46,Fierozzo,11.313,46.108
55,Castell'Ottieri,11.751,42.731
24,Molazzana,10.417,44.072
28,Boves,7.551,44.332
112,Colfiorito,12.891,43.028
28,Pezze,14.995,40.671
24,Compiobbi,11.363,43.785
24,Caupo,11.838,45.999
134,Piandimeleto,12.411,43.724
28,Salettuol,12.323,45.763
66,Mombaldone,8.332,44.569
46,Bedero,8.718,45.979
39,Gambassi Terme,10.952,43.537
28,Villa San Giorgio in Vezzano,11.749,44.265
28,Spindoli,12.9,43.195
46,La Crocera,7.409,44.748
39,San Pietro Infine,13.96,41.446
39,Domatore,12.772,41.752
33,Filippona,8.75,44.927
33,Sant'Elpidio a Mare,13.686,43.229
79,Gairo Sant'Elena,9.506,39.848
55,Perlezzi,9.421,44.444
55,Cudacciolu,9.381,41.053
55,Vetriolo,12.118,42.606
46,San Tomaso,10.683,44.795
55,Rovasenda,8.317,45.539
331,Cogne,7.361,45.608
33,Godega,12.38,45.921
46,Castelluccio Valmaggiore,15.199,41.342
39,Novagli,10.439,45.387
94,Portovenere,9.834,44.066
66,Marciana Marina,10.196,42.803
66,Mafalda,14.712,41.942
39,Cusciano,13.584,42.569
33,Tualis,12.879,46.532
79,Lugagnano,10.885,45.434
33,Carturo,11.748,45.588
39,Castelnuovo Calcea,8.285,44.788
24,Fontana Scurano,13.367,41.735
66,Cocullo,13.774,42.033
55,Fabbriche di Vergemoli,10.432,43.999
39,Salvo Marina,14.773,42.07
39,Bosco Marengo,8.677,44.824
66,Cervaro,13.902,41.484
39,Gabella Grande,17.102,39.152
33,Castrezzone,10.464,45.548
39,Spello,12.666,42.993
55,Fara Gera d'Adda,9.537,45.556
46,Villa Potenza,13.424,43.319
24,Ghetto Tombanuova,12.602,44.008
192,Cianciana,13.433,37.521
39,Poggio,13.582,43.554
33,Malafesta,12.962,45.829
112,Civitella del Lago,12.284,42.71
24,Corso,10.986,45.605
39,Viola,7.965,44.292
33,Massazza,8.165,45.493
39,Pratovecchio,11.723,43.787
66,Oggiono,9.347,45.791
160,Campora San Giovanni,16.094,39.068
66,Pozzilli,14.061,41.512
39,Savi,7.961,44.978
66,Bandito,7.821,44.724
94,Conselve,11.873,45.232
276,Minervino Murge,16.077,41.084
66,Calvari,9.286,44.382
39,Bondo,10.692,45.998
33,Villa d'Asolo,11.903,45.771
33,Fiesco,9.779,45.336
33,Ramon,11.866,45.715
39,Chitignano,11.881,43.662
33,Casalino,8.249,45.103
55,Monteviale,11.461,45.556
55,Crocefisso,12.827,41.467
24,Gromlongo,9.538,45.731
46,Santa Caterina,10.934,46.688
94,Giffone,16.15,38.438
94,Torvaianica,12.449,41.633
55,Tolle,12.411,44.955
94,Radicondoli,11.043,43.261
39,Quercia,10.009,44.233
39,Gherghenzano,11.385,44.681
46,Procchio,10.244,42.785
94,Accadia,15.331,41.159
24,Ussel,7.627,45.739
39,Ghiandaro,16.195,39.584
66,Derby-Villaret,7.088,45.728
55,Costa Masnaga,9.278,45.765
46,Lainate,9.025,45.565
33,Serole,8.258,44.555
39,Altavilla Monferrato,8.377,44.993
79,Suvereto,10.678,43.077
7312,Palermo,13.337,38.11
28,Lido di Iesolo,12.671,45.515
66,Morra,12.13,43.386
192,Montevarchi,11.568,43.528
33,Noviglio,9.051,45.359
39,Leoni,14.614,42.168
28,Castelliri,13.551,41.678
66,Pozzomaggiore,8.661,40.398
33,Rivarotta,13.079,45.822
79,Capriata d'Orba,8.691,44.728
94,Erula,8.944,40.793
24,La Dogana,12.028,43.254
134,Talana,9.497,40.042
55,Savorgnano,12.854,45.897
24,Stabiuzzo,12.38,45.768
24,Santa Caterina,10.98,44.925
46,Ganaceto,10.9,44.709
24,Prata Sannita Centro,14.202,41.431
46,Trevenzuolo,10.934,45.27
24,Peio,10.673,46.363
33,Casale della Madonna,13.172,45.777
28,San Michele in Bosco,10.57,45.113
66,Boschi,11.556,44.691
46,Mombaruzzo,8.449,44.772
28,Villanova,12.043,44.444
66,Santa Maria del Focallo,14.942,36.715
476,Salerno,14.792,40.68
24,Sarconi,15.889,40.248
33,Monzoro,9.042,45.46
94,Marinella,12.842,37.591
28,Bonfadina,10.029,45.571
55,Borgosatollo,10.24,45.481
55,Casalromano,10.366,45.198
33,Pino d'Asti,7.985,45.057
33,Chero,9.827,44.93
24,Pramollo,7.208,44.901
33,Bosco,11.164,45.338
33,Marittima,18.4,39.996
33,Ospedaletto,10.843,45.505
192,Faenza,11.876,44.292
55,Canistro Inferiore,13.413,41.941
24,Gaminella,8.249,45.118
24,Moncestino,8.16,45.155
33,Passo di Mirabella-Pianopantano,15.006,41.058
94,Grisolia,15.856,39.726
39,Monacizzo-Librari-Truglione,17.485,40.313
79,Bordolano,9.988,45.291
66,Montecchio,11.924,43.315
39,Casalsottano,15.036,40.216
79,Pecorone,15.857,40.072
24,Vigolo Vattaro,11.197,46.006
94,San Giovanni Valdarno,11.532,43.563
28,Casalina,12.4,42.951
33,Portanuova,8.632,44.81
55,Duomo,10.022,45.533
66,Serrenti,8.978,39.493
112,Santa Caterina,10.49,46.413
79,Buttrio,13.334,46.01
79,Plasencis,13.081,46.069
24,San Matteo,10.629,45.016
33,Fiano,11.118,43.589
46,Villa-Campolasta,11.365,46.665
55,Villanova,12.973,46.133
46,Filigheddu,8.602,40.748
112,Noale,12.069,45.546
33,Comun Nuovo,9.66,45.623
28,Montagna,8.368,44.281
134,Rialto,8.262,44.227
66,San Pasquale,9.279,41.168
28,Pennar,11.54,45.862
134,Mogoro,8.776,39.685
94,Avetrana,17.734,40.352
79,San Gaetano,11.678,45.878
33,Santopadre,13.635,41.602
94,Cocconato,8.037,45.088
276,Peccioli,10.715,43.55
33,Rosazza,7.974,45.677
28,Cosizza,13.555,46.147
66,Giardina Gallotti,13.521,37.352
28,Riolo,9.52,45.336
79,Centenaro,10.547,45.429
24,Argentera,7.725,45.293
39,Cerenzia,16.784,39.244
24,Crugnola,8.75,45.73
39,Loceri,9.584,39.859
24,Tre Torri,11.036,44.826
79,Grotti,12.947,42.355
112,Petritoli,13.66,43.069
24,Sant'Angelo,12.17,42.567
79,Predappio,11.981,44.102
66,Castel Giuliano,12.126,42.054
33,Strada in Chianti,11.301,43.657
33,Ghisiolo,10.859,45.197
55,San Quirico,11.764,42.669
55,Bracigliano,14.706,40.822
33,Gerbido,9.749,45.055
39,Armo,7.912,44.088
134,Este,11.656,45.225
28,Strembo,10.752,46.119
134,Manoppello Scalo,14.058,42.31
79,Sostegno,8.27,45.653
33,Alagna,8.89,45.169
46,Aggio,9.011,44.466
79,Arsie,11.759,45.983
46,Asigliano Vercellese,8.408,45.261
276,Varzi,9.191,44.824
46,Rigoroso,8.9,44.665
112,Ornavasso,8.416,45.968
46,Clauzetto,12.916,46.23
24,Calcasacco,14.138,42.397
46,Cesana Torinese,6.791,44.952
55,Tarsia,16.273,39.624
79,San Gusme,11.497,43.388
24,Salto Chiesa,9.17,44.398
160,Mazzarrone,14.564,37.09
112,Paulilatino,8.763,40.084
66,Fontignano,12.189,43.027
66,Amaro,13.096,46.374
24,Brandico,10.051,45.454
33,Quindici,14.648,40.864
55,San Colombano,12.054,44.1
28,Montesegale,9.125,44.907
39,Soveria Simeri,16.681,38.944
39,Montepennino,12.643,42.907
66,Limbiate,9.124,45.604
112,Civitella Roveto,13.427,41.916
24,Stanghe,11.378,46.882
33,Sessame,8.336,44.671
94,Guidomandri Marina,15.467,38.048
28,Manca di Basso,16.129,40.075
39,Marina Julia,13.53,45.777
79,Pettinara,11.869,44.259
28,Cesi,12.58,42.611
39,Cimbro,8.719,45.737
46,Santa Croce del Sannio,14.733,41.387
28,Pieve al Toppo,11.798,43.408
112,Ormea,7.919,44.155
28,Portula,8.178,45.675
55,San Marzano di San Giuseppe,17.505,40.454
28,Dragoni Superiore,16.284,38.322
79,Gaiola,7.407,44.335
28,Macchia Valfortore,14.912,41.595
160,Nicastro-Sambiase,16.312,38.967
66,Isola Fossara,12.738,43.433
24,Castel San Felice,12.841,42.744
55,Passarella,12.605,45.594
55,Tortoreto Lido,13.942,42.798
112,Gaby,7.882,45.714
79,Piano del Voglio,11.216,44.169
46,Mortilla,16.211,38.942
28,Cassinino,9.14,45.224
24,Cancellonica,14.732,41.086
55,Orria,15.172,40.3
39,Massa Finalese,11.214,44.85
112,Carpineto Romano,13.085,41.603
28,Vanga,11.384,46.561
46,Gorgo,13.024,45.747
66,Rocca di Cambio,13.489,42.236
28,Pozzo della Chiana,11.799,43.293
160,Sale,8.81,44.981
39,Sant'Antonio,9.484,45.757
39,Torchione-Moia,9.853,46.153
33,Bellisio Solfare,12.826,43.521
33,Rai,12.393,45.808
66,Castell'Alfero,8.21,44.981
28,San Cataldo,13.572,41.512
66,Montespertoli,11.074,43.644
112,Bagni di Lucca,10.575,44.009
39,Credera,9.654,45.303
33,Montefalcione,14.881,40.96
66,Bellavista,11.162,43.441
55,Varco d'Amendola,16.257,39.755
94,Saracena,16.159,39.779
33,Sant'Ilario,10.214,42.763
33,Strassoldo,13.32,45.856
66,Vitinia,12.407,41.792
33,Torre Alfina,11.945,42.755
33,Lesignano de' Bagni,10.299,44.643
79,San Miniato,10.817,43.69
24,Apollosa,14.703,41.093
55,Gordona,9.366,46.292
112,Mongreno,7.751,45.064
33,Porto Alabe,8.477,40.251
39,Solignano Nuovo,10.924,44.526
66,La Vecchia,10.529,44.567
33,Gardone Riviera,10.563,45.621
24,Cascina Restelli,8.991,45.68
66,Dolegna del Collio,13.478,46.032
134,Rocca di Mezzo,13.519,42.205
24,Villaggio Sant'Antonio,15.004,37.556
66,Confienza,8.556,45.332
79,Abriola,15.815,40.507
24,Mirasole,8.61,45.883
94,Focene,12.213,41.815
33,Rumianca,8.288,45.994
39,Ferrazzano,14.672,41.53
28,San Germano dei Berici,11.466,45.402
66,Santa Croce,12.915,42.467
134,Lenola,13.459,41.406
24,Acquaviva-Villa Musone,13.586,43.452
33,Baragazza,11.201,44.129
46,Ostra Vetere,13.061,43.604
66,Corte de' Frati,10.101,45.218
33,Matini-Casette,14.844,38.128
24,Bussero,9.373,45.534
55,San Salvatore Telesino,14.498,41.237
24,Rio San Martino,12.11,45.592
66,Olia Speciosa,9.526,39.279
66,Lucignano d'Arbia,11.436,43.213
28,Visome,12.199,46.114
24,Tortorella,15.607,40.142
39,Caselle,11.363,45.275
66,Salo,10.519,45.609
28,Vicolungo,8.463,45.478
33,Migliara-San Silvestro,14.492,41.128
24,Trovo,9.036,45.283
94,Sparanise,14.095,41.187
112,Sarsina,12.143,43.92
79,Fossa,11.024,44.924
66,Branca,12.68,43.271
66,Cusano Mutri,14.511,41.336
24,Castello,14.132,41.62
24,Grezzano,10.858,45.316
24,Gasponi,15.905,38.663
66,Angeli,13.067,43.472
28,Robecchetto con Induno,8.767,45.531
24,Ponte,13.944,41.271
55,Pescarella,12.567,41.645
94,Roverbella,10.769,45.267
33,Nepezzano,13.756,42.689
160,Deliceto,15.384,41.223
24,Sala al Barro,9.361,45.822
192,Bagnasco,8.045,44.302
55,Concesio,10.218,45.605
66,Boretto,10.545,44.902
55,Capilungo,18.068,39.922
134,Corridonia,13.508,43.247
28,Rogliano,16.322,39.181
55,Costa Saracena - Castelluccio,15.134,37.306
94,Amendolara,16.581,39.952
24,Villanova,12.332,43.008
55,Tuili,8.96,39.713
28,Sant'Elena Sannita,14.47,41.576
112,Auletta,15.425,40.561
94,Pennapiedimonte,14.194,42.157
33,Colombiera-Molicciara,10.009,44.091
1183,Siracusa,15.273,37.084
24,San Giuliano,11.951,45.522
46,Casatico,10.549,45.141
79,Felegara,10.114,44.722
134,Roccalbegna,11.509,42.786
46,Caprarola,12.236,42.32
134,Solarussa,8.674,39.956
571,Piacenza,9.706,45.045
28,Soriso,8.41,45.741
33,Spinosa,10.822,45.205
33,Campoformido,13.156,46.018
134,Pomaretto,8.049,45.152
39,Cinisello Balsamo,9.214,45.558
24,Perticara,12.656,42.531
66,Campoli Appennino,13.683,41.736
66,Villa Ottone,11.948,46.865
476,Umbertide,12.336,43.305
24,San Pietro in Campiano,12.179,44.29
39,Canneto,12.739,42.186
112,Mallare,8.297,44.289
33,Povegliano,12.207,45.759
55,Spigno Monferrato,8.334,44.543
46,Ziracco,13.345,46.111
24,Campi,10.812,45.911
24,Rontagnano,12.23,43.954
55,Mille Pertiche,12.51,45.594
79,Scafati,14.524,40.75
66,Gandellino,9.946,45.99
55,Schieti,12.631,43.784
24,Villa di Molvena,11.619,45.727
66,Listolade,12.007,46.317
39,Cumignano sul Naviglio,9.836,45.354
55,Forio,13.862,40.733
55,Civitella d'Agliano,12.186,42.604
55,Surdo,16.2,39.329
28,Pietransieri,14.119,41.847
33,Salice,15.494,38.251
55,Sala Baganza,10.228,44.721
79,Marinella,16.119,37.99
55,Padule-San Marco,12.606,43.33
24,Anduins,12.961,46.235
79,Cagnano Varano,15.772,41.829
66,Villa Celiera,13.859,42.382
39,Niccone,12.297,43.321
79,Cusercoli,12.01,44.046
39,Vigna,7.667,44.281
33,Cento,12.33,44.055
160,Ales,8.815,39.768
230,Atina Inferiore,13.79,41.632
39,Bella,15.541,40.761
33,Prepotto,13.694,45.763
24,Occhieppo Inferiore,8.021,45.55
46,Porto Recanati,13.661,43.436
66,Seriate,9.724,45.683
33,Casale,11.397,45.797
33,San Filippo sul Cesano,13.018,43.674
24,Bugnins,12.937,45.911
24,Piane,9.139,44.425
24,Pontone,14.384,40.607
79,Polignano a Mare,17.21,40.998
24,Piane,11.36,45.736
28,Pontelatone,14.25,41.194
39,Lozzo Atestino,11.63,45.29
39,San Donato,12.201,43.881
33,Salvaterra,10.768,44.6
28,Villanovaforru,8.87,39.632
39,Zerman,12.267,45.577
24,Boffalora d'Adda,9.494,45.36
39,San Biagio,13.412,43.436
39,Cade-Gaida,10.517,44.74
33,Tambre,12.419,46.126
33,Corciano-Pigge,12.752,42.852
66,Villa Oliveti,14.067,42.338
39,Villa Santo Stefano,13.311,41.517
94,Osteria del Gatto,12.75,43.291
79,San Martino d'Agri,16.052,40.239
192,Nulvi,8.744,40.785
33,Foresta-Mazzarella,13.859,41.472
160,Fratte Rosa,12.902,43.633
24,Magazzino,10.615,43.822
134,Bompietro,14.093,37.745
28,Cistio,11.448,43.922
94,Marano Lagunare,13.168,45.764
24,Colmaggiore,12.234,45.985
24,Dasa,16.195,38.564
28,Borgatello,11.091,43.426
46,Pievebovigliana,13.084,43.062
112,Palizzi,15.987,37.967
33,Diano d'Alba,8.027,44.65
33,Scoppito,13.256,42.373
55,Murello,7.601,44.752
28,Romea Vecchia,12.232,44.39
55,Armento,16.065,40.308
46,Regalgioffoli,13.638,37.821
46,Mucinasso,9.723,45.014
33,Santa Margherita d'Adige,11.556,45.212
112,Picerno,15.643,40.641
28,Faiolo,12.078,42.897
55,Ghiaie,8.952,45.066
33,Ripe,13.106,43.669
94,Rotello,15.005,41.748
79,Fiano,7.523,45.217
24,Codisotto,10.727,44.981
24,Mornago,8.751,45.746
33,Castiglione,8.258,44.933
39,San Pier d'Isonzo,13.463,45.845
94,Agnone,14.997,40.217
24,Antonelli,17.237,40.893
33,Torella dei Lombardi,15.109,40.937
79,San Lorenzo in Campo,12.947,43.602
94,Stolvizza,13.355,46.361
66,Tavoleto,12.596,43.842
79,Poli,12.891,41.889
46,Salasco,8.264,45.326
24,Isolabuona,8.952,44.599
134,Cogolo,10.692,46.353
46,Timau,12.996,46.585
33,Spinone al Lago,9.92,45.763
79,Baselice,14.974,41.394
276,Troina,14.598,37.785
28,Lovertino,11.607,45.346
28,Zovencedo,11.503,45.428
24,Pressano,11.106,46.153
28,Ponte Gorzone,11.763,45.145
33,Gualdo,12.476,42.454
24,Monteleone,14.977,40.64
112,Taurisano,18.213,39.957
24,Massina,8.974,45.645
28,Favorita,12.242,45.524
46,Marcaria,10.534,45.122
94,Introdacqua,13.898,42.01
94,Castelnuovo di Val di Cecina,10.902,43.211
66,Pignataro Maggiore,14.173,41.19
134,Colombella,12.481,43.149
33,Villa Milana,11.548,45.618
33,San Savino,11.983,44.482
46,Masseria de Gregorio,14.78,41.16
66,Tarsogno,9.625,44.449
39,Massumatico,11.375,44.722
33,Cogoleto,8.645,44.39
24,San Rocchetto,13.569,43.486
46,Casarsa,15.095,40.607
28,Bastia-Borgo Pasna,12.167,44.26
28,Boscazzo,8.08,45.51
55,Nocera Scalo,12.768,43.097
24,Curtatone,10.717,45.153
33,Vallio,12.413,45.638
46,Santa Giustina,12.039,46.083
112,Ardara,8.81,40.622
39,Collina,12.843,46.586
46,Pontelangorino,12.149,44.863
94,Siamanna,8.76,39.921
33,Acireale,15.16,37.607
28,Rosa Marina,17.552,40.798
28,Campagna Lupia,12.098,45.352
55,Cuceglio,7.817,45.359
46,Colico Piano,9.373,46.133
66,Castelgomberto,11.394,45.584
39,Mazzarra Sant'Andrea,15.135,38.089
39,Bitetto,16.747,41.04
160,Priolo Gargallo,15.18,37.158
28,Quarna Sotto,8.362,45.869
46,Castelnuovo di Farfa,12.743,42.232
112,Reggiolo,10.802,44.922
39,Cavaria con Premezzo,8.801,45.693
24,Bonavigo,11.278,45.258
39,Giumarra,14.651,37.478
397,Tarquinia,11.757,42.248
55,Montecilfone,14.837,41.901
134,Castelfranco Veneto,11.926,45.676
24,Triscioli,16.15,39.434
160,Doria,16.357,39.729
33,Bottega,12.747,43.843
66,Cambiano,10.96,43.634
39,Castel Chiodato,12.697,42.057
66,Candiana,11.994,45.222
94,Vaglia,11.279,43.911
55,Pian Camuno,10.138,45.842
39,Cadipietra,11.98,46.996
33,Monte Giberto,13.632,43.091
39,Anitrella-Chiaiamari,13.55,41.641
79,Sonnino,13.244,41.414
55,Sporula,9.494,40.902
24,Montefegatesi,10.593,44.062
46,Grezzano-Pian delle Rose,12.362,42.18
39,Sutri,12.218,42.244
39,Cadepiaggio,8.781,44.673
24,Carnola,10.4,44.415
24,Piano Croce-Piano Valle,14.618,42.14
28,Quinzano,11.367,44.262
24,Lonaro-Ville di Fano,13.192,42.528
94,Creto,10.64,45.942
24,Angolo Terme,10.149,45.893
39,Boschetto,10.024,45.165
55,Borghetto,12.026,43.187
46,Localita San Calogero,13.122,37.517
134,Levanzo,12.341,37.987
55,Orte,12.388,42.457
55,Montabone,8.389,44.699
39,Dossobuono,10.913,45.395
24,Artimino,11.036,43.783
24,Barlassina,9.127,45.653
66,Varcaturo,14.063,40.904
46,Sirolo,13.613,43.522
24,Bedizzano,10.124,44.079
28,Ruffre,11.178,46.415
112,Serradifalco,13.881,37.456
24,Sasso Morelli,11.738,44.415
28,Gello,10.451,43.967
33,Folignano,13.635,42.821
46,Birbesi,10.575,45.292
66,Petricci,11.557,42.757
33,Soluri,16.53,38.957
39,Isera,11.009,45.888
46,Aguzzo,12.621,42.474
46,Termeno,11.241,46.341
24,Solbiate Olona,8.884,45.652
24,Solimbergo,12.819,46.176
79,Cortenova,9.388,46.002
28,Cessole,8.244,44.648
24,Santo Stefano Roero,7.939,44.79
24,Altilia,16.254,39.13
112,Nonantola,11.039,44.676
55,San Giustino Valdarno,11.703,43.551
24,Santa Maria degli Angeli,12.58,43.056
24,Frontignano,10.038,45.42
28,Frinco,8.172,45.004
46,Rossana,7.433,44.545
33,Zenson di Piave,12.487,45.678
28,Genovese,14.679,36.77
24,Scaltenigo,12.082,45.47
192,Mogliano Veneto,12.236,45.562
28,Papaglionti,16.016,38.645
134,Tramonti di Sopra,12.789,46.309
79,Sant'Anna,13.147,41.71
55,Casano,10.033,44.071
28,Conche,12.168,45.235
33,Monterubiaglio,12.017,42.77
33,Ponte Forca,10.647,44.818
192,Bagaladi,15.822,38.026
79,Gadoni,9.186,39.913
66,Lido Manfria,14.149,37.099
134,San Pietro Vernotico,17.996,40.491
55,Volvera,7.512,44.954
39,San Giuliano di Puglia,14.963,41.686
55,Ardore Marina,16.198,38.178
46,Santa Lucia,17.29,40.844
28,Colognola ai Colli,11.183,45.433
46,Cologna,11.894,44.968
46,Settimo,16.241,39.393
46,Santa Maria,9.344,44.786
55,Fontevivo,10.174,44.859
55,Caino,10.314,45.609
66,Buscoldo,10.696,45.092
112,Gioi,15.218,40.29
66,Giuncarico,10.992,42.907
28,Calvanico,14.828,40.775
79,Cutrofiano,18.202,40.127
55,Madonnuccia,12.078,43.6
55,Colorina,9.729,46.154
24,Borutta,8.743,40.522
28,Cannole,18.365,40.166
39,Scala Coeli,16.887,39.448
28,Canevara,10.167,44.057
66,Contignano,11.74,42.976
79,Polizzi Generosa,14.006,37.811
39,Sorbara,11.005,44.746
28,Treville,8.361,45.098
134,Trecate,8.738,45.436
230,Treviglio,9.592,45.524
24,Fermata Toscano-Nubrica,16.712,39.608
33,Mattina,15.484,40.547
28,Carpello,13.685,41.705
33,San Vito di Leguzzano,11.379,45.682
112,San Giorgio Lucano,16.39,40.111
24,San Bartolomeo,17.199,40.933
192,Palena,14.139,41.984
160,Badia Prataglia,11.879,43.794
24,Genga Stazione,12.979,43.406
66,Prato Nevoso,7.788,44.256
66,Serrata,16.099,38.514
46,Montecelio,12.743,42.022
46,Colognole,10.448,43.51
24,Scirca,12.725,43.349
33,Stazione di Fasano,17.382,40.847
24,Rende,16.182,39.332
55,Quattro Strade,13.284,41.593
39,Vignate,9.375,45.495
33,San Sisto,10.494,44.846
28,Galli,8.068,45.189
66,Zone,10.115,45.762
46,Scorzo,15.264,40.577
33,Cordignano,12.411,45.95
39,Zane,11.451,45.721
79,Ponterio,12.411,42.81
28,Celle sul Rigo,11.821,42.862
33,Vasto,10.61,45.276
28,Chiugiana-La Commenda,12.311,43.104
55,Roncaglia,9.796,45.043
39,Caronia,14.442,38.024
112,Leuca,18.358,39.799
33,Catobagli,12.855,43.478
79,Calascibetta,14.27,37.591
55,Colle del Pino,12.496,41.743
33,Senole-Bosco,16.093,38.201
28,Miglierina,16.473,38.951
39,Pontboset,7.686,45.608
79,Piana degli Albanesi,13.282,37.997
331,Villasimius,9.517,39.145
112,Valpiana,10.85,43.005
55,Rocca Santo Stefano,13.025,41.911
66,Colleridente,12.895,43.368
28,Navole,12.587,45.812
28,Bastia,8.171,44.058
79,Sant'Antonio di Mavignola,10.79,46.192
33,Afragola,14.31,40.923
160,Galatina,18.17,40.175
39,San Cassiano,9.397,46.277
33,Castellace,15.94,38.317
55,Versano,14.071,41.278
39,Pagliara,13.207,42.22
55,Nughedu San Nicolo,9.022,40.558
24,Acquarotta,14.057,41.262
28,San Pietro Val Lemina,7.312,44.906
55,Genivolta,9.879,45.333
28,San Pietro,14.784,40.825
33,Porcari,10.616,43.844
33,Piazza di Pandola,14.772,40.809
33,Merlino,9.43,45.434
55,Mogorella,8.86,39.865
55,Fonte di Mare,13.741,43.285
24,Merendaore,11.198,45.714
39,Poggio San Litardo,11.986,42.981
79,Torino di Sangro,14.542,42.192
39,Sariano,11.419,45.008
39,Camerano,8.091,44.992
55,Mezzano,11.809,46.154
66,Plataci,16.433,39.899
66,Macenano,12.824,42.647
24,Lancusi-Penta-Bolano,14.782,40.763
24,Sola,9.724,45.483
33,Aie,12.196,44.119
39,Precasaglio,10.517,46.273
39,Mussotto,8.023,44.712
24,Passirana,9.045,45.549
55,Canneto,14.961,38.493
55,Persichello,10.078,45.167
134,Ronco Canavese,7.545,45.498
39,Vidalenzo,10.048,45.015
39,Quellenhof,11.204,46.745
39,Paderno Dugnano,9.164,45.573
33,Lemignano,10.263,44.771
94,Fabrica di Roma,12.3,42.336
24,Castel del Piano,11.539,42.89
94,Castel del Monte,13.727,42.366
46,Cicala,16.486,39.021
33,Velo Veronese,11.095,45.607
66,Cerreto d'Esi,12.985,43.319
79,Cavareno,11.138,46.409
33,Penna,11.612,43.568
55,Ruota,10.574,43.765
276,Borzonasca,9.39,44.42
66,Biandronno,8.708,45.815
66,Lido di Volano,12.265,44.797
24,Moie di Sotto,10.126,45.573
33,Riomoro,13.88,42.859
79,Farindola,13.821,42.443
46,Pero dei Santi,13.453,41.88
28,Mezzomerico,8.605,45.618
39,Piegaro,12.083,42.966
46,Borgo Ottomila,13.542,41.999
33,Ronzo-Chienis,10.949,45.89
24,Brenta dell'Abba,12.114,45.232
112,Isola del Gran Sasso d'Italia,13.655,42.508
46,Piana,12.009,43.139
33,Cortandone,8.057,44.96
39,Sambuci,12.937,41.986
33,Botta,9.614,45.768
33,Sillicano,10.36,44.124
94,Vaiano,11.126,43.965
39,Prunetta,10.805,44.007
39,Borgo Baraglia,12.357,43.288
46,Gombito,9.729,45.262
33,Gaibanella-Sant'Edigio,11.653,44.766
28,Pinarolo Po,9.167,45.07
55,Castelsantangelo sul Nera,13.154,42.893
46,San Donato di Lecce,18.182,40.267
46,Moscheri,11.073,45.869
66,Rotzo,11.396,45.862
39,Fontanelle,14.014,41.245
28,Villareggia,7.977,45.31
46,Stezzano,9.654,45.652
33,Traversella,7.748,45.509
39,Titi,16.434,38.443
46,Sant'Urbano,11.647,45.124
79,Quinto di Treviso,12.163,45.644
112,Martano,18.303,40.203
46,Ballo,12.07,45.457
33,Ailoche,8.219,45.699
276,Castel Goffredo,10.476,45.298
39,Santa Giulia,12.38,44.837
24,Rocca Imperiale,16.58,40.11
46,Villanova,14.124,42.383
28,Vigonza,11.965,45.431
112,Marina di Fuscaldo,16.007,39.42
28,Santa Cristina,11.288,43.669
331,Viu,7.376,45.239
55,Acuto,13.174,41.791
160,Fiorenzuola d'Arda,9.914,44.922
33,Guarene,8.03,44.738
33,Via Mantova,10.519,45.446
24,Borgo,14.783,40.841
24,Isengo,9.842,45.419
39,San Bartolomeo Val Cavargna,9.148,46.082
28,Poggio Nativo,12.797,42.216
24,Saletto-San Bartolomeo,12.4,45.723
55,Capistrano,16.289,38.692
33,Arietta,16.789,39.052
46,Tedeschi,7.72,45.203
66,Marcellina,15.823,39.767
55,Lama Pezzoli,11.91,45.044
134,San Martino in Passiria,11.227,46.784
24,Duronia,14.46,41.658
55,Decimomannu,8.97,39.308
28,Casa Milite,14.688,40.725
55,Chialamberto,7.343,45.363
55,San Calogero,16.02,38.574
28,Villanova Truschedu,8.752,39.989
28,Zimone,8.038,45.451
46,Via di Mezzo,11.321,45.032
39,Gragnano,12.097,43.58
55,Labico,12.871,41.794
46,Morlupo,12.496,42.146
33,Santa Maria,12.235,45.898
39,Cassinelle-Concentrico,8.563,44.602
79,Brentonico,10.955,45.819
79,Cattolica Eraclea,13.396,37.439
822,Policoro,16.67,40.209
33,Gonnoscodina,8.836,39.7
24,Renate,9.281,45.724
33,Commessaggio,10.545,45.038
55,Rovereto,10.955,44.842
28,Combe,7.682,44.356
39,Robecco Pavese,9.15,45.049
112,Sant'Antonio d'Ascula,17.339,40.882
24,Terranera,13.534,42.236
24,Gaudesi,13.289,38.108
39,San Romano,10.756,43.689
46,Pioppe di Salvaro,11.162,44.309
28,Muzzana del Turgnano,13.124,45.816
79,Canicattini Bagni,15.065,37.032
55,Villa Fontana,11.076,45.298
24,Vallonecupo,16.386,39.545
134,Noasca,7.313,45.455
94,Cilavegna,8.745,45.31
46,Carona,9.787,46.022
39,Campo,10.479,43.71
24,Zovon,11.649,45.341
39,Campomaggiore,16.073,40.567
28,Santellone,9.895,45.548
55,Latignano,10.557,43.655
94,Marina,16.065,39.167
66,Cellole,13.853,41.204
39,Santa Lucia,12.25,43.42
79,Campodimele,13.532,41.388
24,Pieveottoville,10.156,45.012
28,Mercato,14.942,40.718
33,Colle di Buggiano,10.735,43.896
55,Borgo Podgora,12.854,41.51
24,Isiata,12.62,45.621
33,Ponte Sfondato,12.649,42.204
55,Caneva,12.449,45.962
28,Gombitelli,10.371,43.921
571,Cecina,10.519,43.314
28,Plodio,8.242,44.358
134,Colle Sestriere,6.877,44.958
39,Frisolino,9.423,44.331
28,Castel d'Emilio,13.384,43.565
55,Lovero,10.229,46.234
33,Fasana Polesine,12.008,45.095
46,Pero,9.084,45.511
33,Magliano Romano,12.437,42.157
79,Castel Giorgio,11.978,42.708
192,Budoni,9.708,40.703
39,Antegnate,9.791,45.486
230,Orosei,9.692,40.38
134,Lago,14.911,40.549
66,Golferenzo,9.305,44.963
39,Cergneu Superiore,13.317,46.216
94,Fulgatore - Torretta,12.685,37.954
33,Fabro,12.016,42.875
66,Carrara,10.051,44.047
46,San Basilio,14.778,38.017
46,Montefiore dell'Aso,13.753,43.052
33,Silla,10.981,44.181
24,Nogaredo di Corno,13.023,46.071
33,San Marco Argentano,16.12,39.558
230,Nardo,18.031,40.179
55,Partina,11.823,43.749
24,La Petrizia,16.714,38.884
28,Balconevisi,10.834,43.631
230,Agrigento,13.589,37.321
112,Ponte Galeria-La Pisana,12.35,41.844
46,Musei,8.667,39.303
33,Torriana,12.385,43.986
28,Cucciago,9.096,45.74
39,Laurino,15.337,40.338
55,Pralboino,10.218,45.269
79,Bressana,9.132,45.079
28,Ville,11.157,46.168
66,Cervere,7.791,44.635
276,Frosinone,13.351,41.639
39,Agana,11.793,46.002
46,Rondover,12.617,45.917
28,Sini,8.905,39.754
46,Pugnolo,10.203,45.082
46,Colma,11.524,46.59
79,Coccanile-Cesta,11.875,44.924
24,Mormontea,11.176,45.458
192,Valpelline,7.324,45.824
66,Vaccolino,12.18,44.801
24,Copanello,16.569,38.762
55,Cravegna,8.311,46.239
46,Serra San Quirico,13.023,43.446
55,Pie' Falcade,11.875,46.358
24,Centro Tre Denari,12.2,41.916
55,Castagneto Po,7.888,45.159
33,Minozzo,10.433,44.357
1702,Perugia,12.379,43.099
160,Fonteblanda,11.17,42.566
46,Nuova Portis,13.14,46.357
134,Ostuni,17.576,40.728
39,Stazione,13.411,41.531
276,Suzzara,10.745,44.99
46,Cassano Spinola,8.863,44.768
33,Torre d'Arese,9.314,45.244
24,Porrettina Alta,9.406,46.267
28,Villanova Marchesana,11.966,44.993
24,San Giovanni di Duino,13.591,45.79
55,Pieve San Giacomo,10.186,45.13
39,Chiarino,13.608,43.402
28,San Vito,12.455,44.081
39,Missiano,12.101,43.005
28,Ottaviano,14.503,40.848
33,Fonte Alto,11.862,45.802
33,La Rotta,10.678,43.657
46,Alliste,18.089,39.949
397,Visso,13.086,42.933
94,Portofino,9.209,44.304
46,Rustico,13.363,43.51
66,Montalbano Elicona,15.014,38.023
33,Forte dei Marmi,10.167,43.96
55,Gioiosa Marea,14.898,38.171
39,Luserna,11.323,45.922
39,Soleto,18.207,40.188
46,Trivella,11.975,44.122
28,Montedomenico,9.436,44.311
66,Ghirla,8.823,45.925
94,Giussano,9.211,45.694
46,Lonato,10.477,45.464
24,Castell'Aicardi,10.212,44.91
46,Valli,16.164,39.285
39,Pieve d'Olmi,10.123,45.09
79,Monterosso Almo,14.765,37.089
79,Tasonis,9.269,39.308
134,San Piero Patti,14.967,38.051
46,L.P. Tor Tre Ponti,12.945,41.512
39,Taurasi,14.959,41.009
79,Baganzola,10.307,44.855
46,Portalbera,9.319,45.098
55,Villa Basilica,10.645,43.925
160,Bastardo,12.561,42.87
79,Lutago,11.92,46.951
46,Pedivigliano,16.304,39.11
28,Castra,10.991,43.772
39,Macchia,14.981,40.655
39,Monteleone di Fermo,13.529,43.048
79,Moneglia,9.495,44.238
39,Comerconi,15.935,38.583
134,Rocca di Neto,17.007,39.184
79,Galatone,18.069,40.145
160,Seregno,9.206,45.652
160,Illasi,11.181,45.467
28,Scorciosa,14.435,42.229
46,Ceretto,7.481,44.546
46,Vanzago,8.991,45.525
24,Silvelle,12.032,45.619
55,Is Urigus,8.495,39.136
24,Conetta,11.995,45.176
33,Rivalta Bormida,8.554,44.709
192,Lungro,16.122,39.739
28,Antria,11.91,43.496
39,Tripi,15.097,38.047
33,Torricella Peligna,14.255,42.025
24,Pollenza,13.348,43.266
55,Montefiridolfi,11.214,43.611
112,San Sperate,9.008,39.359
24,Villa Fora,11.555,45.103
276,Ortona,14.405,42.353
55,Montemaggiore Belsito,13.761,37.847
66,Neirone,9.191,44.455
55,Casalazzara,12.583,41.624
230,Varzo,8.246,46.21
33,Ludos,9.457,40.931
79,Mandatoriccio,16.835,39.468
55,Celleno,12.127,42.559
160,Ferla,14.94,37.12
39,Mormorola,9.883,44.568
112,Francavilla al Mare,14.283,42.421
28,Villafranca,8.103,44.034
192,Pianoro,11.341,44.393
134,Lula,9.487,40.47
46,Vicomoscano,10.451,44.974
46,Nosate,8.727,45.551
55,Babbucce,12.803,43.915
134,Marta,11.925,42.533
55,Castello Tesino,11.632,46.063
33,Sant'Anna d'Alfaedo,10.952,45.627
66,Garino,7.616,44.975
134,Ostiglia,11.136,45.074
33,Tenna,11.264,46.016
39,Pezzano-Filetta,14.868,40.699
28,Buca Bertona,10.683,44.934
55,Mamusi,9.47,40.77
134,Verzuolo,7.484,44.594
79,Marmirolo,10.757,45.219
55,Mattine,15.025,40.385
112,Miranda,14.248,41.645
28,Tret,11.14,46.48
46,Tavullia,12.752,43.897
39,Monte San Giovanni,11.167,44.413
79,Rezzato,10.316,45.514
160,Demonte,7.297,44.315
39,Settecrociari,12.186,44.132
66,Antey-Saint-Andre,7.588,45.807
39,Segonzano,11.26,46.19
24,Pozzomoretto,10.823,45.375
55,Macchie,12.365,42.599
24,San Vito,7.95,44.835
276,Mesoraca,16.789,39.077
55,Samatzai,9.035,39.483
28,Campodoro,11.753,45.489
79,Calizzano,8.12,44.236
28,Vescovo,11.974,45.33
46,Ceneselli,11.37,45.013
33,Bruscara,13.052,43.458
46,Calenzano,11.162,43.856
134,Roggiano Gravina,16.16,39.615
79,San Rocco al Porto,9.698,45.081
39,Priula-Colfosco,12.233,45.831
24,Ferrante,16.413,39.452
55,Bellocchi,12.999,43.796
66,Esenta,10.479,45.416
33,Caronno Pertusella,9.048,45.597
24,Pescara del Tronto,13.27,42.751
55,Reda,11.978,44.307
39,Pian di Sco,11.545,43.642
94,Pietraperzia,14.137,37.419
39,Valmir,13.678,43.049
33,San Cristoforo-Caroni,11.996,43.616
46,San Leone Mose,13.612,37.277
112,Camastra,13.791,37.255
33,Villa San Sebastiano,13.312,42.03
66,Tufara,14.947,41.481
55,San Giuliano Terme,10.439,43.761
66,Brunella,9.636,40.688
55,Sant'Elia,12.814,42.37
79,Borgia,16.513,38.825
24,Stimigliano,12.564,42.301
79,Bagnacavallo,11.974,44.417
79,Borgo,7.954,44.715
39,San Marco,8.331,45.459
46,Abbadia,13.834,42.839
28,Calliera,10.653,45.236
24,Torre,10.686,45.264
28,Guzzano,13.828,42.666
66,Romagnano al Monte,15.455,40.629
112,Ottava,8.477,40.787
46,Santa Lucia,13.251,43.616
28,Cavalier,12.553,45.754
39,Trentinara,15.115,40.401
24,Recale,14.303,41.055
33,Castelnuovo Nigra,7.695,45.438
33,Sangano,7.449,45.026
28,Ponte del Colombarone,12.794,43.948
28,Dogna,12.313,46.26
24,Valle del Gelso,16.247,39.695
39,Frontino,12.376,43.765
24,Comeglians,12.866,46.515
24,Piovani,7.622,44.508
112,Pratola Peligna,13.874,42.098
66,Salara,11.427,44.983
33,Penitro,13.697,41.274
66,Castellarano,10.735,44.514
24,Pradivisi,12.662,45.603
24,Gameragna,8.519,44.369
55,Scalo Ferroviario,16.06,39.247
24,Collebeato,10.211,45.582
24,Paluan,11.623,45.187
39,Turania,13.009,42.138
134,Narcao,8.675,39.169
66,San Gregorio da Sassola,12.875,41.919
39,Capena,12.544,42.141
33,Figino Serenza,9.13,45.707
24,Roccarainola,14.56,40.97
28,Casalnoceto,8.982,44.913
55,Concorezzo,9.333,45.589
66,Cavallermaggiore,7.686,44.708
79,Piazza,10.158,45.591
28,Montalto Ligure,7.844,43.928
33,Anzu,11.934,46.009
46,Chiesa,11.692,44.978
46,Ceriara,13.145,41.487
33,Cacciana,8.491,45.628
134,Mede,8.735,45.098
33,Torre Annunziata,14.464,40.749
46,Carasco,9.346,44.349
160,Sissa,10.26,44.959
94,Villorba,12.26,45.713
24,Collimento,13.339,42.291
33,Campolungo-Villa Sant'Antonio,13.699,42.853
276,Cremona,10.02,45.143
79,Vidor,12.046,45.871
66,San Giorgio,14.312,41.271
160,Corato,16.413,41.154
28,Usmate-Velate,9.357,45.648
33,Popiglio,10.753,44.046
112,Carrozziere,15.272,37.036
24,Portobuffole,12.537,45.857
46,Baldissero Torinese,7.811,45.068
192,Fregene,12.199,41.853
28,Morciano di Leuca,18.312,39.848
24,Lunano,12.445,43.733
112,Oulx,6.831,45.036
24,Pieve Terzagni,10.221,45.185
112,Orciano di Pesaro,12.971,43.689
55,Sizzano,8.435,45.578
39,Mercatello,12.266,42.97
28,Teneggia,10.622,44.463
79,Montanaro,7.854,45.234
55,Chiassa-Tregozzano,11.891,43.514
33,Muzzi,11.425,45.561
33,Case Nuove Russo,14.989,38.141
39,San Carlo-Condofuri Marina,15.872,37.932
39,Casavecchia-Colle-Piaggia,13.33,42.309
46,Tombolo,10.257,43.892
276,Irsina,16.242,40.746
46,Strada San Zeno,11.882,44.02
79,Torano,13.26,42.15
33,Tritanti,16.1,38.449
33,Nomaglio,7.86,45.536
66,Corazzano,10.872,43.619
55,Fiave,10.842,46.004
134,Cherasco,7.858,44.646
24,Valle di Suio,13.864,41.311
39,Robella,8.33,45.205
33,Teggiano-Macchiaroli,15.561,40.375
46,Mazzanta,10.463,43.325
33,San Nazzaro,9.9,45.077
24,Santa Lucia del Mela,15.282,38.142
28,Lacchiarella,9.137,45.322
39,Buriasco,7.411,44.874
39,Castello di Godego,11.878,45.693
28,Beaulard,6.76,45.045
46,Remondo,8.805,45.241
24,Longone Sabino,12.967,42.273
33,Macere,12.405,42.056
46,Capralba,9.643,45.444
66,Bettegno,10.102,45.302
94,Chiarano,12.572,45.729
28,Ercolano,14.356,40.808
33,Olgiate Comasco,8.969,45.784
55,Castiglione di Garfagnana,10.411,44.15
192,Sardara,8.82,39.616
66,Fara San Martino,14.205,42.09
28,Maglio Giavenale,11.388,45.712
46,Osasco,7.343,44.849
192,Montalto di Castro,11.607,42.35
94,Savignano sul Rubicone,12.402,44.093
66,Altedo,11.49,44.671
39,Crocetta,11.284,44.742
46,Torbiera,12.084,44.871
24,Serdes,12.203,46.451
39,Gera Lario,9.37,46.171
55,Canna,16.504,40.095
28,Riva,7.813,44.688
33,Villarbasse,7.47,45.045
39,Feisoglio,8.105,44.544
112,Castel San Giovanni,9.436,45.059
24,Gosi - Planaval,7.777,44.337
24,Pilastro,11.298,45.267
192,Offida,13.701,42.936
24,Cazzano di Tramigna,11.204,45.474
28,Casa Serena,7.809,43.834
79,Jenne,13.169,41.888
39,Isola,7.805,44.501
24,Tacconi,10.788,45.512
112,Francavilla in Sinni,16.203,40.079
79,Spilinga,15.907,38.629
55,Breda Cisoni,10.53,45.01
94,Villadossola,8.267,46.073
160,Luino,8.749,46.001
39,Sant'Angelo in Formis,14.254,41.113
39,San Giovanni Reatino,12.854,42.345
112,Piovene Rocchette,11.436,45.758
39,San Pietro,7.478,45.303
46,San Giovanni di Baiano,12.678,42.73
46,Sali Vercellese,8.329,45.31
94,Magugnano,10.761,45.7
39,Prignano Cilento,15.068,40.331
39,Saitta,14.843,36.91
134,Busseto,10.042,44.98
28,Cacciola,10.721,44.634
94,Robilante,7.512,44.293
33,Gaggio Montano,10.933,44.196
112,Casazza,9.907,45.749
24,Pantanelle,12.678,41.532
79,Badetto,10.343,45.997
66,Magliano Nuovo,15.256,40.335
55,Roccapietra,8.276,45.793
39,Colle Mazzolino,13.148,42.264
28,San Martino,11.899,46.778
33,La Vittoria,13.43,41.678
33,Palmoli,14.582,41.939
79,Pozzolo Formigaro,8.783,44.794
28,Massimeno,10.772,46.141
112,Fucecchio,10.802,43.734
39,Taviano,10.25,44.435
94,San Biase,16.093,39.224
24,Castroncello,11.886,43.306
24,Montanara,10.719,45.135
33,Sant'Angelo,15.951,39.556
160,Arzignano,11.338,45.519
24,Camposano,14.529,40.952
