rs,name,lon,lat,r1
100000,Bucureşti,26.101,44.44,0
4233,Cluj-Napoca,23.592,46.773,2042
2450,Timişoara,21.227,45.754,1419
2042,Iaşi,27.58,47.158,0
1702,Constanţa,28.63,44.176,1702
1702,Craiova,23.8,44.317,1702
2450,Galaţi,28.035,45.436,1183
1702,Braşov,25.609,45.649,1183
986,Ploieşti,26.018,44.939,476
1419,Oradea,21.932,47.057,1183
331,Brăila,27.956,45.274,160
1183,Piteşti,24.863,44.857,685
1419,Sibiu,24.15,45.792,822
822,Arad,21.316,46.18,476
1419,Bacău,26.913,46.561,685
571,Târgu Mureş,24.56,46.54,0
685,Buzău,26.817,45.152,476
1702,Baia Mare,23.572,47.653,822
822,Botoşani,26.657,47.745,685
476,Satu Mare,22.878,47.79,476
476,Drobeta-Turnu Severin,22.658,44.633,0
397,Râmnicu Vâlcea,24.368,45.104,397
685,Focşani,27.182,45.69,571
571,Piatra Neamţ,26.375,46.932,476
331,Târgovişte,25.462,44.923,0
1419,Târgu Jiu,23.275,45.037,476
685,Tulcea,28.798,45.177,571
476,Slatina,24.367,44.431,397
822,Călărași,27.325,44.202,822
822,Bistrita,24.492,47.135,571
1183,Giurgiu,25.963,43.896,571
822,Hunedoara,22.909,45.759,685
230,Deva,22.908,45.874,112
331,Suceava,26.243,47.644,276
822,Bârlad,27.673,46.228,571
476,Sfântu Gheorghe,25.789,45.865,230
397,Municipiul Alba Iulia,23.571,46.075,397
571,Municipiul Zalău,23.057,47.187,476
276,Roman,26.931,46.924,0
685,Municipiul Vaslui,27.73,46.642,397
571,Municipiul Slobozia,27.369,44.564,397
230,Municipiul Alexandria,25.328,43.97,0
685,Lunca Bârzavei,21.875,45.323,476
685,Municipiul Mediaş,24.342,46.159,397
160,Municipiul Medgidia,28.267,44.248,0
397,Municipiul Oneşti,26.769,46.251,331
822,Municipiul Mangalia,28.579,43.813,397
571,Petroșani-Colonie,23.373,45.408,397
276,Oraş Năvodari,28.608,44.325,134
276,Municipiul Miercurea Ciuc,25.802,46.359,0
476,Municipiul Lugoj,21.906,45.689,397
476,Municipiul Odorheiu Secuiesc,25.301,46.308,331
276,Municipiul Râmnicu Sărat,27.046,45.382,276
685,Oraş Borşa,24.649,47.655,571
276,Câmpina,25.739,45.128,230
476,Municipiul Caracal,24.348,44.111,331
66,Suceava Burdujeni,26.28,47.673,33
276,Municipiul Dej,23.876,47.137,0
230,Oraş Mioveni,24.939,44.958,112
397,Municipiul Tecuci,27.43,45.843,192
476,Municipiul Reghin,24.7,46.775,276
276,Municipiul Făgăraş,24.976,45.839,0
397,Turda,23.811,46.556,192
331,Municipiul Sighetu Marmaţiei,23.893,47.931,331
276,Municipiul Sighişoara,24.803,46.222,276
397,Municipiul Câmpulung,25.053,45.276,331
192,Municipiul Roşiori de Vede,24.989,44.112,0
192,Municipiul Huşi,28.065,46.676,0
476,Oltenița,26.638,44.093,476
160,Municipiul Lupeni,23.206,45.352,112
276,Municipiul Rădăuţi,25.916,47.841,276
476,Municipiul Fălticeni,26.299,47.458,192
192,Municipiul Curtea de Arges,24.673,45.148,192
230,Bilca,25.685,47.917,160
66,Municipiul Vulcan,23.296,45.372,46
276,Municipiul Caransebeş,22.222,45.415,230
192,Municipiul Gherla,23.907,47.033,94
79,Municipiul Câmpia Turzii,23.886,46.542,55
230,Vălenii de Munte,26.04,45.2,192
66,Valea Domanului,21.881,45.291,33
685,Municipiul Turnu Măgurele,24.872,43.753,276
276,Municipiul Paşcani,26.719,47.252,276
79,Municipiul Codlea,25.446,45.696,0
331,Municipiul Carei,22.467,47.686,276
331,Municipiul Dorohoi,26.4,47.95,230
192,Municipiul Feteşti,27.822,44.415,0
230,Municipiul Sebeş,23.57,45.957,112
79,Floreşti,23.492,46.744,66
94,Oraş Cernavoda,28.032,44.346,0
331,Municipiul Târgu Secuiesc,26.131,45.998,192
192,Oraş Buftea,25.945,44.565,134
397,Municipiul Motru,22.97,44.802,192
79,Oraş Petrila,23.381,45.447,39
94,Săcele,25.707,45.617,79
192,Municipiul Blaj,23.92,46.175,0
397,Municipiul Gheorgheni,25.594,46.721,331
331,Dâmbovicioara,25.545,44.662,230
571,Municipiul Salonta,21.654,46.802,276
331,Dănești,25.77,46.546,160
160,Izvoarele,26.007,45.29,79
986,Calafat,22.933,43.989,571
276,Oraş Cugir,23.363,45.838,134
33,Turda,23.78,46.574,24
192,Municipiul Târnăveni,24.298,46.328,160
476,Urziceni,26.645,44.714,331
112,Filipeştii de Pădure,25.748,44.978,0
276,Moinești,26.487,46.479,230
160,Cisnădie-Piața Nouă,24.15,45.713,79
192,Traian,26.96,47.011,94
112,Chitila,25.983,44.506,55
397,Oraş Sânnicolau Mare,20.623,46.071,0
230,Roșia Jiu,23.16,44.897,112
66,Municipiul Orăştie,23.194,45.841,0
160,Oraş Zimnicea,25.363,43.657,0
331,Municipiul Aiud,23.72,46.31,160
192,Oraş Târgu Neamţ,26.367,47.205,0
160,Oraş Râşnov,25.463,45.589,94
160,Măgureni,25.77,45.04,66
192,Municipiul Adjud,27.185,46.097,0
66,Matca,27.536,45.856,66
79,Marginea,25.815,47.818,66
276,Municipiul Marghita,22.335,47.35,0
397,Municipiul Drăgăşani,24.262,44.658,230
160,Oraş Drăgăneşti-Olt,24.526,44.163,112
134,Oraş Ovidiu,28.568,44.255,66
230,Oraş Balş,24.118,44.344,160
46,Municipiul Moreni,25.648,44.984,0
134,Oraş Pecica,21.069,46.166,0
160,Poienile de Sub Munte,24.427,47.828,0
160,Fundeni,26.323,44.394,160
94,Oraş Vişeu de Sus,24.433,47.704,0
192,Gura Humorului,25.89,47.554,0
476,Municipiul Vatra Dornei,25.357,47.347,331
230,Oraş Corabia,24.502,43.778,0
160,Cumpăna,28.556,44.111,79
331,Eforie Sud,28.645,44.016,79
134,Comănești,26.442,46.422,66
160,Pasărea,26.326,44.467,79
276,Oraş Sinaia,25.55,45.345,192
134,Poiana Mare,23.072,43.921,112
94,Zărneşti,25.317,45.56,94
397,Oraş Sântana,21.504,46.347,192
230,Oraş Negreşti-Oaş,23.432,47.87,192
94,Oraş Dărmăneşti,26.491,46.37,46
331,Municipiul Băileşti,23.346,44.023,192
276,Oraş Mizil,26.441,45.004,230
476,Oraş Valea Lui Mihai,22.131,47.521,160
134,Municipiul Orşova,22.401,44.727,0
397,Cornetu,27.049,45.506,134
94,Vârteșcoiu,27.08,45.751,79
230,Susenii Bârgăului,24.717,47.216,134
192,Oraş Covasna,26.181,45.846,134
276,Oraş Buhuşi,26.706,46.718,160
276,Oraş Sângeorz-Băi,24.67,47.371,160
822,Oraş Oraviţa,21.704,45.038,276
571,Oraş Babadag,28.718,44.891,276
276,Fundeni,26.871,45.269,134
276,Oraş Luduş,24.094,46.474,160
276,Oraş Sovata,25.069,46.596,276
134,Oraş Podu Iloaiei,27.26,47.213,0
230,Oraş Panciu,27.072,45.919,160
94,Oraş Târgu Frumos,27.013,47.211,0
79,Slănic,25.95,45.208,66
685,Municipiul Brad,22.795,46.126,230
134,Oraş Buşteni,25.536,45.41,66
112,Oraş Simeria,23.009,45.852,79
94,Joseni,25.506,46.687,55
276,Oraş Ţăndărei,27.661,44.641,192
331,Oraş Filiaşi,23.523,44.552,230
79,Brăhăşeşti,27.35,46.051,0
79,Oraş Otopeni,26.072,44.547,55
134,Vlăhița,25.522,46.347,134
397,Oraş Dăbuleni,24.091,43.804,276
192,Oraş Ocna Mureş,23.856,46.385,94
276,Oraş Ineu,21.839,46.433,230
331,Colibași,26.193,44.205,192
134,Gugești,27.119,45.562,66
94,Oraş Şimleu Silvaniei,22.795,47.23,0
160,Brazi,26.005,44.861,79
79,Oraş Murfatlar,28.416,44.176,0
55,Chirnogi,26.571,44.111,55
192,Oraş Siret,26.067,47.95,134
160,Oraş Călimăneşti,24.361,45.239,134
28,Valu Lui Traian,28.471,44.166,0
192,Clinceni,25.974,44.372,94
66,Brașov Nord-Est,25.646,45.677,33
331,Borcea,27.738,44.33,94
134,Plopeni,25.95,45.045,94
160,Izbiceni,24.665,43.829,112
94,Oraş Mărăşeşti,27.227,45.878,0
94,Apahida,23.738,46.797,94
79,Tărlungeni,25.775,45.643,39
276,Municipiul Beiuş,22.349,46.666,0
94,Afumați,26.248,44.526,66
160,Municipiul Câmpulung Moldovenesc,25.565,47.526,0
160,Oraş Cajvana,25.961,47.703,112
112,Oraş Curtici,21.31,46.345,0
331,Cleja,26.925,46.403,160
79,Oraş Baia Sprie,23.694,47.661,79
230,Oraş Oţelu Roşu,22.356,45.515,112
66,Mihail Kogălniceanu,28.46,44.366,0
331,Băbeni,24.231,44.962,160
276,Oraş Haţeg,22.952,45.61,134
230,Belceşti,27.092,47.308,112
46,Modelu,27.384,44.195,46
685,Usije,21.62,44.728,331
112,Şiria,21.638,46.276,112
160,Axente Sever,24.228,46.102,66
571,Victoria,24.703,45.731,160
192,Oraş Pucioasa,25.434,45.076,160
276,Oraş Şegarcea,23.744,44.094,230
192,Oraş Seini,23.289,47.747,134
66,Săbăoani,26.865,47.011,66
94,Oraş Bolintin-Vale,25.765,44.45,0
94,Oraş Fieni,25.417,45.127,46
230,Oraş Nădlac,20.745,46.167,112
397,Oraş Aleşd,22.399,47.055,230
331,Municipiul Topliţa,25.349,46.925,192
134,Oraş Găeşti,25.322,44.721,0
397,Oraş Lipova,21.693,46.088,192
94,Maieru,24.75,47.408,46
160,Oraş Măcin,28.136,45.243,134
192,Oraş Năsăud,24.409,47.284,134
55,Dumbrăveni,26.419,47.661,0
192,Oraş Strehaia,23.186,44.623,192
134,1 Decembrie,26.055,44.289,79
112,Cudalbi,27.684,45.774,112
192,Oraş Hârşova,27.948,44.683,192
134,Oraş Săcueni,22.098,47.352,0
134,Brebu Megieșesc,25.757,45.186,66
160,Oraş Beclean,24.177,47.178,134
79,Oraş Târgu Ocna,26.616,46.276,0
230,Oraş Costeşti,24.883,44.671,192
112,Oraş Bocşa,21.72,45.375,112
230,Ciorani,26.408,44.824,192
66,Dofteana,26.531,46.323,39
66,Băicoi,25.87,45.033,55
94,Bosanci,26.313,47.587,55
192,Oraş Jibou,23.257,47.259,134
134,Oraş Anina,21.852,45.082,94
822,Oraş Ianca,27.479,45.132,276
134,Oraş Fundulea,26.504,44.467,112
79,Bălan,25.813,46.653,0
134,Oraş Chişineu-Criş,21.514,46.521,0
94,Oraş Avrig,24.38,45.725,0
79,Oraş Călan,23.027,45.728,0
160,Oraş Tăşnad,22.584,47.476,160
160,Sadova,23.955,43.902,112
112,Baia,26.207,47.415,55
230,Oraş Ştei,22.458,46.539,112
112,Peretu,25.089,44.045,79
397,Cobadin,28.236,44.062,134
331,Oraş Huedin,23.029,46.863,331
192,Zagavia,26.904,47.429,160
160,Băleni,25.653,44.818,160
94,Roseti,27.449,44.217,39
397,Oraş Însurăţei,27.608,44.916,192
55,Techirghiol,28.597,44.053,46
79,Jilava,26.079,44.334,46
55,Oraş Uricani,23.126,45.333,55
192,Gilău,23.388,46.755,79
331,Oraş Bumbeşti-Jiu,23.382,45.179,160
192,Măgurele,26.032,45.111,79
112,Homocea,27.239,46.14,55
94,Sângeorgiu de Mureş,24.606,46.577,46
160,Oraş Teiuş,23.678,46.204,112
476,Oraş Videle,25.527,44.278,192
112,Diosig,21.999,47.306,55
112,Oraş Pâncota,21.691,46.331,66
94,Berceni,26.188,44.311,79
331,Lehliu-Gară,26.867,44.429,230
94,Oraş Amara,27.314,44.62,55
276,Dragalina,27.336,44.434,134
276,Cartojani,25.475,44.432,134
112,Oraş Cristuru Secuiesc,25.03,46.289,0
55,Plosca,25.15,44.026,46
134,Oraş Urlaţi,26.229,44.991,134
276,Oraş Jimbolia,20.718,45.794,276
230,Cojasca,25.838,44.725,134
276,Oraş Negreşti,27.461,46.833,230
28,General Trajan Moşolu,25.34,45.571,20
66,Oraş Tălmaciu,24.26,45.669,0
94,Oraş Iernut,24.231,46.451,94
46,Rodna,24.813,47.421,39
94,Dancu,27.669,47.154,66
55,Răşinari,24.068,45.704,55
134,Fierbinți-Târg,26.38,44.684,134
331,Pechea,27.795,45.631,134
1702,Oraş Darabani,26.591,48.187,276
134,Dumbrăveni,24.576,46.229,0
230,Oraş Agnita,24.619,45.976,230
79,Scorţeni,25.846,45.09,55
160,Oraş Săveni,26.854,47.956,0
192,Oraş Topoloveni,25.082,44.812,134
192,Giarmata,21.309,45.842,94
94,Voluntari-Pipera,26.136,44.501,55
