rs,name,lon,lat,r1
192,Irvinestown,-7.631,54.472,28
46,Broughshane,-6.208,54.893,20
134,Moira,-6.229,54.477,20
66,Waringstown,-6.297,54.433,20
79,Hillsborough,-6.081,54.464,20
112,Killyleagh,-5.648,54.4,20
55,Ballygowan,-5.789,54.503,20
230,Lisnaskea,-7.443,54.253,28
66,Portaferry,-5.544,54.381,20
112,Newtownstewart,-7.378,54.716,20
192,Castlederg,-7.592,54.708,24
55,Bessbrook,-6.396,54.195,20
134,Rathfriland,-6.16,54.237,28
94,Castlewellan,-5.941,54.255,20
79,Eglinton,-7.177,55.026,20
276,Keady,-6.703,54.248,24
79,Richhill,-6.546,54.37,20
79,Tandragee,-6.413,54.355,20
55,Ahoghill,-6.363,54.85,20
46,Whitehead,-5.714,54.753,20
79,Cullybackey,-6.349,54.888,20
79,Annalong,-5.9,54.107,20
276,Dungiven,-6.919,54.926,28
55,Artigarvan,-7.403,54.858,20
192,Maghera,-6.671,54.844,24
94,Randalstown,-6.321,54.751,20
24,Rostrevor,-6.199,54.1,20
94,Dromore,-7.458,54.513,20
33,Helen's Bay,-5.736,54.666,20
112,Portavogie,-5.446,54.461,20
94,Saintfield,-5.83,54.459,20
55,Kilrea,-6.554,54.951,20
46,Ballykelly,-7.021,55.043,20
66,New Buildings,-7.357,54.959,20
33,Castledawson,-6.555,54.778,20
160,Crossmaglen,-6.607,54.077,33
33,Gilford,-6.358,54.373,20
46,Millisle,-5.526,54.607,20
192,Carnlough,-5.992,54.99,33
66,Draperstown,-6.783,54.793,20
79,Templepatrick,-6.095,54.703,20
94,Bushmills,-6.522,55.203,20
134,Markethill,-6.519,54.297,20
192,Cushendall,-6.061,55.08,24
66,Crossgar,-5.758,54.396,20
66,Moneymore,-6.668,54.693,20
66,Upperlands,-6.642,54.879,20
160,Fivemiletown,-7.315,54.378,24
134,Garvagh,-6.687,54.984,20
160,Ballywalter,-5.486,54.545,20
79,Bellaghy,-6.516,54.809,20
39,Bleary,-6.342,54.42,20
39,Greysteel,-7.111,55.033,20
46,Castlerock,-6.788,55.163,20
46,Maghaberry,-6.187,54.504,20
46,Dundrum,-5.845,54.258,20
55,Dunloy,-6.408,55.011,20
79,Kells,-6.213,54.805,20
79,Kircubbin,-5.53,54.488,20
33,Moneyreagh,-5.828,54.529,20
79,Annahilt,-5.998,54.437,20
55,Clough,-5.837,54.291,20
112,Ballinamallard,-7.592,54.422,20
24,Donaghadee,-5.535,54.641,20
79,Carryduff,-5.886,54.518,20
192,Ballynahinch,-5.895,54.402,24
28,Greenisland,-5.863,54.693,20
230,Ballycastle,-6.25,55.202,46
28,Belfast,-5.927,54.596,20
160,Lisburn,-6.044,54.511,20
822,Newry,-6.334,54.178,66
192,Warrenpoint,-6.252,54.101,20
134,Kilkeel,-6.006,54.063,33
192,Newcastle,-5.89,54.212,33
571,Downpatrick,-5.709,54.326,55
79,Comber,-5.743,54.549,20
160,Newtownards,-5.688,54.593,20
112,Bangor,-5.667,54.659,33
79,Holywood,-5.809,54.647,20
66,Dundonald,-5.798,54.594,20
112,Newtownabbey,-5.907,54.673,20
24,Glengormley,-5.956,54.673,20
66,Carrickfergus,-5.802,54.717,20
276,Larne,-5.808,54.855,33
79,Ballyclare,-5.998,54.751,20
276,Antrim,-6.216,54.715,33
571,Ballymena,-6.274,54.862,55
331,Coleraine,-6.664,55.13,79
33,Portrush,-6.653,55.198,20
134,Portstewart,-6.713,55.186,20
192,Magherafelt,-6.608,54.754,24
331,Cookstown,-6.743,54.649,33
79,Armagh,-6.654,54.351,33
276,Portadown,-6.445,54.422,66
24,Craigavon,-6.365,54.445,20
66,Lurgan,-6.334,54.462,20
192,Banbridge,-6.267,54.349,24
331,Strabane,-7.463,54.824,39
986,Omagh,-7.296,54.6,94
397,Enniskillen,-7.631,54.345,66
66,Culmore,-7.274,55.044,20
55,Newtownbreda,-5.906,54.552,20
55,Dunmurry,-6.017,54.543,20
28,Dollingstown,-6.294,54.461,20
28,Derrymacash,-6.38,54.47,20
55,Glenavy,-6.212,54.592,20
94,Cloughmills,-6.331,54.999,24
160,Ardglass,-5.608,54.262,20
39,Doagh,-6.041,54.738,20
134,Moy,-6.694,54.447,20
24,Brookeborough,-7.405,54.314,20
160,Newtownbutler,-7.36,54.182,20
134,Kesh,-7.721,54.522,20
160,Claudy,-7.153,54.913,20
571,Londonderry,-7.319,54.999,160
571,Belleek,-8.085,54.482,55
134,Aughnacloy,-6.973,54.413,33
79,Clogher,-7.167,54.413,24
112,Ballygawley,-7.021,54.462,20
94,Ballygally,-5.858,54.898,20
55,Glenarm,-5.953,54.967,20
46,Greyabbey,-5.56,54.535,20
66,Park,-7.081,54.865,20
94,Armoy,-6.326,55.132,20
39,Drumahoe,-7.271,54.978,20
33,Portballintrae,-6.541,55.216,20
66,Cargan,-6.179,54.996,20
94,Ballintoy,-6.358,55.236,20
94,Dervock,-6.469,55.123,20
134,Rasharkin,-6.481,54.955,20
46,Ballybogy,-6.556,55.13,20
79,Sion Mills,-7.473,54.784,20
55,Dunnamanagh,-7.31,54.874,24
66,Plumbridge,-7.25,54.769,20
94,Feeny,-7.02,54.893,20
66,Portglenone,-6.476,54.873,20
39,Gulladuff,-6.601,54.834,20
55,Desertmartin,-6.674,54.772,20
112,Ballyronan,-6.532,54.707,20
39,Tobermore,-6.709,54.81,20
66,Toome,-6.458,54.751,20
28,Galgorm,-6.322,54.86,20
46,Ballycarry,-5.748,54.772,20
66,Mullaghboy,-5.724,54.834,20
134,Garrison,-8.091,54.418,20
134,Kinawley,-7.648,54.227,20
94,Derrylin,-7.566,54.193,20
66,Lisbellaw,-7.537,54.318,20
94,Maguiresbridge,-7.46,54.294,20
94,Tempo,-7.46,54.378,20
160,Fintona,-7.317,54.498,24
112,Drumquin,-7.488,54.615,20
134,Pomeroy,-6.926,54.595,28
66,Coagh,-6.612,54.647,20
94,Rosslea,-7.174,54.24,28
230,Caledon,-6.838,54.352,20
94,Newtownhamilton,-6.576,54.192,20
79,Mayobridge,-6.229,54.18,20
79,Drumaness,-5.855,54.369,20
79,Dromara,-6.015,54.379,20
46,Hilltown,-6.145,54.196,20
55,Loughbrickland,-6.304,54.318,20
24,Inkberrow,-1.982,52.213,20
24,Broad Marston,-1.794,52.114,20
39,Triangle,-1.935,53.697,20
24,Eastwood,-2.051,53.724,20
39,Outlane,-1.875,53.658,20
24,Clough Foot,-2.137,53.711,20
24,Sowerby Bridge,-1.896,53.698,20
33,Mount Tabor,-1.919,53.74,20
28,Wainstalls,-1.93,53.752,20
46,Hebden Bridge,-2.013,53.743,20
28,Slack,-2.035,53.756,20
33,Mankinholes,-2.063,53.707,20
39,Ripponden,-1.946,53.67,20
39,Lydgate,-2.141,53.733,20
160,Huddersfield,-1.795,53.644,28
66,Dewsbury,-1.634,53.662,20
55,Batley,-1.641,53.72,20
39,Liversedge,-1.707,53.699,20
39,Cleckheaton,-1.721,53.728,20
33,Mirfield,-1.7,53.682,20
94,Meltham,-1.853,53.594,20
46,Honley,-1.788,53.605,20
28,Birkenshaw,-1.687,53.746,20
39,Shelley,-1.693,53.598,20
33,Grange Moor,-1.665,53.641,20
55,Princethorpe,-1.411,52.334,20
33,Bramcote,-1.403,52.495,20
55,Copston Magna,-1.334,52.492,20
160,Stratford-upon-Avon,-1.709,52.195,28
94,Alcester,-1.865,52.22,20
112,Southam,-1.387,52.254,24
39,Wellesbourne,-1.592,52.195,20
66,Studley,-1.898,52.269,20
112,Shipston-on-Stour,-1.627,52.062,28
66,Bidford-on-Avon,-1.858,52.166,20
24,Ardens Grafton,-1.829,52.186,20
24,Bearley,-1.736,52.242,20
28,Pillerton Priors,-1.573,52.127,20
24,Bascote Heath,-1.421,52.262,20
24,Honington,-1.614,52.079,20
24,Northend,-1.429,52.17,20
39,Alderminster,-1.66,52.134,20
66,Rous Lench,-1.98,52.178,20
28,Oddingley,-2.131,52.231,20
39,Drakes Broughton,-2.105,52.136,20
39,Bredon's Norton,-2.1,52.049,20
28,Norton,-1.941,52.126,20
24,Wickhamford,-1.899,52.073,20
24,Abbots Morton,-1.957,52.191,20
24,Church Lench,-1.962,52.159,20
33,Littleworth,-2.168,52.149,20
39,North Littleton,-1.878,52.125,20
24,Hadzor,-2.124,52.256,20
28,Knettishall,0.896,52.384,20
33,Nowton,0.72,52.21,20
46,Fornham St Genevieve,0.705,52.278,20
33,Whepstead,0.679,52.19,20
39,Withersfield,0.416,52.105,20
24,Coney Weston,0.872,52.364,20
33,Kedington,0.49,52.093,20
24,Great Barton,0.768,52.27,20
28,Great Thurlow,0.453,52.126,20
134,Ixworth,0.834,52.299,20
46,Hanbury,-2.055,52.264,20
39,Harvington,-1.922,52.143,20
33,White Ladies Aston,-2.113,52.168,20
28,Broughton Hackett,-2.111,52.189,20
55,Elmbridge,-2.145,52.308,20
39,Lower Moor,-2.029,52.124,20
79,Bredon,-2.107,52.031,20
33,Netherton,-2.015,52.073,20
39,Doverdale,-2.206,52.294,20
33,Kersoe,-2.011,52.058,20
28,Pensham,-2.088,52.096,20
24,Tibberton,-2.14,52.217,20
94,Kidderminster,-2.25,52.384,20
79,Stourport-on-Severn,-2.279,52.339,20
46,Bewdley,-2.315,52.376,20
24,Netherton,-1.805,53.615,20
24,Jackson Bridge,-1.753,53.563,20
24,Liley Wood,-1.681,53.653,20
39,Holme,-1.838,53.549,20
24,Wilshaw,-1.825,53.585,20
28,Kirkburton,-1.704,53.612,20
24,Cowmes,-1.724,53.643,20
46,Marsden,-1.925,53.602,20
28,Fulstone,-1.736,53.581,20
33,Slaithwaite,-1.88,53.623,20
28,Holt Head,-1.882,53.607,20
33,Kirkheaton,-1.726,53.659,20
55,Kirkby Grange,-1.63,53.624,20
39,Victoria,-1.732,53.546,20
331,Leeds,-1.548,53.744,94
39,Morley,-1.6,53.746,20
66,Pudsey,-1.671,53.803,20
331,Bury St Edmunds,0.716,52.227,66
33,Thurston End,0.623,52.131,20
28,Hawkedon,0.625,52.146,20
46,Wickhambrook,0.556,52.165,20
39,Fakenham Magna,0.8,52.354,20
28,Great Livermere,0.766,52.307,20
39,Lady's Green,0.564,52.202,20
39,Bradfield St George,0.799,52.206,20
28,Blackthorpe,0.784,52.232,20
112,Little Bradley,0.454,52.14,20
46,Stradishall,0.552,52.143,20
39,Wordwell,0.679,52.315,20
24,Kingshall Street,0.803,52.218,20
24,Genesis Green,0.554,52.189,20
24,Stoke-by-Clare,0.537,52.062,20
39,Bradfield St Clare,0.787,52.185,20
39,Honington,0.805,52.335,20
24,Ixworth Thorpe,0.808,52.322,20
24,Hawstead,0.717,52.197,20
46,Flempton,0.657,52.296,20
24,Great Bradley,0.437,52.15,20
28,Stockton,-1.36,52.271,20
46,Ladbroke,-1.388,52.226,20
33,Newbold Pacey,-1.567,52.213,20
33,Dorsington,-1.807,52.145,20
33,Ratley,-1.444,52.125,20
39,Winderton,-1.524,52.063,20
33,Preston on Stour,-1.702,52.148,20
66,Pathlow,-1.743,52.226,20
134,Upper Quinton,-1.743,52.115,20
33,Claverdon,-1.711,52.28,20
94,Chadshunt,-1.49,52.173,20
55,Armscote,-1.643,52.1,20
112,Nuthurst,-1.774,52.342,20
33,Wootton Wawen,-1.778,52.266,20
66,Long Itchington,-1.397,52.283,20
55,Harbury,-1.455,52.236,20
46,Knightcote,-1.416,52.187,20
46,Marston Doles,-1.318,52.22,20
28,Newbold-on-Stour,-1.64,52.115,20
24,Willington,-1.612,52.049,20
28,Whichford,-1.544,52.009,20
33,Loxley,-1.625,52.172,20
24,Tanworth-in-Arden,-1.835,52.333,20
46,Wixford,-1.867,52.189,20
28,Stretton-on-Fosse,-1.677,52.043,20
28,Ilmington,-1.691,52.09,20
46,Coughton,-1.885,52.24,20
24,Caunsall,-2.226,52.426,20
39,Far Forest,-2.398,52.368,20
39,Chaddesley Corbett,-2.159,52.36,20
55,Wolverley,-2.257,52.411,20
94,Rock,-2.39,52.339,20
39,Churchill,-2.179,52.412,20
33,Rushock,-2.172,52.337,20
24,Ribbesford,-2.313,52.364,20
33,Trimpley,-2.308,52.405,20
39,Shatterford,-2.306,52.424,20
24,Brockholes,-1.772,53.596,20
39,Lepton,-1.708,53.632,20
66,Holmfirth,-1.792,53.569,20
39,Wortham,1.055,52.356,20
39,Stuston,1.128,52.359,20
33,Creeting St Mary,1.067,52.169,20
24,Denham,1.215,52.325,20
66,Pettaugh,1.167,52.19,20
24,Drinkstone,0.866,52.219,20
24,Kenton,1.208,52.246,20
28,Wattisfield,0.946,52.327,20
46,Buxhall,0.928,52.182,20
28,Battisford,1.001,52.149,20
55,Earl's Green,0.982,52.258,20
24,Shenstone,-2.202,52.36,20
33,Stone,-2.205,52.372,20
28,Bliss Gate,-2.373,52.354,20
79,Biggin Hill,0.033,51.312,20
28,Leaves Green,0.029,51.336,20
24,Keston,0.026,51.36,20
24,Cudham,0.075,51.313,20
100000,London,-0.088,51.513,0
192,New Addington,-0.013,51.346,28
28,Addington,-0.034,51.358,20
46,Clock House,-0.153,51.323,20
33,Botany Bay,-0.125,51.676,20
46,Havering-atte-Bower,0.184,51.617,20
33,North Ockendon,0.292,51.543,20
66,Horsforth,-1.638,53.841,20
55,Rothwell,-1.481,53.751,20
134,Garforth,-1.383,53.791,20
160,Wetherby,-1.387,53.934,20
28,Guiseley,-1.715,53.876,20
33,Calverley,-1.69,53.828,20
46,Kippax,-1.371,53.769,20
28,Rawdon,-1.677,53.854,20
79,Harewood,-1.51,53.9,20
46,Bramham,-1.352,53.88,20
46,Tannington,1.284,52.259,20
39,Ashfield Cum Thorpe,1.233,52.217,20
24,Eye,1.145,52.323,20
160,Bedingfield,1.193,52.272,20
33,Forward Green,1.071,52.195,20
33,Brome,1.134,52.343,20
39,Redlingfield,1.203,52.293,20
39,Middlewood Green,1.067,52.21,20
28,Gislingham,1.038,52.299,20
33,Ashfield Green,1.316,52.311,20
46,Stretton under Fosse,-1.34,52.428,20
24,Newton,-1.221,52.399,20
24,Willey,-1.272,52.458,20
24,Churchover,-1.25,52.423,20
24,Bretford,-1.369,52.391,20
24,Long Lawford,-1.308,52.381,20
55,Binley Woods,-1.42,52.392,20
24,Sawbridge,-1.26,52.289,20
46,Grandborough,-1.28,52.299,20
39,Clifton upon Dunsmore,-1.222,52.383,20
24,Swillington,-1.418,53.769,20
55,Ledsham,-1.308,53.762,20
66,Shadwell,-1.475,53.854,20
46,Kiddal Lane End,-1.392,53.851,20
24,Troydale,-1.642,53.785,20
24,Carlton,-1.489,53.739,20
39,Bardsey,-1.44,53.888,20
79,Scholes,-1.423,53.826,20
66,Boston Spa,-1.349,53.903,20
66,Euston,0.787,52.377,20
46,Poslingford,0.583,52.105,20
24,Wixoe,0.508,52.058,20
39,Rede,0.636,52.171,20
94,Barningham,0.885,52.351,20
39,Thelnetham,0.958,52.365,20
28,Pakenham,0.821,52.27,20
24,Upthorpe,0.906,52.315,20
66,Congham,0.537,52.783,20
24,West Bilney,0.54,52.708,20
94,Welney,0.247,52.522,20
28,Barroway Drove,0.316,52.604,20
39,Harpley,0.658,52.798,20
39,Castle Rising,0.467,52.796,20
28,Old Hunstanton,0.506,52.953,20
28,Emneth,0.201,52.637,20
33,Stradsett,0.459,52.615,20
46,Tilney Fen End,0.283,52.678,20
55,Nordelph,0.299,52.584,20
28,Emneth Hungate,0.234,52.643,20
66,Walpole Marsh,0.197,52.733,20
39,Brookville,0.556,52.537,20
33,Marshland St James,0.246,52.66,20
33,Pentney,0.554,52.696,20
39,Three Holes,0.219,52.58,20
39,Gayton Thorpe,0.582,52.737,20
28,Shernborne,0.546,52.862,20
55,Marham Aerodrome,0.544,52.652,20
79,New Houghton,0.657,52.816,20
39,Whittington,0.534,52.563,20
24,Barton Bendish,0.529,52.618,20
24,St John's Highway,0.262,52.707,20
46,Bircham Tofts,0.644,52.862,20
46,Great Massingham,0.666,52.774,20
46,Stanhoe,0.683,52.898,20
94,West Winch,0.413,52.707,20
39,Tilney All Saints,0.32,52.737,20
24,Waterden,0.801,52.888,20
24,Burnham Market,0.729,52.939,20
24,Pott Row,0.522,52.771,20
46,Snettisham,0.502,52.878,20
55,West Dereham,0.454,52.587,20
79,Watlington,0.394,52.671,20
24,Barmer,0.694,52.87,20
33,Shouldham Thorpe,0.456,52.643,20
39,Burnham Overy Town,0.744,52.951,20
24,Saddle Bow,0.375,52.715,20
24,Walton Highway,0.208,52.695,20
55,Thornham,0.583,52.961,20
28,Tilney cum Islington,0.329,52.7,20
397,North Walsham,1.388,52.821,33
55,Sheringham,1.211,52.938,20
55,Wicken Green Village,0.74,52.856,20
39,Badersfield,1.344,52.761,20
39,Edgefield Street,1.113,52.855,20
46,Little Ryburgh,0.918,52.817,20
46,East Beckham,1.213,52.913,20
24,Felmingham,1.335,52.815,20
112,South Raynham,0.786,52.778,20
33,Crostwight,1.462,52.817,20
24,Plumstead,1.165,52.87,20
39,Sharrington,1.021,52.89,20
24,Edgefield,1.112,52.866,20
94,Mundesley,1.428,52.873,20
33,Swafield,1.395,52.839,20
66,Kelling,1.114,52.94,20
66,Happisburgh Common,1.527,52.807,20
46,Tatterford,0.771,52.821,20
28,Calthorpe,1.241,52.841,20
134,Wells-next-the-Sea,0.852,52.953,28
66,Metton,1.269,52.889,20
39,Hempstead,1.128,52.89,20
33,Little Walsingham,0.875,52.896,20
28,Dunton,0.789,52.837,20
24,Barton Turf,1.483,52.749,20
33,Helhoughton,0.769,52.803,20
33,Edingthorpe,1.446,52.841,20
28,Westwick,1.373,52.793,20
33,Sutton,1.538,52.757,20
55,Banningham,1.291,52.819,20
28,East Runton,1.271,52.934,20
39,Thurgarton,1.238,52.867,20
24,Stiffkey,0.935,52.95,20
39,Wighton,0.89,52.918,20
46,Saxlingham,1.012,52.915,20
66,Maypole Green,1.563,52.504,20
46,Brockdish,1.245,52.369,20
39,Thorpe,1.592,52.527,20
39,Aslacton,1.173,52.474,20
46,Wheatacre,1.624,52.487,20
28,Coston,1.044,52.615,20
46,Kirstead Green,1.382,52.524,20
24,Deopham,1.023,52.565,20
46,Topcroft Street,1.332,52.476,20
46,Langley Street,1.494,52.56,20
39,Crownthorpe,1.075,52.585,20
24,Hedenham,1.402,52.487,20
33,Ketteringham,1.19,52.584,20
24,Rushall,1.226,52.397,20
33,Billingford,1.18,52.363,20
33,Raveningham,1.527,52.518,20
39,Thelveton,1.175,52.385,20
39,Dickleburgh Moor,1.189,52.406,20
66,Denton,1.351,52.441,20
39,Shotesham,1.318,52.543,20
24,Morley St Botolph,1.056,52.557,20
28,Easton,1.159,52.653,20
39,Suton Street,1.085,52.547,20
24,Saxlingham Nethergate,1.288,52.529,20
24,North Green,1.268,52.448,20
33,Surlingham,1.419,52.606,20
28,Tacolneston,1.157,52.511,20
66,Claxton,1.452,52.58,20
24,Upper Street,1.197,52.375,20
39,Tharston,1.217,52.504,20
94,Hingham,0.986,52.581,20
24,Burston,1.139,52.403,20
46,Trowse Newton,1.319,52.612,20
24,Howe,1.355,52.551,20
33,Bergh Apton,1.403,52.56,20
24,Tasburgh,1.249,52.516,20
33,North Barsham,0.844,52.879,20
33,Bale,0.989,52.891,20
28,Swanton Novers,0.998,52.849,20
28,Trimingham,1.39,52.898,20
112,Briston,1.061,52.852,20
33,Catfield,1.537,52.742,20
33,Thursford Green,0.938,52.871,20
33,Hickling,1.58,52.761,20
39,Crossdale Street,1.314,52.905,20
33,Pudding Norton,0.842,52.818,20
33,High Kelling,1.128,52.916,20
24,East Ruston,1.48,52.794,20
55,Upper Street,1.492,52.7,20
28,East Raynham,0.799,52.792,20
28,Gresham,1.217,52.9,20
112,Stalham,1.52,52.772,20
28,Glandford,1.039,52.932,20
24,Salthouse,1.091,52.949,20
28,Bradfield,1.37,52.85,20
46,Kettlestone,0.918,52.846,20
46,Binham,0.951,52.917,20
24,Barney,0.961,52.853,20
24,Ludham,1.538,52.711,20
24,Langham,0.987,52.932,20
24,Little Barningham,1.176,52.855,20
28,Knapton,1.425,52.855,20
24,Morston,0.988,52.955,20
24,Brinton,1.027,52.88,20
33,Thurning,1.087,52.818,20
24,Overstrand,1.342,52.919,20
79,Horsey,1.645,52.748,20
33,Happisburgh,1.533,52.823,20
46,Neatishead,1.47,52.735,20
33,Smallburgh,1.458,52.768,20
55,Wroxham,1.417,52.71,20
39,Warham,0.899,52.939,20
28,Bessingham,1.218,52.883,20
28,Waxham,1.618,52.778,20
24,Sculthorpe,0.82,52.846,20
33,Potter Heigham,1.578,52.719,20
28,Itteringham,1.186,52.832,20
46,Thorpe Market,1.33,52.875,20
66,Worstead,1.415,52.782,20
55,Ostend,1.506,52.84,20
39,Cockthorpe,0.95,52.94,20
55,Saxthorpe,1.14,52.831,20
24,Ingworth,1.255,52.819,20
24,Roughton,1.302,52.885,20
28,Wood Norton,0.984,52.812,20
160,Holt,1.097,52.905,20
33,Colby,1.297,52.835,20
24,West Raynham,0.731,52.789,20
1702,Norwich,1.28,52.632,230
112,Wymondham,1.118,52.57,24
33,Cringleford,1.242,52.605,20
55,Hethersett,1.179,52.599,20
134,Harleston,1.298,52.395,24
94,Long Stratton,1.228,52.486,20
160,Poringland,1.345,52.563,20
24,Hackford,1.04,52.581,20
24,Newton Flotman,1.257,52.538,20
39,Ellingham,1.47,52.477,20
24,Kirby Bedon,1.367,52.6,20
28,Little Melton,1.193,52.616,20
46,Arminghall,1.326,52.591,20
33,Carleton Forehoe,1.088,52.608,20
28,Gissing,1.15,52.424,20
24,Spooner Row,1.09,52.534,20
39,Carleton Rode,1.112,52.488,20
33,Weeting,0.614,52.464,20
39,Sporle,0.733,52.668,20
24,Hardingham,1.016,52.595,20
24,Colkirk,0.848,52.801,20
39,Scarning,0.89,52.671,20
94,Shipdham,0.894,52.628,20
55,Gateley,0.907,52.779,20
33,Holme Hale,0.788,52.632,20
24,Hockering,1.07,52.676,20
55,Primrose Green,1.059,52.702,20
55,Narborough,0.585,52.683,20
28,Little Fransham,0.814,52.673,20
28,New Buckenham,1.072,52.471,20
24,Mundford,0.653,52.508,20
55,Beachamwell,0.588,52.617,20
79,Stow Bedon,0.876,52.53,20
28,Bittering,0.871,52.721,20
24,Mileham,0.835,52.738,20
33,Griston,0.863,52.555,20
66,Croxton,0.755,52.446,20
39,Guist,0.964,52.791,20
24,Bodney,0.701,52.556,20
46,Old Brigg,0.904,52.7,20
55,Southburgh,0.946,52.604,20
24,Worthing,0.962,52.739,20
46,Great Cressingham,0.73,52.582,20
33,Rushford,0.827,52.396,20
28,Great Ellingham,0.975,52.533,20
28,Whissonsett,0.845,52.774,20
24,South Lopham,0.996,52.389,20
28,Hoe,0.955,52.71,20
46,Bawdeswell,1.03,52.743,20
55,Bodney Camp,0.731,52.555,20
39,Shropham,0.922,52.497,20
33,Tittleshall,0.806,52.753,20
66,Great Fransham,0.804,52.685,20
94,Lynford,0.678,52.487,20
28,Quidenham,0.985,52.447,20
55,Wilby,0.989,52.468,20
55,Oxborough,0.573,52.585,20
28,Cockley Cley,0.645,52.607,20
112,Old Beetley,0.919,52.73,20
66,Ivy Todd,0.804,52.65,20
28,Great Dunham,0.769,52.697,20
28,North Tuddenham,1.019,52.685,20
24,Litcham,0.792,52.725,20
28,Kenninghall,0.995,52.434,20
79,Illington,0.864,52.474,20
55,Rougham,0.713,52.75,24
66,Cranwich,0.623,52.522,20
28,Swanton Morley Airfield,0.973,52.726,20
79,Garboldisham,0.945,52.394,20
39,Puddledock,1.026,52.489,20
24,Carbrooke,0.879,52.583,20
39,East Lexham,0.751,52.717,20
24,Hilborough,0.688,52.571,20
24,Daffy Green,0.896,52.65,20
33,Beeston,0.823,52.708,20
33,Foulden,0.603,52.561,20
33,Bintree,0.994,52.773,20
39,Scoulton,0.928,52.57,20
46,Stanfield,0.869,52.749,20
33,Lower Stow Bedon,0.901,52.513,20
66,South Acre,0.678,52.696,20
24,Bradenham,0.843,52.641,20
112,East Harling,0.932,52.438,20
33,Westfield,0.941,52.647,20
112,Taverham,1.201,52.684,20
112,Brundall,1.434,52.624,24
24,Drayton,1.23,52.674,20
24,Wickhampton,1.58,52.592,20
33,Tuttington,1.299,52.797,20
66,Southwood,1.54,52.592,20
46,Waterloo,1.29,52.727,20
28,Horsford,1.245,52.7,20
24,Burgh next Aylsham,1.29,52.78,20
39,Brandiston,1.164,52.751,20
46,Cargate Green,1.533,52.661,20
46,Haydon Bridge,-2.247,54.975,20
33,Middleton Bank Top,-1.909,55.146,28
55,Holburn,-1.932,55.619,20
28,Causey Park Bridge,-1.703,55.245,20
39,Ellingham,-1.728,55.527,20
160,Raylees,-2.117,55.217,33
33,Cartington,-1.938,55.336,20
24,Newham,-1.722,55.548,20
24,North Blyth,-1.507,55.135,20
79,Knarsdale,-2.504,54.881,20
28,Horncliffe,-2.111,55.743,20
134,Colwell,-2.076,55.074,24
33,Gunnerton,-2.145,55.07,24
39,Rothley,-1.929,55.186,28
66,Heugh,-1.871,55.054,20
55,Scremerston,-1.988,55.736,20
28,Halton Lea Gate,-2.543,54.921,20
33,Ross,-1.786,55.626,20
24,Medburn,-1.789,55.029,20
160,Rothbury,-1.911,55.311,33
39,Budle,-1.748,55.609,20
79,Burradon,-2.027,55.351,20
28,Bolton,-1.831,55.418,20
28,Whittingham,-1.89,55.401,20
39,Boulmer,-1.582,55.42,20
33,Fenton,-2.047,55.598,20
46,Riding Mill,-1.972,54.948,20
192,Stonehaugh,-2.324,55.08,24
28,Barrasford,-2.13,55.055,20
28,Bellshill,-1.804,55.569,20
66,Thockrington,-2.065,55.106,33
28,Duddo,-2.099,55.677,20
28,Oakwood,-2.077,54.986,20
28,West Edington,-1.758,55.137,20
39,Weston Green,1.117,52.686,20
66,Guestwick Green,1.047,52.794,20
39,Southgate,1.166,52.779,20
33,Lingwood,1.49,52.622,20
46,Oulton,1.169,52.813,20
33,Lenwade,1.107,52.722,20
24,Hassingham,1.499,52.597,20
28,Postwick,1.393,52.62,20
33,Ranworth,1.487,52.68,20
28,Honingham,1.109,52.662,20
39,The Heath,1.236,52.748,20
46,Little Plumstead,1.419,52.658,20
28,Weston Longville,1.125,52.7,20
28,Heydon,1.134,52.8,20
46,Swannington,1.161,52.726,20
24,Stratton Strawless,1.29,52.739,20
79,Spixworth,1.323,52.689,20
28,Oulton Street,1.193,52.802,20
46,Tunstall,1.57,52.617,20
33,Themelthorpe,1.046,52.771,20
33,Great Plumstead,1.4,52.639,20
39,Christleton,-2.836,53.184,20
28,Tilston,-2.802,53.055,20
46,Wimboldsley,-2.463,53.168,20
39,Lostock Gralam,-2.46,53.272,20
46,Churton,-2.867,53.103,20
28,Higher Wincham,-2.467,53.285,20
24,Ledsham,-2.962,53.263,20
24,Lach Dennis,-2.436,53.244,20
24,Foxwist Green,-2.561,53.214,20
46,Moulton,-2.511,53.222,20
28,Sutton Weaver,-2.686,53.311,20
55,Wervin,-2.864,53.243,20
24,Farndon,-2.877,53.084,20
134,Kelsall,-2.71,53.207,20
79,Higher Whitley,-2.57,53.317,20
28,Childer Thornton,-2.952,53.294,20
28,Guilden Sutton,-2.829,53.207,20
24,Coppenhall Moss,-2.441,53.123,20
134,Brandon,-1.933,55.449,24
24,North Middleton,-2,55.514,20
24,Netherton,-2.015,55.364,20
39,Ryal,-1.978,55.062,20
55,Wooperton,-1.936,55.478,20
66,Newtown,-1.936,55.52,20
28,South Broomhill,-1.605,55.292,20
39,Kirkharle,-1.978,55.137,28
112,Baybridge,-2.066,54.846,28
24,Thropton,-1.95,55.314,20
94,High Buston,-1.633,55.372,20
79,Foxstone Hill,-1.86,55.275,20
28,Warden,-2.134,54.995,20
66,Stannington,-1.667,55.109,20
24,Greenhead,-2.526,54.984,20
55,Fenrother,-1.722,55.223,20
24,Haugh Head,-1.993,55.527,20
46,Park End,-2.201,55.075,28
24,Little Swinburne,-2.081,55.094,0
66,Elishaw,-2.218,55.25,46
66,Whiteside,-2.461,55.017,20
46,Fourstones,-2.171,55.005,20
94,Ellington,-1.559,55.223,20
33,Hallington,-2.025,55.076,24
28,Kimmerston,-2.069,55.615,20
33,Coldrife,-1.895,55.248,20
24,Detchant,-1.861,55.623,24
46,Widdrington Station,-1.611,55.239,20
33,Sharperton,-2.064,55.332,20
39,Frettenham,1.325,52.709,20
79,Acle,1.55,52.639,20
24,Panxworth,1.478,52.665,20
24,Salle,1.126,52.78,20
39,Salhouse,1.419,52.677,20
28,Thorpe End,1.368,52.65,20
33,Reedham,1.566,52.56,20
28,Rackheath,1.371,52.675,20
24,Cantley,1.513,52.578,20
55,Coltishall,1.363,52.731,20
28,Felthorpe,1.207,52.716,20
46,Marsham,1.254,52.769,20
160,Reepham,1.116,52.767,20
134,Caister-on-Sea,1.726,52.654,20
46,Belton,1.662,52.567,20
46,Fritton,1.64,52.543,20
94,Hopton on Sea,1.73,52.542,20
24,Clippesby,1.594,52.675,20
46,Ormesby St Margaret,1.694,52.673,20
28,East Somerton,1.674,52.719,20
28,Billockby,1.59,52.663,20
33,Thrigby,1.641,52.654,20
94,Hemsby,1.693,52.695,20
39,Stokesby,1.593,52.639,20
55,Gawsworth,-2.16,53.225,20
33,Arclid,-2.311,53.153,20
46,Goostrey,-2.346,53.227,20
24,Ollerton,-2.332,53.287,20
55,Brereton Green,-2.333,53.174,20
39,Lower Withington,-2.277,53.224,20
33,Church Minshull,-2.5,53.142,20
24,Bulkeley,-2.701,53.086,20
46,Shavington,-2.447,53.061,20
39,Bate Heath,-2.47,53.31,20
66,Newhall,-2.58,53.006,20
55,Alderley Edge,-2.228,53.301,20
24,Styal,-2.24,53.348,20
160,Bickerton,-2.736,53.07,20
24,Smithy Green,-2.38,53.271,20
24,Gleadsmoss,-2.267,53.211,20
66,Wildboarclough,-2.024,53.216,20
28,Warmingham,-2.432,53.146,20
24,Weston,-2.401,53.066,20
39,Monk's Heath,-2.232,53.265,20
79,Wardle Industrial Estate,-2.595,53.116,20
46,Hesleyside,-2.288,55.147,39
33,Saltwick,-1.727,55.114,20
66,Ninebanks,-2.34,54.874,24
33,Wark,-2.221,55.089,20
112,Rochester,-2.265,55.277,46
39,Healey,-1.977,54.92,20
28,Hepscott,-1.65,55.151,20
39,Allendale Town,-2.252,54.896,20
28,High Newton-by-the-Sea,-1.626,55.521,20
24,Crookham,-2.129,55.636,20
66,Higham Dykes,-1.79,55.073,20
28,Pressen,-2.259,55.617,20
55,Bardon Mill,-2.345,54.975,20
55,Barnhill,-1.941,55.122,24
46,Horton,-1.953,55.572,20
46,Lanehead,-2.324,55.165,46
134,Bower,-2.381,55.144,39
79,Billsmoor Park,-2.085,55.266,24
55,West Fleetham,-1.689,55.549,20
39,Martham,1.633,52.705,20
24,Rollesby,1.624,52.689,20
33,Thurne,1.556,52.688,20
28,Runham,1.644,52.64,20
28,Bastwick,1.591,52.703,20
331,King's Lynn,0.417,52.755,112
79,Hunstanton,0.49,52.937,20
33,Terrington St Clement,0.302,52.755,20
112,Dersingham,0.503,52.844,20
276,Heacham,0.491,52.901,33
55,Upwell,0.22,52.602,20
24,Boughton,0.507,52.59,20
24,Marham,0.534,52.664,20
33,Hillington,0.55,52.8,20
192,Feltwell,0.519,52.485,20
24,Hockwold cum Wilton,0.544,52.463,20
79,Ongar Hill,0.341,52.796,20
33,Sedgeford,0.544,52.901,20
39,Sandringham,0.517,52.827,20
55,East Winch,0.511,52.718,20
28,Ringstead,0.541,52.935,20
46,Lakes End,0.236,52.544,20
28,Bircham Newton,0.627,52.874,20
24,Coxford,0.74,52.83,20
33,Denver,0.379,52.589,20
24,Oakgrove,-2.122,53.224,20
28,Lawton-gate,-2.269,53.097,20
33,Aston juxta Mondrum,-2.518,53.108,20
46,Wrenbury Heath,-2.584,53.03,20
39,Barthomley,-2.35,53.068,20
24,Barbridge,-2.573,53.107,20
55,Wirswall,-2.676,52.993,20
28,Norbury,-2.652,53.023,20
39,Checkley,-2.398,53.011,20
28,Alderley Park,-2.232,53.279,20
24,Morley Green,-2.263,53.335,20
39,Wood Lanes,-2.097,53.331,20
55,Sworton Heath,-2.465,53.354,20
46,Congleton Edge,-2.185,53.14,20
46,Marthall,-2.296,53.279,20
33,Rainow,-2.073,53.283,20
33,Wettenhall,-2.559,53.147,20
33,Langley,-2.089,53.241,20
24,Danebridge,-2.057,53.185,20
46,Burleydam,-2.585,52.98,20
79,North Creake,0.755,52.909,20
66,Brandon Creek,0.372,52.498,20
46,Southery,0.392,52.527,20
33,Fordham,0.385,52.573,20
24,Burnham Overy Staithe,0.748,52.963,20
28,Stow Bardolph,0.41,52.626,20
28,Wolferton,0.457,52.826,20
33,Docking,0.63,52.9,20
46,Fring,0.582,52.884,20
33,Anmer,0.585,52.834,20
28,Fair Green,0.455,52.725,20
28,West Acre,0.635,52.706,20
28,Wretton,0.493,52.572,20
24,West Newton,0.517,52.815,20
24,Fincham,0.488,52.629,20
28,Methwold Hythe,0.522,52.521,20
112,Ten Mile Bank,0.356,52.545,20
66,Summerfield,0.599,52.914,20
33,Ingleborough,0.182,52.715,20
39,Bawsey,0.494,52.751,20
39,Burton,-1.714,55.592,20
46,Carham,-2.32,55.639,20
94,Coxbank,-2.51,52.974,20
79,Hatherton,-2.469,53.022,20
24,Ashley,-2.338,53.356,20
28,Timbersbrook,-2.159,53.161,20
24,Cranage,-2.371,53.213,20
24,Wilkesley,-2.551,52.967,20
46,Larden Green,-2.614,53.06,20
33,Hulme Walfield,-2.229,53.182,20
33,Arley,-2.499,53.328,20
55,New Mills,-2.331,53.335,20
39,Peover Heath,-2.307,53.26,20
28,Calveley,-2.608,53.128,20
28,Wybunbury,-2.451,53.038,20
28,Chorlton,-2.403,53.05,20
46,Runcorn,-2.703,53.328,20
55,Widnes,-2.741,53.374,20
39,Daresbury,-2.631,53.341,20
55,Hale,-2.799,53.337,20
192,Warrington,-2.584,53.388,46
55,Lymm,-2.475,53.381,20
39,Culcheth,-2.52,53.454,20
33,Appleton Thorn,-2.542,53.35,20
46,Burtonwood,-2.653,53.432,20
28,Heatley,-2.446,53.391,20
33,Slaggyford,-2.502,54.866,24
46,Hebron,-1.692,55.2,20
134,Ancroft,-1.999,55.701,20
24,Beadnell,-1.634,55.557,20
39,Beanley,-1.871,55.46,20
28,East Lilburn,-1.931,55.507,20
24,Alwinton,-2.123,55.352,0
24,Bradford,-1.755,55.584,20
331,Wooler,-2.013,55.547,33
94,Langleeford,-2.08,55.492,20
230,Belsay,-1.839,55.102,20
39,Black Heddon,-1.877,55.079,20
66,Harlow Hill,-1.875,55.011,20
33,Deadwater,-2.62,55.266,0
39,Akeld,-2.068,55.562,20
24,East Hartford,-1.58,55.106,20
55,Longhorsley,-1.767,55.246,20
28,North Charlton,-1.734,55.5,20
276,North Sunderland,-1.656,55.579,39
46,West Learmouth,-2.237,55.633,20
33,Elford,-1.701,55.572,20
66,Milfield,-2.103,55.599,20
39,Otterburn,-2.176,55.233,20
33,Shillmoor,-2.179,55.366,33
112,Downham,-2.212,55.6,20
94,Cambo,-1.957,55.165,33
28,Lynemouth,-1.538,55.212,20
24,Tritlington,-1.675,55.226,20
24,Callaly,-1.916,55.38,20
46,Flotterton,-1.999,55.316,20
28,Kiln Pit Hill,-1.94,54.89,20
94,Juniper,-2.097,54.923,20
33,Great Ryle,-1.969,55.409,24
397,Comb,-2.365,55.209,55
24,Holystone,-2.068,55.319,20
79,Howick,-1.595,55.453,20
33,Whittonstall,-1.885,54.909,20
55,Chatton,-1.911,55.549,20
28,Horsley,-2.239,55.265,0
24,Linton,-1.588,55.216,20
28,Shotleyfield,-1.907,54.877,20
24,Newtown,-1.945,55.302,20
39,Shoresdean,-2.071,55.712,20
24,Easington,-1.802,55.606,20
24,Lucker,-1.758,55.567,20
28,Fenwick,-1.912,55.05,20
39,Slaley,-2.038,54.915,20
160,Ayle,-2.442,54.839,33
24,Stanton,-1.791,55.202,20
33,West Mains,-1.909,55.673,24
28,Ovington,-1.896,54.97,20
94,Stonehouse,-2.474,54.922,20
24,Wylam,-1.818,54.972,20
33,Otterburn Camp,-2.169,55.254,20
94,Barrowburn,-2.207,55.392,33
33,Shotton,-2.248,55.566,20
33,Kilham,-2.184,55.586,20
28,West Ditchburn,-1.796,55.482,20
24,Howtel,-2.162,55.601,20
28,Felkington,-2.087,55.693,20
66,Hartside,-2.04,55.441,24
66,Goswick,-1.905,55.7,20
28,Flodden,-2.125,55.61,20
33,Low Gate,-2.151,54.971,20
33,East Kyloe,-1.905,55.65,24
33,Cheswick,-1.952,55.712,20
46,Great Whittington,-1.992,55.031,20
33,Bearsbridge,-2.34,54.913,20
33,Rennington,-1.664,55.461,20
24,Yetlington,-1.963,55.383,20
55,Sinderhope,-2.235,54.862,24
24,New Bewick,-1.893,55.477,20
46,Kirkheaton,-1.969,55.092,28
39,Craster,-1.597,55.472,20
79,Walwick,-2.149,55.03,20
66,Corbridge,-2.014,54.976,20
55,Painshawfield,-1.899,54.931,20
24,Abberwick,-1.796,55.414,20
24,Wark,-2.276,55.641,20
94,West Chevington,-1.64,55.27,20
55,Coalpits Grange,-2.033,54.896,20
33,Bingfield,-2.034,55.046,20
112,Mousen,-1.806,55.582,20
39,Newton on the Moor,-1.729,55.342,20
46,Horton Grange,-1.688,55.074,20
24,Little Ryle,-1.968,55.395,20
24,Wall,-2.129,55.015,20
331,Macclesfield,-2.134,53.262,33
160,Wilmslow,-2.233,53.327,20
192,Congleton,-2.21,53.168,20
55,Sandbach,-2.358,53.145,20
55,Marton,-2.224,53.212,20
39,Alsager,-2.308,53.098,20
28,Elsdon,-2.1,55.233,28
55,Halton,-2.005,55.005,20
94,Thrunton,-1.857,55.392,20
24,Alnham,-2.005,55.393,24
28,Longhoughton,-1.615,55.431,20
55,Glanton Pyke,-1.908,55.423,28
66,West Woodburn,-2.169,55.177,39
33,Throphill,-1.793,55.167,20
24,Newstead,-1.759,55.536,20
24,Etal,-2.113,55.649,20
33,Guyzance,-1.664,55.329,20
66,Allenheads,-2.217,54.804,20
33,Gatehouse,-2.332,55.195,0
66,Holy Island,-1.8,55.672,24
24,Haggerston,-1.932,55.686,20
28,Middleton,-1.901,55.161,28
24,Bowsden,-2.011,55.67,24
24,Whalton,-1.795,55.127,20
24,Whygate,-2.358,55.078,24
230,Catcleugh,-2.401,55.325,39
28,Featherstone Rowfoot,-2.492,54.939,20
24,Hartburn,-1.861,55.17,24
94,Barmoor Lane End,-1.994,55.653,24
33,Carterway Heads,-1.928,54.861,20
28,Greenhaugh,-2.321,55.178,0
28,Titlington,-1.842,55.431,20
46,Warenford,-1.781,55.55,20
94,Meldon,-1.811,55.149,20
46,Wingates,-1.843,55.252,20
46,Carrshield,-2.305,54.822,33
33,North Hazelrigg,-1.915,55.593,20
28,Alnmouth,-1.612,55.389,20
28,Horsley,-1.851,54.988,20
33,Simonburn,-2.2,55.058,24
79,Poynton,-2.122,53.346,20
79,Knutsford,-2.367,53.299,20
39,Handforth,-2.212,53.349,20
33,Bollington,-2.104,53.295,20
55,Haslington,-2.391,53.101,20
28,Prestbury,-2.152,53.28,20
28,Blakenhall,-2.405,53.024,20
46,Peckforton,-2.687,53.106,20
24,Ravensmoor,-2.567,53.054,20
39,Wheelock,-2.376,53.125,20
28,Hankelow,-2.492,53.005,20
28,Astbury,-2.229,53.152,20
24,Henbury,-2.179,53.262,20
39,Macclesfield Forest,-2.038,53.245,20
33,Rostherne,-2.384,53.348,20
33,Bucklow Hill,-2.404,53.33,20
28,Mobberley,-2.321,53.314,20
46,Burntcliff Top,-2.013,53.194,20
55,Bosley,-2.123,53.189,20
28,Kenyon,-2.556,53.453,20
46,Higher Walton,-2.602,53.362,20
28,Croft,-2.55,53.441,20
28,Broomedge,-2.445,53.372,20
39,Edlingham,-1.824,55.374,20
66,Ford,-2.084,55.631,24
55,Ingoe,-1.939,55.069,20
46,Rock,-1.677,55.477,20
28,Swarland,-1.738,55.327,20
39,Newton,-1.943,54.975,20
46,Togston,-1.612,55.306,20
46,Pigdon,-1.753,55.189,20
66,Gilsland,-2.57,54.991,20
33,East Thirston,-1.689,55.293,20
28,Eshott,-1.679,55.274,20
160,Christon Bank,-1.664,55.5,20
66,Birtley,-2.189,55.098,33
39,Hawkhill,-1.643,55.408,20
33,Westnewton,-2.152,55.567,20
24,Roseden,-1.95,55.489,20
46,Lorbottle,-1.946,55.353,20
46,Pegswood,-1.643,55.18,20
33,Nunnykirk,-1.869,55.233,20
39,Mitford,-1.727,55.168,20
46,Birling,-1.611,55.351,20
33,Longhirst,-1.647,55.196,20
28,Stretton,-2.57,53.333,20
33,Winwick,-2.593,53.432,20
476,Chester,-2.894,53.198,33
160,Ellesmere Port,-2.894,53.275,20
134,Northwich,-2.508,53.246,24
112,Winsford,-2.518,53.193,20
79,Neston,-3.061,53.288,20
79,Frodsham,-2.719,53.294,20
46,Weaverham,-2.574,53.261,20
46,Cuddington,-2.595,53.237,20
24,Swan Green,-2.392,53.258,20
24,Mollington,-2.919,53.228,20
39,Delamere,-2.656,53.214,20
46,Dodleston,-2.954,53.143,20
33,Hatton Heath,-2.807,53.151,20
33,Crow's Nest Bridge,-2.755,53.14,20
94,No Man's Heath,-2.724,53.027,20
94,Kingsley,-2.672,53.258,20
24,Pulford,-2.931,53.124,20
28,Aston,-2.66,53.3,20
39,Chorlton Lane,-2.809,53.024,20
66,Tattenhall,-2.766,53.119,20
46,Willaston,-3.001,53.295,20
55,Scrainwood,-2.012,55.381,20
39,Berrington,-1.989,55.683,20
46,Murton,-2.051,55.732,20
94,Hethpool,-2.164,55.55,20
28,Brunton,-1.671,55.516,20
55,Old Swarland,-1.742,55.311,20
79,Kielder,-2.584,55.235,55
192,Haltwhistle,-2.463,54.971,39
28,Buckton,-1.868,55.64,24
24,Melkridge,-2.409,54.969,20
39,Ogle,-1.783,55.105,20
33,Ewart Newtown,-2.047,55.581,20
66,Middleton,-1.839,55.614,24
112,Netherwitton,-1.843,55.207,20
28,Knowesgate,-2.015,55.166,0
24,Red Barns,-1.699,55.605,20
39,Coalcleugh,-2.308,54.802,33
24,Woodhorn,-1.53,55.193,20
33,Blindburn,-2.269,55.393,33
24,South Charlton,-1.74,55.476,20
46,Falstone,-2.433,55.181,46
33,Dalton,-1.827,55.042,20
28,Shilbottle,-1.686,55.372,20
94,Redesmouth,-2.21,55.133,39
66,Grindon,-2.135,55.697,20
134,Catton,-2.266,54.916,24
33,Widdrington,-1.597,55.258,20
33,Pauperhaugh,-1.84,55.292,20
94,Linshiels,-2.167,55.35,33
39,Ridsdale,-2.144,55.154,39
66,Pentre-bont,-3.886,53.053,20
33,Ty'n-y-groes,-3.838,53.23,20
55,Ty Mawr Cwm,-3.623,53.013,24
33,Trefriw,-3.825,53.154,20
112,Eglwysbach,-3.792,53.218,20
79,Glan Conwy,-3.738,53.054,24
33,Cefn-brith,-3.591,53.042,28
112,Cliffe,0.499,51.46,20
39,Halling,0.442,51.351,20
66,Grain,0.714,51.455,20
134,Bracknell,-0.753,51.408,28
33,Binfield,-0.786,51.425,20
33,Newell Green,-0.737,51.432,20
24,Maiden's Green,-0.705,51.446,20
33,Thatcham,-1.255,51.404,20
94,Theale,-1.076,51.435,20
28,Mortimer,-1.066,51.377,20
66,Hungerford,-1.517,51.412,33
134,Lambourn,-1.529,51.507,20
79,Pangbourne,-1.088,51.482,20
28,East Ilsley,-1.288,51.527,20
46,Aldworth,-1.199,51.512,20
112,Farnborough,-1.375,51.535,20
79,Tan-y-fron,-3.557,53.164,20
66,Capel Curig,-3.91,53.104,20
24,Llansanffraid Glan Conwy,-3.791,53.271,20
46,Trofarth,-3.714,53.232,20
24,Llansannan,-3.596,53.181,20
39,Llysfaen,-3.665,53.278,20
55,Pentrefelin,-3.79,53.258,20
33,Gell,-3.721,53.213,20
33,Tal-y-bont,-3.845,53.203,20
24,Cefn Berain,-3.502,53.212,20
28,Llanddoged,-3.785,53.158,20
33,Gogarth,-3.86,53.33,20
79,Pentre-llyn-cymmer,-3.535,53.061,28
66,Capel Garmon,-3.769,53.085,20
28,Ty-nant,-3.505,52.992,20
46,Oaklands,-3.776,53.109,20
66,Ysbyty Ifan,-3.726,53.026,28
24,Deunant-isaf,-3.551,53.176,20
66,Gwytherin,-3.68,53.14,20
55,Pentre Isaf,-3.686,53.206,20
33,Melin-y-coed,-3.771,53.129,20
24,Betws-y-Coed,-3.804,53.094,20
24,Bylchau,-3.532,53.156,20
39,Henryd,-3.844,53.258,20
28,Betws-yn-Rhos,-3.641,53.249,20
28,Cwm Penmachno,-3.86,53.01,20
55,Pandy Tudur,-3.707,53.164,20
24,Cerrigydrudion,-3.56,53.025,24
28,Pont-y-pant,-3.864,53.07,20
39,Rhos-y-mawn,-3.717,53.184,20
39,Pennant,-3.687,53.12,20
39,Penmachno,-3.804,53.04,20
24,Cross Inn,-4.134,52.257,0
39,Llanilar,-4.022,52.355,20
79,Chancery,-4.086,52.37,20
24,Creuddyn Bridge,-4.117,52.151,20
24,Mydroilyn,-4.256,52.173,20
160,Aberarth,-4.229,52.251,33
39,Ysbyty Ystwyth,-3.858,52.326,24
55,Tre'r-ddol,-3.975,52.511,20
24,Llandre,-4.02,52.463,20
28,Blaenporth,-4.537,52.108,20
79,Llanfihangel-y-Creuddyn,-3.96,52.366,20
24,Cwm-cou,-4.494,52.05,24
28,Synod Inn,-4.335,52.162,0
33,Swyddffynnon,-3.915,52.278,33
94,Ciliau Aeron,-4.196,52.206,24
55,Crosswood,-3.963,52.34,20
66,Betws Ifan,-4.48,52.096,28
24,Nanternis,-4.381,52.182,0
28,Tal-y-bont,-3.98,52.486,20
66,Parcllyn,-4.561,52.131,20
24,Penparc,-4.613,52.101,20
33,Lledrod,-3.988,52.314,20
28,Llangrannog,-4.467,52.158,20
79,Pont-Sian,-4.28,52.093,28
55,Bwlch-y-fadfa,-4.29,52.123,28
33,Llanddewi Brefi,-3.957,52.18,20
24,Coed y Cwm,-3.332,51.627,20
24,Ynysybwl,-3.361,51.64,20
66,Taff's Well,-3.262,51.544,20
39,Treherbert,-3.537,51.675,20
24,Gilfach Goch,-3.472,51.585,20
24,Pen-y-coedcae,-3.356,51.58,20
24,Nantgarw,-3.265,51.563,20
33,Penderyn,-3.522,51.758,20
28,Pontygwaith,-3.43,51.637,20
24,Talbot Green,-3.384,51.534,20
39,Rhigos,-3.559,51.74,20
39,Coedely,-3.41,51.563,20
55,Merthyr Tydfil,-3.379,51.753,20
24,Merthyr Vale,-3.333,51.686,20
94,Vaynor,-3.381,51.784,20
46,Abercanaid,-3.366,51.723,20
28,Bedlinog,-3.308,51.704,20
79,St Mary Hoo,0.592,51.459,20
33,Allhallows-on-Sea,0.649,51.474,20
33,Cliffe Woods,0.497,51.434,20
39,Cuxton,0.454,51.375,20
24,Upper Upnor,0.523,51.406,20
112,Cwmbran,-3.029,51.652,20
66,Pontypool,-3.029,51.685,20
28,Llanfrechfa,-2.985,51.638,20
33,Waterloo,-3.068,51.729,20
39,Castell-y-bwch,-3.049,51.626,20
24,Garn-yr-erw,-3.108,51.783,20
39,Varteg,-3.066,51.748,20
112,Abergavenny,-3.021,51.827,24
331,Chepstow,-2.679,51.637,28
79,Caldicot,-2.76,51.591,20
28,Lower Basildon,-1.126,51.504,20
66,Yattendon,-1.204,51.466,20
39,Burghfield,-1.041,51.411,20
28,Bradfield,-1.131,51.448,20
39,Compton,-1.253,51.515,20
79,Keeston,-5.046,51.832,20
39,Cyffredin,-5.206,51.933,33
55,Rinaston,-4.933,51.893,20
24,Cresswell Quay,-4.824,51.722,20
24,Solva,-5.197,51.873,0
55,Llanfair-Nant-Gwyn,-4.676,52.006,20
46,Puncheston,-4.9,51.929,20
94,Bletherston,-4.805,51.854,20
276,Rhosson,-5.3,51.881,39
33,Caerfarchell,-5.207,51.897,33
24,Blaenffos,-4.638,51.999,20
66,Hermon,-4.609,51.955,33
24,St Davids,-5.264,51.882,20
94,Bwlchygroes,-4.563,51.993,24
24,Walton West,-5.099,51.772,20
24,Freshwater East,-4.862,51.649,20
46,Clunderwen,-4.73,51.839,20
192,Henry's Moat,-4.848,51.911,24
24,Uzmaston,-4.941,51.792,20
33,Crossway,-2.8,51.869,20
28,Sudbrook,-2.715,51.59,20
476,Brecon,-3.383,51.95,39
276,Welshpool,-3.143,52.662,33
24,Llandrindod Wells,-3.377,52.233,20
46,Knucklas,-3.096,52.36,20
24,Llangadfan,-3.463,52.686,0
39,Meifod,-3.252,52.711,20
66,Abbeycwmhir,-3.388,52.33,20
66,Foel,-3.49,52.692,46
94,Llansantffraed,-3.272,51.904,20
66,Penwyllt,-3.666,51.827,20
46,Michaelchurch-on-Arrow,-3.1,52.149,20
28,Abergwydol,-3.787,52.61,20
24,Buttington,-3.109,52.671,20
24,Tycrwyn,-3.331,52.756,0
66,Nant-glas,-3.471,52.274,20
39,Efail-rhyd,-3.245,52.828,24
28,Pennant,-3.655,52.561,28
33,Llanddew,-3.374,51.966,20
79,Llandefaelog,-3.407,51.983,20
39,Llowes,-3.176,52.066,20
66,Llanfechain,-3.201,52.775,20
46,Llanwrtyd,-3.652,52.114,28
33,Ddol Cownwy,-3.458,52.745,0
112,Dolfach,-3.599,52.382,20
28,Llanwddyn,-3.449,52.76,0
28,Granston,-5.062,51.964,20
33,Llandissilio,-4.731,51.858,20
192,Fishguard,-4.974,51.994,46
39,Pwllcrochan,-5.009,51.683,20
46,Llanfflewyn,-4.469,53.374,20
39,Ceidio,-4.389,53.344,20
24,Llanbadrig,-4.443,53.421,20
33,Llanallgo,-4.255,53.342,20
112,Capel Parc,-4.333,53.359,20
39,Rhosmeirch,-4.311,53.274,20
28,Llanfigael,-4.511,53.318,20
24,Llangwyllog,-4.347,53.285,20
28,Bodffordd,-4.362,53.267,20
28,Capel Gwyn,-4.474,53.254,20
28,Llaneilian,-4.302,53.411,20
24,Llangristiolus,-4.345,53.238,20
39,Llanfaethlu,-4.537,53.354,20
28,Llandyfrydog,-4.339,53.344,20
33,Llangaffo,-4.331,53.192,20
28,Dothan,-4.441,53.245,20
79,Bethel,-4.401,53.208,20
24,Ceint,-4.265,53.251,20
33,Llanbedrgoch,-4.238,53.303,20
33,Llanddyfnan,-4.247,53.285,20
66,Pen-y-garnedd,-4.193,53.269,20
39,Llanddona,-4.141,53.294,20
24,Evenjobb,-3.076,52.253,20
66,Deuddwr,-3.128,52.748,20
28,Guilsfield,-3.153,52.695,20
46,Cwmbelan,-3.551,52.425,20
66,Plas Llwyngwern,-3.842,52.627,20
28,Tyn-y-ffridd,-3.31,52.87,24
39,Sarn,-3.168,52.511,24
33,Llyswen,-3.264,52.032,20
46,Pentre Llifior,-3.255,52.573,20
94,Rhos-goch,-3.188,52.124,20
55,Old Radnor,-3.096,52.225,20
28,Llanspyddid,-3.437,51.941,20
46,Cwm Irfon,-3.671,52.133,28
28,Derwenlas,-3.886,52.574,20
33,Pont Crugnant,-3.64,52.549,28
55,Llangynidr,-3.229,51.866,20
33,Cwmbach,-3.215,52.049,20
66,Cedig,-3.485,52.795,33
28,Cathedine,-3.244,51.92,20
66,Trallong,-3.504,51.955,20
39,Mochdre,-3.364,52.487,20
24,Pwllgloyw,-3.411,51.993,20
24,Bleddfa,-3.162,52.308,20
24,Glascoed,-3.302,52.666,24
24,Boughrood,-3.268,52.044,20
28,Moelfre,-3.216,52.848,20
79,Llanstephan,-3.281,52.068,24
24,Crickhowell,-3.136,51.861,20
24,Llangors,-3.255,51.939,20
46,Llansawel,-4.012,52.008,28
55,Gwarallt,-4.222,52.025,24
46,Merthyr,-4.393,51.861,20
39,Crugybar,-3.954,52.021,20
79,Salem,-4.002,51.916,20
46,Pendine,-4.546,51.745,20
46,Pen-y-bont,-4.462,51.914,20
55,Ystradffin,-3.77,52.104,24
46,Capel Gwyn,-4.231,51.879,20
24,Pen-y-mynydd,-4.224,51.711,20
46,Trimsaran,-4.245,51.721,20
39,Ffaldybrenin,-3.987,52.081,20
39,Cilgwyn,-3.829,51.952,20
28,Bronwydd Arms,-4.3,51.891,20
66,Cwmdu,-3.986,51.953,20
33,Blaen-y-coed,-4.402,51.918,20
79,Maesybont,-4.08,51.829,20
33,Bryn,-4.096,51.685,20
160,Gwernogle,-4.137,51.982,28
39,Cynheidre,-4.188,51.743,20
28,Myddfai,-3.786,51.955,20
55,Pumsaint,-3.955,52.046,20
55,Llannon,-4.115,51.756,20
39,Pant yr Athro,-4.366,51.796,20
24,Carway,-4.224,51.735,20
28,Tycroes,-4.018,51.776,20
39,Tumble,-4.111,51.778,20
46,Pentre-ty-gwyn,-3.722,52.004,20
79,Alltwalis,-4.261,51.961,24
55,Llanfwrog,-4.553,53.329,20
112,Amlwch,-4.342,53.409,24
24,Mona,-4.364,53.248,20
55,Llechcynfarwy,-4.431,53.303,20
28,Beaumaris,-4.096,53.264,20
24,Carmel,-4.423,53.315,20
230,Benllech,-4.224,53.321,20
24,Gadfa,-4.32,53.383,20
24,Llanedwen,-4.233,53.197,20
24,Penmynydd,-4.232,53.247,20
79,Gaerwen,-4.271,53.223,20
24,Bodewryd,-4.409,53.393,20
39,Llantrisant,-4.457,53.326,20
33,Rhosgoch,-4.392,53.378,20
46,Llanfaes,-4.089,53.278,20
24,Llanddaniel Fab,-4.256,53.213,20
55,Llanfairyneubwll,-4.548,53.26,20
39,Llanfechell,-4.455,53.393,20
28,Bryngwran,-4.474,53.27,20
24,Elim,-4.473,53.336,20
66,Valley,-4.563,53.286,20
39,Dulas,-4.291,53.383,20
24,Talwrn,-4.27,53.268,20
33,Trearddur,-4.619,53.285,20
28,Burwen,-4.379,53.414,20
33,Malltraeth,-4.389,53.194,20
33,Rhoscolyn,-4.599,53.252,20
28,Llanynghenedl,-4.529,53.301,20
24,Brynrefail,-4.285,53.358,20
24,Felinfach,-3.325,51.989,20
94,Llaithddu,-3.367,52.411,24
33,Bwlch,-3.237,51.891,20
46,Llandyssil,-3.185,52.547,20
46,Llanbadarn Fynydd,-3.323,52.388,20
66,Cefn-gorwydd,-3.603,52.098,33
66,Glanmule,-3.229,52.505,20
39,Hyssington,-3.012,52.541,28
94,Abergwesyn,-3.674,52.162,28
33,Capel-y-ffin,-3.084,51.979,24
24,Abercegir,-3.766,52.601,20
134,Llanelieu,-3.189,52.001,20
112,Heol Senni,-3.558,51.898,28
24,Gaer,-3.206,51.888,20
24,Cyfronydd,-3.265,52.662,20
55,Maesmynis,-3.435,52.117,20
39,Bwlch-y-cibau,-3.218,52.748,24
55,Beulah,-3.577,52.147,20
66,Llandegley,-3.258,52.254,20
66,Tregoyd,-3.167,52.033,20
33,Aberhosan,-3.754,52.561,20
79,Caersws,-3.427,52.518,20
39,Leighton,-3.116,52.647,20
39,St Harmon,-3.485,52.343,20
33,Dolley Green,-3.049,52.282,20
39,Scethrog,-3.299,51.92,20
66,Llanfihangel Tal-y-llyn,-3.288,51.947,20
28,Llansaint,-4.339,51.747,20
55,Court Henry,-4.096,51.882,20
24,Rhydcymerau,-4.072,52.027,20
33,Crosshands,-4.624,51.873,20
33,Llangynog,-4.409,51.82,20
79,Croesyceiliog,-4.311,51.823,20
28,Bwlchnewydd,-4.371,51.895,20
230,Llandovery,-3.798,51.995,46
192,Cwmduad,-4.364,51.955,24
33,Bethlehem,-3.911,51.909,20
33,Dolgran,-4.282,51.984,28
39,Bryn Iwan,-4.451,51.955,28
33,Login,-4.668,51.877,20
33,Pentrefelin,-4.036,51.892,20
39,Penrherber,-4.494,52.02,20
79,Porthyrhyd,-3.881,52.022,20
39,Cwmann,-4.066,52.096,20
28,Llanglydwen,-4.646,51.907,24
55,Glandy Cross,-4.7,51.906,24
79,Rhos,-4.361,51.992,20
79,Cynghordy,-3.737,52.043,20
33,Marros,-4.598,51.748,20
66,Horeb,-4.163,51.928,24
33,Pen-y-garn,-4.078,51.965,24
46,Abernant,-4.414,51.881,20
55,Halfway,-3.708,51.979,20
28,Drefach,-4.137,51.799,20
134,Capel-Gwynfe,-3.856,51.88,20
94,Pentre Morgan,-4.313,51.904,20
28,Llanybri,-4.41,51.785,20
28,Broadlay,-4.361,51.758,20
39,Golden Grove,-4.047,51.857,20
112,Felindre,-3.887,51.929,20
46,East Winterslow,-1.647,51.104,20
66,Westdown Camp,-1.938,51.229,20
112,Morgan's Vale,-1.715,50.988,20
46,Keevil,-2.115,51.321,20
39,East Tytherton,-2.053,51.473,20
134,West End,-2.023,51.018,20
66,Semley,-2.152,51.041,20
46,Corsley,-2.242,51.219,20
28,Chelworth,-2.043,51.647,20
33,Woodminton,-1.985,50.999,20
39,Upper Woodford,-1.822,51.134,20
28,Huish,-1.791,51.37,20
33,Monkton Farleigh,-2.279,51.388,20
55,Highway,-1.94,51.47,20
39,Brokenborough,-2.117,51.604,20
33,Grittenham,-1.954,51.545,20
33,Britford,-1.771,51.051,20
24,Worton,-2.034,51.316,20
28,Lower Chicksgrove,-2.039,51.069,20
28,Green Hill,-1.9,51.568,20
79,Upper Upham,-1.674,51.493,20
46,Upton Lovell,-2.078,51.167,20
46,Seend,-2.081,51.349,20
94,Baverstock,-1.959,51.089,20
33,Rhydwyn,-4.534,53.372,20
28,Tregele,-4.473,53.406,20
55,Llynfaes,-4.387,53.281,20
24,Gwalchmai,-4.415,53.255,20
134,Caernarfon,-4.259,53.141,20
33,Fron,-4.455,52.931,20
55,Fairbourne,-4.051,52.7,20
33,Llanfachreth,-3.85,52.786,20
28,Rhoslan,-4.261,52.946,20
39,Rhiwlas,-4.129,53.172,20
112,Aber-Cywarch,-3.675,52.729,28
28,Bryncroes,-4.635,52.852,0
33,Llanbedrog,-4.49,52.86,20
24,Ynys,-4.088,52.897,20
33,Llandderfel,-3.513,52.923,20
94,Llanfendigaid,-4.117,52.624,20
46,Prenteg,-4.105,52.953,20
55,Bodermid,-4.736,52.794,46
79,Rhedyn,-4.533,52.864,20
39,Methlem,-4.714,52.84,0
66,Talsarnau,-4.064,52.903,20
134,Ffridd Uchaf,-4.123,53.044,20
192,Bronaber,-3.911,52.87,20
134,Dinas,-4.575,52.895,20
55,Groesffordd,-4.569,52.925,20
33,Rhos-y-gwaliau,-3.571,52.899,20
986,Pwllheli,-4.423,52.885,55
39,Llanrug,-4.189,53.15,20
28,Talgarth,-3.231,51.997,20
46,Llanerfyl,-3.427,52.677,39
79,Trelystan,-3.094,52.627,20
46,Pen-y-bont Llanerch Emrys,-3.169,52.806,20
66,Llanfilo,-3.283,51.991,20
39,Defynnog,-3.561,51.937,28
28,Pentre'r-felin,-3.572,51.961,28
28,Arddleen,-3.099,52.735,20
66,Plas Llysyn,-3.54,52.563,28
134,Llanidloes,-3.54,52.447,33
55,Clatter,-3.477,52.541,20
28,Llanwnog,-3.439,52.531,20
28,Tretower,-3.181,51.884,20
94,Dylife,-3.677,52.532,20
46,Commins Coch,-3.709,52.611,20
94,Melin-y-ddol,-3.348,52.652,28
33,Beguildy,-3.185,52.41,20
39,Snead,-3.006,52.522,24
192,Knighton,-3.045,52.343,39
46,Builth Road,-3.425,52.17,20
24,Llandefaelog-tre'r-graig,-3.272,51.961,20
28,Llanbister,-3.304,52.351,24
46,Pontrobert,-3.319,52.704,24
46,Elan Village,-3.559,52.271,20
24,Llanllugan,-3.392,52.609,24
46,Llandefalle,-3.302,52.011,20
24,Gladestry,-3.123,52.189,20
112,Llywel,-3.646,51.958,20
28,Battle,-3.439,51.968,20
134,Tregynon,-3.335,52.576,20
46,Bwlch-y-ffridd,-3.373,52.549,20
24,Ceinws,-3.835,52.639,20
55,Cenarth,-4.527,52.045,20
94,Cwmfelin Mynach,-4.576,51.894,20
55,Cwmisfael,-4.187,51.82,20
28,Milo,-4.037,51.837,20
134,Kidwelly,-4.306,51.737,20
24,Siloh,-3.835,52.017,20
66,Llidiad-Nenog,-4.12,52.016,24
39,Capel Iwan,-4.493,51.998,24
33,Talley,-3.987,51.969,20
24,Manordeilo,-3.928,51.921,20
46,Bancyfelin,-4.434,51.835,20
24,Cefn-y-pant,-4.628,51.897,20
28,Ashfield,-3.903,51.941,20
24,Llangendeirne,-4.238,51.803,20
46,Llanllawddog,-4.242,51.941,20
28,Capel Isaac,-4.06,51.921,20
33,Blaenwaun,-4.566,51.913,24
55,Gwyddgrug,-4.239,51.996,28
66,Rhandirmwyn,-3.774,52.077,20
39,Crwbin,-4.216,51.795,20
33,Cefneithin,-4.096,51.803,20
46,Notton,-2.127,51.426,20
33,Norton Bavant,-2.13,51.188,20
39,Upper Chute,-1.574,51.283,20
94,West Kington,-2.274,51.494,20
33,Upavon Army Camp,-1.776,51.293,20
55,Bromham,-2.049,51.389,20
66,Tisbury,-2.075,51.061,20
55,Atworth,-2.192,51.393,20
33,Alderton,-2.231,51.545,20
79,Fisherton de la Mere,-2,51.146,20
28,Fosbury,-1.541,51.318,20
39,Lyneham,-1.97,51.503,20
55,Charlton St Peter,-1.833,51.303,20
66,Allington,-1.901,51.366,20
24,Woodfalls,-1.718,50.977,20
33,Trading Estate,-2.206,51.274,20
28,Poulshot,-2.044,51.336,20
28,Sopworth,-2.249,51.575,20
33,Bratton,-2.123,51.27,20
24,Gastard,-2.166,51.415,20
94,Lower Seagry,-2.064,51.53,20
28,Bushton,-1.907,51.496,20
476,Peterborough,-0.259,52.581,112
94,Wittering,-0.442,52.609,20
24,Southorpe,-0.404,52.611,20
46,North Side,-0.117,52.581,20
33,Milking Nook,-0.249,52.637,20
66,Bwlchtocyn,-4.51,52.806,20
276,Dolgellau,-3.886,52.743,39
28,Garreg,-4.065,52.955,20
33,Abererch,-4.382,52.906,20
79,Llanfaelrhys,-4.651,52.811,39
24,Upper Caldecote,-0.29,52.099,20
33,Sutton,-0.213,52.111,20
28,Upper Shelton,-0.556,52.081,20
24,Tingrith,-0.534,51.98,20
46,Langford,-0.269,52.053,20
46,Lower Sundon,-0.475,51.931,20
66,Aspley Guise,-0.629,52.012,20
24,Slip End,-0.435,51.854,20
28,Apsley End,-0.368,51.983,20
33,Battlesden,-0.594,51.95,20
28,Millbrook,-0.523,52.036,20
39,Everton,-0.244,52.146,20
55,Cockayne Hatley,-0.159,52.131,20
39,Tilsworth,-0.577,51.91,20
46,Woburn,-0.621,51.988,20
39,Aberangell,-3.709,52.677,24
28,Penmaenpool,-3.94,52.746,20
28,Waunfawr,-4.207,53.113,20
112,Ganllwyd,-3.891,52.802,20
134,Llithfaen,-4.448,52.961,20
39,Penmorfa,-4.163,52.944,20
94,Llanuwchllyn,-3.67,52.857,20
24,Corris,-3.841,52.654,20
94,Corris Uchaf,-3.856,52.663,20
33,Betws Garmon,-4.169,53.087,20
39,Wenallt,-3.51,52.967,20
230,Bala,-3.597,52.912,46
46,Rhyd-yr-onen,-4.045,52.602,20
33,Cilan Uchaf,-4.526,52.787,20
24,Llanllyfni,-4.283,53.043,20
24,Llanegryn,-4.068,52.629,20
55,Criccieth,-4.229,52.92,20
24,Dinorwig,-4.115,53.135,20
39,Llanfaglan,-4.287,53.119,20
66,Parc,-3.671,52.892,20
33,Llanfihangel-y-pennant,-3.964,52.661,20
55,Llangwnnadl,-4.671,52.865,39
46,Bryncir,-4.261,52.979,20
55,Deiniolen,-4.128,53.147,20
66,Rhosgadfan,-4.233,53.095,20
28,Capel Carmel,-4.729,52.823,0
33,Llaniestyn,-4.575,52.874,24
55,Llannor,-4.449,52.908,20
28,Rhos-y-llan,-4.622,52.909,28
24,Llangunllo,-3.159,52.335,20
33,Alltforgan,-3.531,52.808,28
28,Llandeilo'r-Fan,-3.607,52,28
24,Bronllys,-3.248,52.007,20
39,Berriew,-3.201,52.599,20
134,Felmersham,-0.55,52.207,20
79,Souldrop,-0.557,52.244,20
24,Stagsden,-0.565,52.131,20
79,Wilden,-0.398,52.183,20
28,Wootton,-0.528,52.098,20
28,Clapham,-0.495,52.163,20
33,Hinwick,-0.631,52.243,20
55,Lower Dean,-0.455,52.311,20
79,Keysoe Row,-0.413,52.238,20
28,Wood End,-0.538,52.111,20
24,Knotting,-0.531,52.26,20
33,Milton Ernest,-0.513,52.194,20
33,Chellington,-0.605,52.19,20
55,Great Barford,-0.352,52.157,20
24,Pavenham,-0.556,52.189,20
33,Salph End,-0.409,52.163,20
55,Colmworth,-0.382,52.213,20
39,Riseley,-0.476,52.253,20
33,Sharnbrook,-0.542,52.224,20
79,Wilstead,-0.438,52.08,20
24,Oakley,-0.526,52.171,20
24,Little Staughton,-0.384,52.252,20
33,Willington,-0.377,52.132,20
39,Dunstable,-0.516,51.884,20
94,Leighton Buzzard,-0.662,51.92,20
33,Botwnnog,-4.586,52.85,24
24,Pentir,-4.136,53.183,20
33,Llwyndyrys,-4.421,52.943,20
33,Nantmor,-4.085,52.994,20
39,Tal-y-bont,-4.097,52.774,20
33,Croesor,-4.04,52.984,20
331,Tywyn,-4.092,52.584,39
39,Brithdir,-3.82,52.76,20
28,Nasareth,-4.284,53.026,20
33,Penrhos,-4.466,52.878,20
397,Colwyn Bay,-3.721,53.291,94
66,Abergele,-3.583,53.285,20
79,Llandudno,-3.825,53.317,20
66,Conwy,-3.811,53.289,20
276,Llanrwst,-3.796,53.142,33
112,Llanfairfechan,-3.972,53.255,20
28,Dolgarrog,-3.842,53.189,20
55,Llannefydd,-3.527,53.224,20
66,Maerdy,-3.463,52.991,24
39,Dolwen,-3.673,53.259,20
46,Bryn Rhyd-yr-Arian,-3.564,53.196,20
55,Gellioedd,-3.581,52.991,20
28,Towyn,-3.543,53.302,20
24,Llanfihangel Glyn Myfyr,-3.506,53.03,24
33,Rhydlydan,-3.653,53.044,28
28,Llanfair Talhaiarn,-3.604,53.217,20
33,Devil's Bridge,-3.855,52.375,20
46,Capel Seion,-3.999,52.394,20
112,Cwmystwyth,-3.779,52.351,39
79,Llanddeiniol,-4.112,52.328,20
28,Llechryd,-4.599,52.065,20
276,Ffoshelyg,-3.991,52.292,28
28,Glaspwll,-3.861,52.561,20
55,Pant-glas,-3.816,52.569,20
28,Llanfihangel-Nant-Melan,-3.196,52.214,24
39,Tylwch,-3.515,52.409,20
33,Penybont,-3.295,52.267,20
39,Llananno,-3.327,52.362,28
39,Penybontfawr,-3.354,52.811,33
28,Blaendyryn,-3.555,52.019,24
33,Llangurig,-3.604,52.406,20
39,Cascob,-3.116,52.291,20
24,Gaufron,-3.468,52.3,20
24,Melinbyrhedyn,-3.748,52.574,20
79,Upper Chapel,-3.447,52.055,20
134,Llangynog,-3.407,52.825,24
55,Pool Quay,-3.103,52.695,20
24,Rhiwlas,-3.193,52.88,20
33,Llanmerewig,-3.238,52.526,20
39,Llanfihangel Nant Bran,-3.537,51.997,20
28,Abernaint,-3.296,52.783,0
66,Bwlch-y-sarnau,-3.423,52.36,20
55,Crossway,-3.391,52.21,20
28,Bwlchyddar,-3.233,52.789,24
39,Dolwen,-3.516,52.656,39
33,Llanbadarn-y-garreg,-3.296,52.129,20
24,Pontneddfechan,-3.588,51.759,20
28,Cwmorgan,-4.485,51.985,28
55,Pontyberem,-4.178,51.775,20
39,Llandysul,-4.314,52.036,20
66,Meidrim,-4.482,51.861,20
33,Pwll,-4.201,51.687,20
39,Penrhyndeudraeth,-4.064,52.928,20
24,Cenin,-4.29,52.981,20
79,Ty-nant,-3.622,52.823,20
33,Gell,-4.239,52.936,20
24,Glasinfryn,-4.116,53.199,20
33,Pontllyfni,-4.337,53.048,20
39,Towyn,-4.551,52.819,20
24,Llandegwning,-4.576,52.841,24
24,Rhyd-Ddu,-4.135,53.054,20
112,Porthmadog,-4.131,52.926,33
33,Cae Clyd,-3.926,52.978,20
33,Nantlle,-4.226,53.059,20
24,Llandwrog,-4.315,53.081,20
94,Glan-yr-afon,-3.621,52.955,20
39,Glan-yr-afon,-3.452,52.972,24
46,Sarnau,-3.53,52.942,20
33,Pistyll,-4.493,52.95,20
46,Rhyd-uchaf,-3.634,52.929,20
55,Aberdovey,-4.043,52.546,20
66,Y Felinheli,-4.212,53.181,20
79,Llanfihangel-y-pennant,-4.196,52.982,20
39,Rhos-fawr,-4.401,52.926,20
28,Cemmaes Road,-3.741,52.622,20
39,Llanfihangel-yng-Ngwynfa,-3.362,52.741,28
28,Llanfyllin,-3.269,52.763,20
46,Aberedw,-3.341,52.118,20
46,New Radnor,-3.151,52.241,20
46,Rhos-y-brithdir,-3.281,52.798,28
24,Cnwch Coch,-3.945,52.357,20
24,Gwbert,-4.684,52.117,20
24,Goginan,-3.932,52.411,20
55,Bethania,-4.092,52.251,33
39,Llangwyryfon,-4.055,52.315,24
24,Salem,-3.959,52.441,20
24,Penuwch,-4.056,52.243,0
46,Alltyblaca,-4.16,52.086,20
160,Aber-banc,-4.401,52.048,39
33,Trefenter,-4.045,52.296,28
39,Monachty,-4.191,52.236,33
66,Cwmbrwyno,-3.899,52.409,24
55,Eglwys Fach,-3.936,52.545,20
24,Ffostrasol,-4.375,52.103,20
33,Brongest,-4.45,52.079,28
46,Dihewyd,-4.216,52.179,20
39,Capel Tygwydd,-4.524,52.063,20
55,Pantgwyn,-4.571,52.082,20
24,Pontrhydfendigaid,-3.86,52.282,20
24,Pisgah,-3.938,52.381,20
46,Llanon,-4.178,52.282,20
46,Llanmihangel,-3.466,51.437,20
28,St Hilary,-3.414,51.448,20
24,Peterston-super-Ely,-3.315,51.482,20
39,Penllyn,-3.478,51.476,20
33,Downs,-3.285,51.462,20
39,Michaelston-le-Pit,-3.221,51.45,20
24,Llwyn-y-brain,-4.614,51.804,20
55,Llangeler,-4.373,52.027,39
33,Llanddowror,-4.531,51.799,20
79,Trelech,-4.499,51.945,24
33,Maesycrugiau,-4.227,52.045,24
39,Bancyffordd,-4.319,52.015,39
24,Porthyrhyd,-4.148,51.819,20
33,Llanybyther,-4.148,52.071,20
39,Abergorlech,-4.065,51.984,28
39,Gellywen,-4.506,51.884,20
39,Llandybie,-4.004,51.817,20
79,Cwmfelin-boeth,-4.625,51.838,20
24,Llangain,-4.345,51.816,20
39,Llanddeusant,-3.779,51.905,20
33,Meinciau,-4.23,51.772,20
39,Cilycwm,-3.817,52.045,20
39,Llansteffan,-4.389,51.773,20
24,Plas Farm,-4.202,51.92,20
33,Llanegwad,-4.152,51.871,20
28,Ffynnon-ddrain,-4.328,51.871,20
986,Swansea,-3.949,51.643,112
66,Gorseinon,-4.047,51.67,20
55,Gowerton,-4.027,51.642,20
33,Upton,-0.367,52.593,20
55,Marholm,-0.305,52.605,20
28,Pilsgate,-0.427,52.638,20
39,Eye,-0.191,52.608,20
33,Thornhaugh,-0.424,52.593,20
28,Partrishow,-3.046,51.892,20
24,Pont-faen,-3.463,51.996,20
39,Tal-y-Wern,-3.729,52.589,20
94,Pant Mawr,-3.693,52.428,24
28,Llanigon,-3.148,52.05,20
24,Cilmery,-3.454,52.153,20
192,Builth Wells,-3.404,52.149,20
46,Llansantffraed-in-Elwel,-3.317,52.181,20
55,Llanwyddelan,-3.353,52.601,24
28,Garthmyl,-3.189,52.585,20
28,Nantmel,-3.423,52.287,20
39,Cwmdu,-3.189,51.906,20
24,Clyro,-3.148,52.081,20
46,Merthyr Cynog,-3.48,52.026,20
79,Hengoed,-3.13,52.172,20
28,Llangammarch Wells,-3.55,52.112,20
39,Rhyd,-3.517,52.594,24
46,Llan,-3.649,52.594,28
33,Gwenddwr,-3.366,52.078,20
24,Montgomery,-3.146,52.563,20
230,Hay-on-Wye,-3.125,52.073,28
66,Hirnant,-3.412,52.792,33
79,Llawr-y-glyn,-3.575,52.508,20
33,Forden,-3.13,52.607,20
66,Tirabad,-3.635,52.059,28
46,Gwystre,-3.369,52.28,20
46,Cwmavon,-3.761,51.616,20
28,Rhos,-3.827,51.712,20
55,Resolven,-3.694,51.71,20
33,Bryn,-3.714,51.617,20
28,Llandarcy,-3.858,51.641,20
24,Llangiwg,-3.847,51.733,20
33,Onllwyn,-3.677,51.779,20
39,St Donat's,-3.528,51.405,20
24,Graig Penllyn,-3.473,51.488,20
55,Llancarfan,-3.363,51.424,20
66,Lavernock,-3.173,51.407,20
24,West Aberthaw,-3.402,51.393,20
24,Colwinston,-3.521,51.469,20
39,Wick,-3.55,51.422,20
24,St Athan,-3.415,51.403,20
331,Rhondda,-3.47,51.645,46
112,Pontypridd,-3.324,51.594,20
160,Aberdare,-3.46,51.725,20
79,Mountain Ash,-3.378,51.682,20
66,Abercynon,-3.336,51.654,20
28,Tonypandy,-3.454,51.621,20
55,Tonyrefail,-3.42,51.586,20
28,Church Village,-3.319,51.567,20
79,Beddau,-3.354,51.555,20
39,Ferndale,-3.455,51.667,20
39,Treorchy,-3.511,51.66,20
55,Pontyclun,-3.388,51.523,20
46,Porth,-3.398,51.611,20
46,Westoning,-0.498,51.982,20
33,Brogborough,-0.595,52.034,20
28,Pegsdon,-0.372,51.959,20
33,Billington,-0.634,51.894,20
55,Bainton,-0.385,52.641,20
79,Sutton,-0.382,52.576,20
79,Thorney,-0.102,52.622,20
33,Ufford,-0.384,52.624,20
28,Northborough,-0.298,52.659,20
79,Glinton,-0.295,52.638,20
33,Kempston,-0.493,52.117,20
33,Wymington,-0.6,52.268,20
55,Yelden,-0.516,52.291,20
33,Keysoe,-0.426,52.252,20
33,Odell,-0.588,52.21,20
24,Elstow,-0.464,52.108,20
28,Chawston,-0.31,52.191,20
33,Staploe,-0.319,52.231,20
39,Thurleigh,-0.458,52.214,20
28,Bolnhurst,-0.408,52.225,20
28,Upper Dean,-0.467,52.297,20
33,Box End,-0.525,52.129,20
46,Bromham,-0.531,52.148,20
24,Cotton End,-0.416,52.094,20
24,Eisingrug,-4.059,52.891,20
55,Capel Uchaf,-4.339,53.022,20
33,Plas Gwynant,-4.045,53.036,20
24,Llawr-y-Dref,-4.557,52.829,24
39,Cymmer,-3.647,51.652,20
24,Duffryn,-3.68,51.647,20
39,Tonna,-3.773,51.675,20
33,Coedhirwaun,-3.699,51.544,20
28,Ystalyfera,-3.787,51.764,20
28,Pontrhydyfen,-3.744,51.632,20
39,Cwmllynfell,-3.821,51.802,20
79,Tonmawr,-3.735,51.652,20
46,Crynant,-3.747,51.726,20
24,Gwaun-Cae-Gurwen,-3.875,51.783,20
33,Abergwynfi,-3.6,51.654,20
79,Glyncorrwg,-3.626,51.679,20
134,Maesteg,-3.652,51.604,20
79,Porthcawl,-3.695,51.484,20
94,Pyle,-3.688,51.528,20
55,Pencoed,-3.503,51.521,20
46,Bettws,-3.586,51.567,20
28,Nant-y-moel,-3.539,51.626,20
33,Houghton Regis,-0.513,51.906,20
112,Biggleswade,-0.256,52.086,20
66,Flitwick,-0.496,52.004,24
112,Sandy,-0.291,52.134,20
39,Ampthill,-0.497,52.024,20
33,Stotfold,-0.228,52.019,20
55,Toddington,-0.534,51.948,20
39,Potton,-0.21,52.129,20
46,Barton-le-Clay,-0.427,51.968,20
24,Arlesey,-0.261,52.014,20
33,Cranfield,-0.603,52.068,20
24,Blunham,-0.319,52.145,20
33,Thorncote Green,-0.318,52.116,20
39,Upper Stondon,-0.326,52.007,20
55,Clophill,-0.415,52.031,20
28,Totternhoe,-0.568,51.884,20
24,Shefford,-0.33,52.037,20
39,Eyeworth,-0.176,52.093,20
28,Church End,-0.506,51.859,20
24,Astwick,-0.228,52.031,20
28,Harlington,-0.488,51.96,20
28,Old Linslade,-0.677,51.933,20
46,Studham,-0.519,51.832,20
66,Caddington,-0.457,51.864,20
24,Ridgmont,-0.58,52.013,20
55,Pentre Gwynfryn,-4.086,52.823,24
24,Nefyn,-4.522,52.936,20
33,Llan Ffestiniog,-3.932,52.96,20
55,Pant Glas,-4.279,53.004,20
39,Caerdeon,-4.001,52.744,20
46,New Mill End,-0.373,51.849,20
33,Southill,-0.322,52.065,20
39,Southend-on-Sea,0.718,51.543,20
46,South Ockendon,0.288,51.512,20
66,Tilbury,0.361,51.459,20
33,Chadwell St Mary,0.37,51.485,20
55,Purfleet,0.243,51.482,20
28,Aveley,0.252,51.503,20
33,Orsett,0.368,51.512,20
28,Mucking,0.424,51.503,20
28,Low Street,0.401,51.473,20
79,Bulphan,0.361,51.546,20
46,Coryton,0.523,51.512,20
55,Gillingham,0.578,51.347,20
28,Chatham,0.532,51.359,20
55,Rochester,0.486,51.396,20
46,Hoo St Werburgh,0.56,51.423,20
79,Coed Ystumgwern,-4.099,52.794,20
33,Maentwrog,-3.987,52.946,20
55,Holiday Park,-4.332,52.907,20
33,Llangelynin,-4.113,52.641,20
28,Caethle,-4.061,52.574,20
24,Rhoshirwaun,-4.681,52.831,0
230,Blaenau Ffestiniog,-3.937,52.994,46
39,Nant Peris,-4.084,53.105,20
46,Abergynolwyn,-3.955,52.645,20
55,Trefor,-4.425,52.994,24
28,Llanaelhaearn,-4.404,52.977,20
55,Minffordd,-3.869,52.688,20
46,Beddgelert,-4.103,53.014,20
24,Bethel,-4.211,53.168,20
28,Penllech,-4.645,52.881,0
28,Dolgoch,-3.997,52.622,20
28,Tal-y-bont,-4.091,53.213,20
66,Llangybi,-4.34,52.945,20
66,Rhydymain,-3.774,52.784,20
24,Trem-y-Garth,-4.049,52.919,20
33,Llangower,-3.622,52.879,20
94,Llanddewi Ystradenni,-3.308,52.309,20
46,Llanfechan,-3.498,52.143,20
230,Abercynafon,-3.337,51.848,20
24,Domgay,-3.056,52.763,20
28,Llanbedr,-3.249,52.11,20
24,Dolbenmaen,-4.227,52.966,20
39,Pont Pen-y-benglog,-4.019,53.124,20
33,Boduan,-4.494,52.913,20
46,Llanymawddwy,-3.628,52.758,33
94,Cwrt,-3.938,52.584,20
24,Arthog,-4.009,52.711,20
79,Trawsfynydd,-3.917,52.904,20
24,Rhyd-y-clafdy,-4.488,52.886,20
66,Rhyd,-4.029,52.958,20
28,Groeslon,-4.276,53.077,20
66,Penygroes,-4.281,53.056,20
66,Mallwyd,-3.679,52.699,28
55,Llwyngwril,-4.083,52.667,20
33,Llanaber,-4.073,52.743,20
46,Harlech,-4.11,52.845,20
79,Llanberis,-4.126,53.121,20
33,Llanarmon,-4.346,52.928,20
24,Vaynol Hall,-4.191,53.197,20
112,Barmouth,-4.059,52.727,24
55,Crymlyn,-4.041,53.225,20
24,Frongoch,-3.632,52.941,20
46,Pen-sarn,-4.331,52.973,20
28,Cwm-Llinau,-3.704,52.656,24
39,Dolfor,-3.316,52.475,20
24,Norton,-3.021,52.297,20
66,Llangadwaladr,-3.215,52.864,20
1183,Aberystwyth,-4.063,52.41,160
39,Llandinam,-3.432,52.482,20
28,Ponde,-3.3,52.025,20
24,Trefecca,-3.245,51.982,20
33,Aber Village,-3.301,51.885,20
79,Nant-ddu,-3.447,51.826,20
24,Crickadarn,-3.326,52.071,20
66,Pant-y-ffridd,-3.249,52.616,20
66,Cregrina,-3.281,52.164,20
24,Crossgates,-3.333,52.274,20
28,Pentre-bach,-3.587,51.984,28
33,Pipton,-3.215,52.034,20
28,Tafolwern,-3.639,52.61,0
46,Llaneglwys,-3.37,52.038,20
134,Presteigne,-3.003,52.272,20
192,Machynlleth,-3.846,52.591,33
39,Monaughty,-3.115,52.31,20
134,Talerddig,-3.581,52.589,33
33,Llandrinio,-3.059,52.75,20
28,Trefeglwys,-3.518,52.505,20
112,Pont Llogel,-3.432,52.731,39
24,Kerry,-3.257,52.501,20
28,Tai-bach,-3.261,52.849,24
55,Y Fan,-3.546,52.475,20
66,Lower Chapel,-3.413,52.012,20
33,Aberhafesp,-3.372,52.522,20
39,Pentre'r beirdd,-3.197,52.717,20
55,Ystradfellte,-3.552,51.81,20
24,Trefnanney,-3.18,52.73,20
24,Dol-for,-3.749,52.643,20
24,Pontlliw,-4.009,51.685,20
28,Ilston,-4.083,51.594,20
39,Felindre,-3.972,51.704,20
192,Llanddewi,-4.222,51.579,20
33,Penrice,-4.174,51.569,20
79,Llanmadoc,-4.249,51.616,20
476,Cardigan,-4.66,52.085,66
28,Rhydlewis,-4.414,52.097,20
28,New Cross,-4.009,52.373,20
39,Tynygraig,-3.918,52.307,28
112,Dol-y-Bont,-4.026,52.474,20
39,Capel Cynon,-4.365,52.118,39
46,Tremain,-4.578,52.107,20
66,Gartheli,-4.07,52.186,20
28,Castell Howell,-4.275,52.111,28
55,Gilfachreda,-4.329,52.206,33
55,Llwyndafydd,-4.383,52.17,39
46,Penbryn,-4.491,52.141,28
33,Henfynyw,-4.272,52.224,20
112,Caledrhydiau,-4.227,52.156,20
66,Y Ferwig,-4.652,52.116,20
33,Cwmsychbant,-4.226,52.091,24
55,Llanfair Clydogau,-4.009,52.141,20
46,Tregaron,-3.936,52.219,20
28,Bontnewydd,-4.024,52.273,0
24,Betws Bledrws,-4.053,52.148,20
28,Capel Betws Lleucu,-4.037,52.205,20
33,Plas Gogerddan,-4.017,52.432,20
24,Talgarreg,-4.301,52.133,20
24,Glynogwr,-3.506,51.575,20
55,Heol-y-Cyw,-3.522,51.547,20
28,Pontycymer,-3.585,51.612,20
46,Merthyr Mawr,-3.608,51.486,20
24,Mawdlam,-3.722,51.523,20
28,Pilton Green,-4.242,51.562,24
28,Llangennith,-4.271,51.6,20
24,Dunvant,-4.036,51.625,20
24,Oxwich,-4.169,51.558,20
66,Glais,-3.877,51.687,20
46,Upper Killay,-4.037,51.613,20
39,Oldwalls,-4.183,51.605,20
55,Nicholaston,-4.132,51.575,20
39,Pen-clawdd,-4.105,51.642,20
28,Pennard,-4.065,51.581,20
28,Craig-cefn-parc,-3.914,51.706,20
66,Overton,-4.218,51.544,20
24,Penllergaer,-4.007,51.671,20
94,Neath,-3.82,51.631,20
46,Port Talbot,-3.799,51.588,20
94,Pontardawe,-3.846,51.723,20
24,Baglan,-3.807,51.62,20
24,Kempston Hardwick,-0.496,52.087,20
33,Roxton,-0.315,52.177,20
55,Shortstown,-0.433,52.111,20
39,Swineshead,-0.45,52.28,20
24,Bletsoe,-0.504,52.213,20
24,Shelton,-0.485,52.308,20
24,Melchbourne,-0.495,52.275,20
28,Pen-y-fai,-3.591,51.524,20
28,Tythegston,-3.645,51.496,20
39,Pont Rhyd-y-cyff,-3.633,51.588,20
28,Cefn Cribwr,-3.641,51.532,20
160,Barry,-3.259,51.407,20
66,Penarth,-3.184,51.436,20
28,St Lythans,-3.283,51.449,20
66,Rhoose,-3.35,51.39,20
33,Llandow,-3.519,51.449,20
79,Southerndown,-3.61,51.453,20
112,Cowbridge,-3.45,51.461,20
55,St Mary Hill,-3.496,51.497,20
33,Ystradowen,-3.42,51.49,20
24,Penmark,-3.355,51.409,20
28,Flemingston,-3.414,51.42,20
66,Pendoylan,-3.354,51.481,20
46,Bonvilston,-3.346,51.457,20
24,Porthkerry,-3.322,51.392,20
24,Fancott,-0.516,51.938,20
55,Bourne End,-0.596,52.092,20
28,Milton Bryan,-0.587,51.963,20
39,Haynes,-0.394,52.066,20
28,Old Warden,-0.345,52.08,20
46,Ickwell,-0.322,52.096,20
24,Penmaenmawr,-3.921,53.268,20
46,Hafod-Dinbych,-3.653,53.067,24
39,Groes,-3.485,53.174,20
24,Llangwm,-3.538,52.989,20
39,Prestatyn,-3.415,53.328,20
160,Denbigh,-3.413,53.188,28
39,Graianrhyd,-3.168,53.097,20
28,Pentredwr,-3.192,53.011,20
134,Cynwyd,-3.402,52.96,28
28,Nantglyn,-3.488,53.148,20
79,Bryneglwys,-3.272,53.016,20
134,St Asaph,-3.446,53.259,20
55,Peniel,-3.449,53.158,20
28,Cwm,-3.401,53.286,20
55,Carrog,-3.325,52.983,24
28,Maeshafn,-3.192,53.141,20
134,Melin-y-Wig,-3.43,53.027,20
39,Rhuallt,-3.385,53.264,20
39,Rhewl,-3.33,53.135,20
24,Llangynhafal,-3.303,53.162,20
46,Rhuddlan,-3.467,53.293,20
66,Llanrhaeadr,-3.375,53.161,20
55,Nant-y-Patrick,-3.429,53.23,20
24,Bont-newydd,-3.476,53.227,20
39,Clawdd-newydd,-3.368,53.062,20
94,Ynyslas,-4.053,52.516,20
24,Glynarthen,-4.469,52.109,0
112,Pentregat,-4.406,52.139,39
55,Cribyn,-4.162,52.136,20
24,Bryngwyn,-4.486,52.079,24
24,Sarnau,-4.468,52.131,20
24,Cold Ash,-1.26,51.415,20
24,Frilsham,-1.215,51.454,20
28,Hamstead Marshall,-1.408,51.388,20
28,Greenham,-1.306,51.384,20
33,Leckhampstead,-1.37,51.484,20
66,Inkpen,-1.464,51.375,20
46,Stockcross,-1.377,51.413,20
33,Tidmarsh,-1.087,51.467,20
39,Upper Woolhampton,-1.171,51.405,20
39,Ashampstead,-1.186,51.488,20
24,Woodlands St Mary,-1.514,51.47,20
39,Eastbury,-1.5,51.491,20
33,World's End,-1.299,51.486,20
112,Chieveley,-1.314,51.462,20
685,Reading,-0.968,51.451,112
276,Slough,-0.597,51.515,39
79,Maidenhead,-0.729,51.524,20
66,Windsor,-0.627,51.478,20
79,Old Windsor,-0.581,51.452,20
39,Bray,-0.697,51.508,20
39,Fifield,-0.693,51.481,20
66,Flint,-3.133,53.246,20
33,Hawarden,-3.038,53.189,20
230,Holywell,-3.218,53.276,20
55,Mold,-3.142,53.166,20
66,Broughton,-2.988,53.164,20
39,Babell,-3.264,53.255,20
33,Llangovan,-2.784,51.747,20
39,Mathern,-2.687,51.617,20
46,Llanvair-Discoed,-2.796,51.627,20
24,Govilon,-3.063,51.816,20
79,Llangwm,-2.829,51.695,20
33,Croes y pant,-2.996,51.732,20
28,Greenmeadow,-2.959,51.705,20
112,Tregare,-2.845,51.788,20
46,Mitchel Troy,-2.734,51.789,20
28,Llandogo,-2.688,51.734,20
24,Pencroesoped,-2.996,51.759,20
79,Twyn-y-Sheriff,-2.857,51.745,20
28,Llanfoist,-3.03,51.812,20
39,Raglan,-2.849,51.765,20
28,Llanllowell,-2.878,51.683,20
28,Llandegveth,-2.956,51.656,20
24,Riseley,-0.959,51.364,20
24,Finchampstead,-0.855,51.363,20
24,Swallowfield,-0.962,51.377,20
33,Milton Keynes,-0.767,52.017,20
94,Newport Pagnell,-0.724,52.081,20
192,Olney,-0.704,52.158,20
24,Cosheston,-4.887,51.695,20
46,Cheriton,-4.906,51.638,20
79,Llantood,-4.691,52.044,20
33,Druidston,-5.092,51.807,20
33,Llandeloy,-5.113,51.897,24
192,Merrion,-4.976,51.632,20
28,Tegryn,-4.578,51.967,28
28,Maenclochog,-4.79,51.912,20
28,Whitchurch,-5.199,51.884,28
66,Llanteg,-4.637,51.76,20
28,Nevern,-4.795,52.024,24
55,Letterston,-4.995,51.926,20
46,Llanwnda,-5.012,52.011,20
112,Hayscastle,-5.06,51.888,24
39,Felindre Farchog,-4.77,52.014,20
28,Maiden Wells,-4.932,51.659,20
39,Tresinwen,-5.061,52.024,20
33,Marloes,-5.197,51.73,20
28,Wallis,-4.89,51.893,20
46,Jordanston,-5.031,51.951,20
46,Crymych,-4.646,51.972,20
39,Lambston,-5.038,51.809,20
46,Hasguard,-5.109,51.742,20
39,Capel Dewi,-4.258,52.058,28
46,Maes llyn,-4.383,52.075,39
33,Cellan,-4.032,52.119,20
397,Lampeter,-4.081,52.115,39
39,Llanrhystud,-4.141,52.306,20
134,Pont Llanio,-3.971,52.194,20
66,Blaenpennal,-4.007,52.259,33
39,Temple Bar,-4.139,52.166,20
79,Ffair-Rhos,-3.848,52.296,33
33,Trefilan,-4.121,52.193,20
24,Llanafan,-3.927,52.333,20
24,Ystradmeurig,-3.898,52.291,0
28,Rhodmad,-4.066,52.349,20
24,Llangeitho,-4.019,52.218,20
39,Ysbyty Cynfyn,-3.835,52.394,33
79,Risca,-3.093,51.607,20
46,Bargoed,-3.233,51.688,20
33,Pontllanfraith,-3.182,51.655,20
24,Bedwas,-3.193,51.595,20
46,Rhymney,-3.276,51.758,20
33,Abertridwr,-3.269,51.594,20
94,Talacre,-3.318,53.352,20
28,New Brighton,-3.116,53.18,20
79,Ysceifiog,-3.271,53.234,20
28,Brynford,-3.228,53.26,20
24,Llanasa,-3.342,53.323,20
66,Trelawnyd,-3.366,53.309,20
24,Sealand,-2.968,53.213,20
24,Flint Mountain,-3.137,53.226,20
28,Ffrith,-3.067,53.091,20
24,Nannerch,-3.248,53.217,20
66,Pen-y-cefn,-3.331,53.266,20
66,Rhosesmor,-3.176,53.211,20
33,Rhes-y-cae,-3.213,53.231,20
55,Cilcain,-3.231,53.179,20
28,Llanfynydd,-3.075,53.104,20
24,Rhydtalog,-3.142,53.089,20
33,Penyffordd,-3.041,53.148,20
39,Nercwys,-3.146,53.137,20
24,Llong,-3.102,53.155,20
28,Sandycroft,-2.996,53.197,20
46,Spittal,-4.941,51.867,20
46,Manorbier,-4.793,51.647,20
39,Tavernspite,-4.64,51.782,20
24,Bow Brickhill,-0.681,52.002,20
28,Calverton,-0.849,52.043,20
24,North Crawley,-0.648,52.093,20
39,Gayhurst,-0.761,52.111,20
55,Hardmead,-0.634,52.118,20
33,Chicheley,-0.682,52.105,20
33,Warrington,-0.689,52.177,20
33,Ravenstone,-0.758,52.148,20
33,Moulsoe,-0.676,52.069,20
39,Newton Blossomville,-0.652,52.154,20
28,Little Linford,-0.769,52.091,20
94,Hanslope,-0.828,52.115,20
24,Little Brickhill,-0.678,51.982,20
28,Portslade-by-Sea,-0.222,50.847,20
66,Woodingdean,-0.075,50.837,20
39,Craignant,-3.113,52.907,20
46,Horseman's Green,-2.822,52.965,20
39,Plas Nantyr,-3.26,52.926,20
46,Bronington,-2.765,52.95,20
112,Yafford,-1.365,50.634,20
24,Alverstone,-1.184,50.665,20
24,Calbourne,-1.398,50.678,20
24,Newbridge,-3.143,51.671,20
28,Thornhill,-3.212,51.553,20
39,Machen,-3.139,51.599,20
28,Deri,-3.263,51.708,20
33,Rudry,-3.158,51.575,20
28,Ystrad Mynach,-3.238,51.639,20
55,New Tredegar,-3.239,51.721,20
28,Manmoel,-3.182,51.722,20
28,Argoed,-3.193,51.692,20
33,Draethen,-3.124,51.58,20
39,Fochriw,-3.295,51.736,20
24,Llanbradach,-3.228,51.61,20
33,Wattsville,-3.147,51.616,20
24,Markham,-3.206,51.702,20
39,Llechrhyd,-3.292,51.777,20
46,Llanfabon,-3.288,51.634,20
24,Pontywaun,-3.126,51.629,20
28,Abertysswg,-3.26,51.743,20
46,Kintbury,-1.449,51.398,20
24,Halfway,-1.415,51.413,20
28,South Fawley,-1.437,51.518,20
46,Great Shefford,-1.448,51.473,20
33,Cold Blow,-4.723,51.781,20
24,Manorowen,-5.013,51.985,20
55,Newgale,-5.124,51.858,20
33,Saundersfoot,-4.704,51.706,20
28,Nolton Haven,-5.105,51.825,20
24,Robeston Wathen,-4.775,51.807,20
79,Narberth,-4.743,51.8,20
46,Manorbier Newton,-4.828,51.664,20
33,Pontfaen,-4.874,51.969,20
55,Angle,-5.092,51.683,20
46,Carew Cheriton,-4.827,51.69,20
28,Penally,-4.728,51.659,20
24,Jeffreyston,-4.768,51.724,20
24,Bethesda,-4.77,51.827,20
24,Pen-y-bryn,-4.659,52.053,20
24,Rosebush,-4.804,51.929,20
28,Lamphey,-4.872,51.666,20
24,Lower Freystrop,-4.961,51.773,20
46,Trecwn,-4.953,51.954,20
55,Undy,-2.82,51.583,20
28,Llanvihangel-Ystern-Llewern,-2.822,51.821,20
24,Llanhennock,-2.935,51.629,20
39,Itton Common,-2.742,51.662,20
66,Llantilio Crossenny,-2.875,51.828,20
28,Pen-twyn,-2.693,51.779,20
33,Rhostyllen,-3.02,53.029,20
55,Bettisfield,-2.8,52.912,20
28,Worthenbury,-2.863,53.01,20
33,Borras Head,-2.95,53.074,20
24,Froncysyllte,-3.086,52.963,20
28,Bwlchgwyn,-3.098,53.074,20
24,Talwrn,-3.05,53.026,20
28,Knolton,-2.923,52.943,20
28,Bowling Bank,-2.897,53.031,20
33,Marchwiel,-2.959,53.024,20
33,Higher Wych,-2.747,52.986,20
66,Erbistock,-2.964,52.972,20
33,Penley,-2.868,52.949,20
55,Tallarn Green,-2.827,52.992,20
112,Rossett,-2.941,53.11,20
24,Llechrydau,-3.152,52.899,20
33,Llan-y-pwll,-2.927,53.061,20
33,Lightwood Green,-2.916,52.961,20
55,Reynalton,-4.766,51.742,20
33,Newchapel,-4.584,52.024,20
33,Stepaside,-4.698,51.738,20
66,Tretio,-5.223,51.913,33
39,Downend,-1.246,50.687,20
28,Bowcombe,-1.336,50.679,20
24,Blackwater,-1.282,50.674,20
46,Whippingham,-1.271,50.74,20
24,Brighstone,-1.399,50.641,20
24,St Helens,-1.111,50.697,20
46,Wroxall,-1.223,50.616,20
276,Holyhead,-4.633,53.308,66
94,Llangefni,-4.31,53.255,24
28,Llandegfan,-4.144,53.241,20
79,Rhosneigr,-4.519,53.231,20
66,Penmon,-4.057,53.307,20
66,Llanbabo,-4.44,53.356,20
94,Llanafan-fawr,-3.508,52.187,20
33,Staylittle,-3.641,52.518,20
79,Pentre,-3.373,52.465,20
28,Garth,-3.529,52.134,20
39,Castle Caereinion,-3.236,52.64,20
66,Pentre Dolau Honddu,-3.467,52.083,20
55,Llansilin,-3.172,52.844,20
28,Kinnerton,-3.107,52.261,20
46,Geufron,-3.646,52.457,20
55,Beech Hill,-1,51.371,20
33,Southend,-1.143,51.431,20
28,Avington,-1.466,51.411,20
39,Wasing,-1.173,51.374,20
33,Boxford,-1.385,51.441,20
55,Brightwalton,-1.384,51.509,20
66,Welford,-1.412,51.454,20
28,Chaddleworth,-1.406,51.494,20
66,Bucklebury,-1.204,51.433,20
28,West Ilsley,-1.318,51.539,20
55,Combe,-1.468,51.345,20
28,Goldfinch Bottom,-1.28,51.373,20
24,Fawley,-1.435,51.529,20
24,Sheffield Bottom,-1.066,51.424,20
39,Longlane,-1.282,51.444,20
24,Winterbourne,-1.345,51.447,20
24,Beedon,-1.3,51.498,20
28,Upper Lambourn,-1.544,51.52,20
33,Ffordd-las,-3.314,53.173,20
33,Hirwaen,-3.289,53.142,20
55,Llangollen,-3.166,52.969,20
33,Dyserth,-3.412,53.299,20
28,Clawdd Poncen,-3.378,52.991,28
28,Glascoed,-3.507,53.255,20
33,Bettws Gwerfil Goch,-3.442,53.01,24
24,Prion,-3.414,53.151,20
33,Newcastle,-2.801,51.853,20
33,Trellech,-2.721,51.745,20
28,Llangattock-Vibon-Avel,-2.787,51.838,20
28,Kemeys Commander,-2.944,51.738,20
33,Dingestow,-2.786,51.789,20
24,Llansoy,-2.805,51.719,20
24,Grosmont,-2.867,51.916,0
33,Llanishen,-2.758,51.726,20
24,Llanddewi Rhydderch,-2.94,51.81,20
33,Llandenny,-2.848,51.731,20
46,Gilwern,-3.091,51.828,20
33,Newbridge on Usk,-2.888,51.648,20
24,Monkswood,-2.947,51.718,20
33,Coed-y-paen,-2.962,51.681,20
66,Hoaldalbert,-2.874,51.904,24
33,Nant-y-derry,-2.971,51.75,20
39,Hurley,-0.81,51.545,20
24,Horton,-0.542,51.474,20
66,White Waltham,-0.775,51.486,20
28,Eton Wick,-0.635,51.498,20
46,Cookham Rise,-0.726,51.555,20
39,Shurlock Row,-0.806,51.464,20
24,Cheapside,-0.645,51.417,20
24,Burchett's Green,-0.792,51.524,20
24,Hythe End,-0.538,51.444,20
112,Talbenny,-5.131,51.763,20
24,Welsh Hook,-5.003,51.909,20
112,Dale,-5.172,51.705,20
46,Tangiers,-4.962,51.823,20
46,Wiston,-4.871,51.824,20
33,Leweston,-4.993,51.863,20
28,Rosemarket,-4.965,51.737,20
24,Goodwick,-4.997,52.002,20
79,Minwear,-4.844,51.78,20
39,Bosherston,-4.939,51.613,20
24,Wolfsdale,-5.004,51.851,20
39,Llanychaer,-4.933,51.978,20
24,Boncath,-4.615,52.014,20
66,Treffynnon,-5.128,51.914,24
55,Mathry,-5.086,51.944,20
24,Haroldston West,-5.096,51.795,20
33,Whitehill,-4.818,51.707,20
94,Usk,-2.902,51.702,20
66,Cross Ash,-2.862,51.873,20
112,Forest Coal Pit,-3.035,51.88,20
24,Bettws,-3.019,51.869,20
33,Llanellen,-3.013,51.793,20
39,Gaer-fawr,-2.808,51.679,20
39,Llangattock Nigh Usk,-2.97,51.782,20
160,Rhayader,-3.509,52.302,20
66,Crewgreen,-3.002,52.733,20
24,Manafon,-3.31,52.613,24
39,Pant-y-Dwr,-3.493,52.364,20
33,Rhos-y-meirch,-3.058,52.318,20
39,Glangrwyney,-3.108,51.844,20
33,Llwynderw,-3.167,52.625,20
28,Bryngwyn,-3.186,52.139,20
24,Brooks,-3.265,52.584,20
33,Llandeilo Graban,-3.322,52.094,20
46,Felindre,-3.223,52.421,24
46,Crug,-3.186,52.343,20
28,Cefn Coch,-3.324,52.828,28
33,Tredomen,-3.279,51.975,20
46,Llanbedr,-3.104,51.876,20
94,Pandy-rhiw-Saeson,-3.619,52.627,33
66,Dolanog,-3.382,52.705,33
24,Newchurch,-3.145,52.149,20
55,Cemmaes,-3.714,52.641,20
46,Llanfihangel Rhydithon,-3.245,52.292,24
33,Glascwm,-3.229,52.171,20
46,Tai'r Bull,-3.464,51.923,20
28,Ynyswen,-3.69,51.804,20
24,Sennybridge,-3.567,51.948,20
46,Mynachlog-ddu,-4.7,51.937,33
192,Carmarthen,-4.313,51.859,39
39,Ammanford,-3.98,51.791,20
28,Clocaenog,-3.367,53.076,20
33,Rhewl,-3.218,52.995,20
24,Graig,-3.371,53.238,20
33,Bodfari,-3.356,53.221,20
46,Glyndyfrdwy,-3.265,52.974,20
28,Berwyn,-3.194,52.981,20
33,Eryrys,-3.189,53.114,20
46,Llanfair Dyffryn Clwyd,-3.292,53.088,20
39,Rhyd-y-meudwy,-3.298,53.05,20
39,Bontuchel,-3.367,53.111,20
46,Saron,-3.449,53.135,20
24,Llangwyfan,-3.312,53.186,20
28,Bryn Saith Marchog,-3.376,53.04,20
28,Nilig,-3.454,53.084,24
24,Llanbedr-Dyffryn-Clwyd,-3.275,53.127,20
66,Llandegla,-3.197,53.059,20
79,Llandrillo,-3.437,52.921,20
39,Henllan,-3.46,53.203,20
33,Bodelwyddan,-3.504,53.269,20
79,Buckley,-3.078,53.169,20
66,Rhydroser,-4.107,52.288,28
55,Bont-goch,-3.938,52.459,20
112,Milford Haven,-5.035,51.719,20
571,Haverfordwest,-4.98,51.798,112
79,Pembroke Dock,-4.941,51.689,20
33,Pembroke,-4.914,51.676,20
24,Herbrandston,-5.087,51.724,20
33,Gelli,-4.786,51.84,20
39,Datchet,-0.576,51.481,20
28,Bisham,-0.777,51.557,20
24,Paley Street,-0.741,51.477,20
55,Wokingham,-0.839,51.408,20
66,Crowthorne,-0.798,51.374,20
46,Winnersh,-0.88,51.43,20
33,Sonning,-0.91,51.473,20
28,Barkham,-0.875,51.391,20
39,Hurst,-0.855,51.452,20
24,Arborfield,-0.917,51.4,20
46,Wargrave,-0.863,51.5,20
24,Farley Hill,-0.917,51.373,20
24,Spencers Wood,-0.963,51.394,20
33,Cockpole Green,-0.852,51.518,20
24,Greenfield,-3.207,53.288,20
55,Downing,-3.269,53.298,20
28,Bagillt,-3.171,53.267,20
39,Ffynnongroyw,-3.3,53.329,20
33,Gorsedd,-3.269,53.28,20
24,Soughton,-3.132,53.19,20
24,Clydach,-3.123,51.812,20
33,Llanvetherine,-2.922,51.849,20
24,Llantillio Pertholey,-3,51.841,20
66,Newmills,-2.703,51.764,20
79,Earlswood,-2.805,51.656,20
28,Pen-clawdd,-2.793,51.767,20
112,Llanthony,-3.033,51.944,28
24,Llangua,-2.878,51.927,24
28,Penrhos,-2.846,51.802,20
24,Llangattock Lingoed,-2.927,51.876,20
39,Llantrisant,-2.879,51.668,20
39,Gwernesney,-2.843,51.712,20
28,Highmoor Hill,-2.778,51.602,20
160,Newport,-2.99,51.571,33
39,Caerleon,-2.959,51.614,20
33,Rogerstone,-3.064,51.595,20
33,Broadstreet Common,-2.927,51.56,20
28,Parc-Seymour,-2.855,51.621,20
46,Underwood,-2.885,51.597,20
46,Whitson,-2.892,51.546,20
39,Rottingdean,-0.057,50.807,20
24,Ovingdean,-0.072,50.817,20
55,Portsmouth,-1.07,50.808,20
112,Newport,-1.299,50.697,20
94,Ventnor,-1.224,50.591,20
24,Glyn-teg,-4.387,52.014,0
33,Nantycaws,-4.238,51.841,20
28,Talog,-4.427,51.902,20
28,Whitland,-4.608,51.818,20
28,Dre-fach,-3.957,51.828,20
28,Llanfallteg,-4.677,51.846,20
79,Llandyfaelog,-4.298,51.78,20
112,Cwrt-y-cadno,-3.91,52.079,24
94,Llandawke,-4.486,51.772,20
79,Llandeilo,-3.996,51.881,20
112,St Clears,-4.501,51.818,28
39,Felingwmuchaf,-4.167,51.901,24
39,Llanwrda,-3.875,51.966,20
28,Llanarthne,-4.131,51.86,20
39,Brechfa,-4.145,51.951,20
33,Edwinsford,-3.993,51.994,28
39,Michaelston-y-Fedw,-3.093,51.554,20
24,Nash,-2.946,51.549,20
28,Marshfield,-3.066,51.532,20
66,St Brides Wentlooge,-3.018,51.535,20
33,Redwick,-2.846,51.553,20
28,Bishton,-2.879,51.584,20
39,Lampeter Velfrey,-4.676,51.796,20
55,Moylgrove,-4.748,52.067,20
39,St Brides,-5.192,51.748,20
24,Scolton,-4.92,51.859,20
33,Llanycefn,-4.763,51.876,20
39,Trevine,-5.146,51.949,24
39,Neyland,-4.95,51.711,20
46,New Moat,-4.816,51.893,24
46,Llangwm,-4.916,51.749,20
28,Wolf's Castle,-4.973,51.901,24
33,Hook,-4.93,51.763,20
55,Lawrenny,-4.871,51.725,20
24,Houghton,-4.92,51.724,20
24,Redberth,-4.778,51.702,20
66,Johnston,-4.996,51.757,20
33,Roch,-5.084,51.847,20
55,Llawhaden,-4.805,51.817,20
24,St Nicholas,-5.059,51.979,20
24,Llanddewi Velfrey,-4.687,51.82,20
79,Parrog,-4.849,52.019,20
39,Panteg,-5.023,51.972,20
24,Tredegar,-3.247,51.778,20
24,Brynmawr,-3.176,51.8,20
134,Abertilleryi,-3.137,51.736,20
24,Nantyglo,-3.17,51.784,20
55,Blaina,-3.157,51.763,20
33,Cwm,-3.179,51.74,20
46,Llanhilleth,-3.13,51.701,20
55,Trefil,-3.276,51.806,20
24,Hendre,-3.205,53.201,20
28,Caerwys,-3.305,53.248,20
28,Northop,-3.127,53.21,20
28,Gronant,-3.357,53.339,20
24,Trelogan,-3.323,53.31,20
55,Pontybodkin,-3.088,53.125,20
160,Wrexham,-2.984,53.053,33
79,Rhosllannerchrugog,-3.048,53.01,20
66,Cefn-mawr,-3.075,52.976,20
28,Brymbo,-3.054,53.077,20
33,Gresford,-2.964,53.089,20
28,Coedpoeth,-3.068,53.054,20
28,Llay,-2.998,53.096,20
33,Crosswell,-4.733,51.994,20
33,Ludchurch,-4.694,51.763,20
39,Martletwy,-4.847,51.76,20
24,Treglemais,-5.173,51.915,0
28,Dinas Cross,-4.904,52.01,20
46,Chillerton,-1.31,50.653,20
39,Shalcombe,-1.439,50.671,20
46,Porchfield,-1.364,50.716,20
28,Wootton Bridge,-1.231,50.726,20
33,Little Atherfield,-1.348,50.619,20
46,Hamstead,-1.434,50.721,20
28,Branstone,-1.214,50.65,20
33,Luccombe Village,-1.177,50.615,20
39,Bierley,-1.279,50.6,20
33,Shalfleet,-1.416,50.699,20
24,Yarbridge,-1.144,50.674,20
33,Arreton,-1.235,50.672,20
46,Seaview,-1.112,50.717,20
94,Bembridge,-1.081,50.688,20
24,Newbridge,-1.418,50.688,20
46,Mottistone,-1.428,50.651,20
28,Hanmer,-2.811,52.952,20
39,Crabtree Green,-2.988,52.997,20
39,Llanarmon Dyffryn Ceiriog,-3.253,52.886,20
134,Pandy,-3.196,52.914,20
28,Isycoed,-2.891,53.047,20
39,Llwynmawr,-3.155,52.924,20
33,Pentre,-3.285,52.906,20
160,Ystradgynlais,-3.748,51.784,24
28,Peterstone Wentlooge,-3.055,51.516,20
24,Castleton,-3.078,51.543,20
33,Cat's Ash,-2.907,51.611,20
24,Rhiwderin,-3.066,51.582,20
39,Creigiau,-3.323,51.524,20
33,Capel Llanilltern,-3.303,51.512,20
66,Newton,-3.097,51.504,20
24,Tongwynlais,-3.245,51.534,20
33,Brynsiencyn,-4.274,53.181,20
79,Newborough,-4.358,53.168,20
46,Capel Coch,-4.313,53.317,20
39,Aberffraw,-4.466,53.193,24
33,Maenaddwyn,-4.315,53.333,20
28,Backhill,-2.353,57.448,24
79,Affleck,-2.229,57.302,20
112,Culdrain,-2.801,57.392,20
39,Greystone,-2.935,57.053,20
28,Glenkindie,-2.936,57.212,0
24,Lumsden,-2.874,57.284,20
46,Whiteford,-2.469,57.325,20
24,Slacks of Cairnbanno,-2.25,57.508,24
66,Balmedie,-2.056,57.25,20
39,Whinnyfold,-1.868,57.389,24
28,Hillhead,-2.706,57.408,20
33,Redhill,-2.37,57.13,20
112,Weachyburn,-2.617,57.599,20
33,Easter Whyntie,-2.632,57.675,20
33,Keilhill,-2.482,57.626,20
66,Bonnyton,-2.539,57.367,20
28,Dykeside,-2.462,57.482,20
33,Inverallochy,-1.932,57.674,20
66,Longhaven,-1.832,57.445,20
134,Balgaveny,-2.568,57.457,20
66,Edzell Woods,-2.621,56.816,20
46,Gordonstown,-2.732,57.594,20
24,Achath,-2.445,57.189,20
46,Kirkton,-2.597,57.316,20
33,Skelmonae,-2.192,57.442,20
94,Mondynes,-2.362,56.903,20
46,Littlemill,-3.116,57.048,46
24,Tannachie,-2.354,56.945,20
24,Denend,-2.664,57.431,20
66,Toll of Birness,-1.994,57.403,20
55,Mains of Dellavaird,-2.425,56.926,20
134,Newburgh,-2.057,57.621,20
24,Little Lynturk,-2.7,57.202,20
79,Mains of Balnakettle,-2.616,56.862,20
46,Gateside,-2.633,57.234,20
33,Allanaquoich,-3.45,57.004,0
79,Old Kinnernie,-2.459,57.175,20
39,Dykelands,-2.487,56.811,20
24,Blackhall,-2.544,57.053,20
39,Dounepark,-2.478,57.651,20
79,Mains of Kirktonhill,-2.497,56.785,20
28,Mains of Laithers,-2.541,57.532,20
230,Laurencekirk,-2.467,56.833,28
160,Belnacraig,-3.034,57.235,46
66,Marywell,-2.691,57.049,20
66,Ironside,-2.199,57.559,24
33,Craigearn,-2.464,57.217,20
28,Maud,-2.134,57.52,20
79,Nethermuir,-2.147,57.485,20
39,Birkenhills,-2.424,57.498,20
39,Little Dens,-1.882,57.487,20
46,Crossroads,-2.411,57.038,20
28,Balthangie,-2.277,57.554,24
46,Muirskie,-2.287,57.053,20
28,Abergeldie,-3.172,57.04,0
39,Milltown of Towie,-2.896,57.202,28
24,Nether Crimond,-2.294,57.292,20
79,Inverbervie,-2.281,56.844,24
46,Rosehearty,-2.116,57.697,20
55,Folla Rule,-2.449,57.387,20
28,Tarland,-2.857,57.127,20
33,Newtonhill,-2.153,57.035,20
28,Arthrath,-2.058,57.419,20
24,Easterton of Auchleuchries,-1.975,57.417,20
55,Lunderton,-1.827,57.538,20
24,Jackstown,-2.413,57.373,20
39,Muiryfold,-2.393,57.551,20
46,Milton of Campfield,-2.583,57.095,20
33,Sauchen,-2.499,57.188,20
28,Port Elphinstone,-2.373,57.271,20
24,Muirtack,-2.012,57.428,20
33,Old Crombie,-2.678,57.547,20
46,Myrebird,-2.427,57.08,20
33,Fettercairn,-2.578,56.85,20
33,Tullynessle,-2.735,57.265,20
134,Bush Crathie,-3.23,57.053,55
79,Howe of Teuchar,-2.346,57.511,20
66,Cobairdy,-2.709,57.481,20
33,Dumeath,-2.959,57.422,24
39,Durno,-2.477,57.344,20
79,The Birks,-2.426,57.112,20
28,Woodlands,-2.349,57.054,20
66,Percie,-2.67,57.017,20
112,Ardallie,-1.987,57.442,20
55,Blackdog,-2.071,57.218,20
24,Denhead,-1.998,57.562,20
33,Wester Ord,-2.296,57.134,20
160,Aucholzie,-3.083,57.001,39
46,Flushing,-1.911,57.512,20
39,Meikle Wartle,-2.466,57.368,20
33,Drumligair,-2.164,57.237,20
66,Comers,-2.543,57.156,20
94,Muckletown,-2.711,57.285,20
46,Clatt,-2.766,57.321,20
24,Coilacriech,-3.116,57.059,0
79,Burnend,-2.27,57.459,24
46,Invergelder,-3.249,57.03,0
66,Memsie,-2.051,57.652,20
28,The Haughs,-2.822,57.53,20
33,Cairnbrogie,-2.25,57.332,20
33,Grantlodge,-2.493,57.246,20
79,Petty,-2.396,57.417,20
39,Fedderate,-2.179,57.542,20
33,Fiddes,-2.31,56.922,20
28,Muirden,-2.495,57.569,20
28,Daviot,-2.418,57.343,20
79,Mergie,-2.336,56.989,20
28,Drumlassie,-2.594,57.14,24
94,Heugh-head,-3.024,57.19,33
39,Causeyend,-2.091,57.268,20
39,Scotston,-2.437,56.855,20
112,Mintlaw,-2.003,57.523,24
24,Cottown,-2.819,57.327,24
66,King Edward,-2.479,57.61,20
28,Potarch,-2.648,57.062,20
39,East Auchronie,-2.303,57.178,20
160,Insch,-2.616,57.342,28
24,Milton of Coldwells,-2.074,57.44,20
24,Delfrigs,-2.053,57.28,20
28,Ardoyne,-2.574,57.336,20
28,Bainshole,-2.653,57.404,20
28,Arbuthnott,-2.332,56.871,20
33,Drumblair,-2.619,57.478,24
28,Clunie,-2.612,57.54,20
46,Steinmanhill,-2.39,57.468,20
230,Huntly,-2.787,57.447,46
33,Lochside,-2.431,56.774,20
28,Cornhill,-2.697,57.612,20
66,Rora,-1.901,57.547,20
28,Bonnykelly,-2.231,57.571,28
33,Lauchintilly,-2.421,57.204,20
28,Inch of Arnhall,-2.618,56.83,20
33,Cairnpark,-2.27,57.255,20
112,Glas-allt-Shiel,-3.19,56.929,55
66,Clova,-2.906,57.29,24
79,Kintore,-2.346,57.234,20
46,Glencat,-2.76,57.027,20
55,New Aberdour,-2.193,57.659,24
39,Fortrie,-2.066,57.457,20
24,Tomintoul,-3.403,56.998,0
28,Kennethmont,-2.768,57.348,20
24,Broomfield,-2.073,57.38,20
55,East Davoch,-2.883,57.154,20
33,Bracklamore,-2.26,57.612,28
28,Hirn,-2.444,57.092,20
28,Sauchieburn,-2.551,56.819,20
46,Tewel,-2.285,56.96,20
24,Percyhorner,-2.068,57.678,20
33,Ruthven,-2.825,57.508,20
55,Clatterin' Brig,-2.554,56.894,20
55,Glenton,-2.591,57.27,20
55,Strachan,-2.539,57.021,20
39,Hardgate,-2.347,57.105,20
55,Auchlossan,-2.71,57.107,20
66,Succoth,-2.956,57.406,24
33,Kinneff,-2.238,56.867,20
33,Lochton,-2.405,57.022,20
66,Kemnay,-2.445,57.235,20
39,Rothmaise,-2.532,57.386,20
24,Crimond,-1.915,57.601,20
24,Gordonstown,-2.478,57.436,24
46,Inveramsay,-2.431,57.306,20
33,Keyhead,-1.882,57.593,20
55,Pennan,-2.26,57.678,28
24,Skelmuir,-2.035,57.475,20
39,Montgarrie,-2.703,57.25,20
24,Auchiries,-1.866,57.431,20
28,Gartly,-2.796,57.378,20
33,Migvie,-2.931,57.147,20
33,Aquhythie,-2.423,57.257,20
39,Bogton,-2.541,57.553,20
2042,Aberdeen,-2.123,57.16,276
79,Cults,-2.188,57.118,20
46,Bucksburn,-2.171,57.179,20
39,Peterculter,-2.265,57.099,20
66,Cove Bay,-2.087,57.102,20
112,Aberdeen Airport,-2.215,57.205,20
39,Kingswells,-2.218,57.152,20
46,Greenspot,-2.333,57.373,20
55,Drumwhindle,-2.124,57.418,20
39,Slioch,-2.731,57.434,20
33,Tillathrowie,-2.882,57.403,20
66,Fiddler's Green,-1.935,57.627,20
79,Wedderlairs,-2.245,57.386,20
28,Birse,-2.729,57.061,20
66,Adziel,-2.089,57.569,20
39,Tillyfour,-2.671,57.182,20
28,Drumblade,-2.691,57.45,20
24,Culsh,-2.191,57.529,24
24,Carnie,-2.323,57.142,20
55,Benholm,-2.321,56.815,20
33,Spittal of Glenmuick,-3.137,56.951,0
24,Drums,-2.027,57.295,20
39,Crathes,-2.411,57.059,20
39,Drymuir,-2.151,57.505,20
28,Boghead,-2.629,57.022,20
39,Hillockhead,-3.018,57.171,28
134,Netherbrae,-2.344,57.624,20
33,New Pitsligo,-2.198,57.593,20
33,Fordyce,-2.745,57.662,20
46,Bailiesward,-2.884,57.422,20
24,Banchory-Devenick,-2.155,57.111,20
24,East Cairnbeg,-2.476,56.881,20
39,Badentoy Park,-2.155,57.07,20
24,Backfolds,-1.96,57.564,20
46,Kirkton of Maryculter,-2.236,57.083,20
28,Cairnborrow,-2.9,57.453,20
24,Inverquhomery,-1.967,57.508,20
28,Douneside,-2.857,57.141,20
33,Darra,-2.43,57.514,20
28,Kincardine O' Neil,-2.672,57.086,20
28,Thomastown,-2.708,57.421,20
39,Hatton of Fintray,-2.268,57.239,20
46,Ordhead,-2.549,57.187,20
33,Rothiebrisbane,-2.425,57.43,24
28,Glenbervie,-2.383,56.916,20
24,Oldtown,-2.699,57.35,20
39,Garmond,-2.324,57.557,20
24,Boultenstone,-2.974,57.185,0
24,Udny Green,-2.198,57.327,20
39,Rorandle,-2.572,57.253,20
46,Easter Culfosie,-2.427,57.154,20
66,Auchininna,-2.59,57.511,20
46,Old Rattray,-1.854,57.611,20
55,Fetterangus,-2.022,57.548,20
28,Rothienorman,-2.467,57.412,20
46,Mossat,-2.872,57.26,20
39,Ythanbank,-2.156,57.396,20
33,Fordoun,-2.415,56.875,20
46,Udny Station,-2.154,57.309,20
33,Auquhorthies,-2.279,57.355,20
24,Shanquhar,-2.764,57.408,20
46,Kinknockie,-1.991,57.465,20
46,Mains of Crichie,-2.044,57.496,20
24,Torterston,-1.874,57.52,20
55,Ladysford,-2.161,57.636,20
39,Bridge of Canny,-2.569,57.065,20
24,Gourdon,-2.285,56.829,20
33,Muir,-3.538,56.988,0
39,Chapel Hill,-1.887,57.412,20
24,Glasslaw,-2.236,57.625,0
28,Keig,-2.649,57.26,20
33,Greenlaw,-2.538,57.612,20
28,Torphins,-2.625,57.105,20
55,Ordie,-2.904,57.103,20
66,Auchallater,-3.387,56.978,55
39,Tulloch,-2.38,56.836,20
28,Aulton,-2.662,57.349,20
33,Rathen,-2,57.637,20
39,Bridgend,-2.809,57.41,20
33,Annochie,-2.103,57.473,20
46,Auchterderran,-3.259,56.142,20
24,Saline,-3.573,56.114,20
33,Charlestown,-3.498,56.037,20
24,Drumeldrie,-2.9,56.218,20
134,Glasgow,-4.232,55.801,20
986,Inverness,-4.231,57.464,276
1419,Fort William,-5.103,56.819,134
24,Achreamie,-3.697,58.577,20
28,Allt nan Sugh,-5.487,57.311,0
134,Nedd,-5.175,58.236,112
134,Invershin,-4.409,57.938,20
28,Uiginish,-6.597,57.442,0
33,Fisherton,-4.093,57.535,20
112,Coldbackie,-4.38,58.504,112
33,Camascross,-5.806,57.136,0
33,Strathcarron,-5.429,57.423,0
476,Claonel,-4.438,58.008,33
46,Balblair,-4.172,57.673,20
331,Polloch,-5.611,56.757,66
24,North Watten,-3.312,58.511,24
276,Tofts,-3.087,58.596,39
24,Contullich,-4.288,57.704,20
46,Savary,-5.848,56.546,46
79,Cove,-5.696,57.852,0
28,Tarbet,-5.138,58.387,0
28,Dunan,-6.006,57.277,0
46,Ardvasar,-5.909,57.059,0
28,Westfield,-3.615,58.555,20
24,Achaphubuil,-5.14,56.835,20
94,Kilchoan,-6.103,56.698,94
134,Croick,-4.599,57.885,28
28,Cantraydoune,-4.018,57.49,20
79,Drynoch,-6.311,57.301,20
28,Pitforthie,-2.313,56.905,20
66,Gowanhill,-1.951,57.657,20
46,Clardon,-3.459,58.595,20
94,Clachan,-5.071,57.815,66
134,Glasnakille,-6.073,57.141,66
79,Portclair,-4.625,57.186,66
112,Orbost,-6.567,57.395,46
476,Coulags,-5.399,57.45,112
28,Tomich,-4.181,57.71,20
24,Harlois,-6.515,57.385,20
24,Maligar,-6.215,57.602,0
46,Achiltibuie,-5.342,58.02,20
134,Blar a' Chaorainn,-5.107,56.753,20
28,Dalhalvaig,-3.896,58.467,0
94,Ardross,-4.327,57.738,20
66,Hunspow,-3.348,58.636,24
112,Achintraid,-5.598,57.387,79
66,Golval,-3.892,58.532,46
66,Nigg,-4.008,57.718,20
24,Cromdale,-3.538,57.337,20
24,Little Gruinard,-5.468,57.85,0
66,Braemore,-3.57,58.251,66
112,Rhifail,-4.179,58.415,94
33,Killiemor,-6.082,56.483,0
24,Ardnacross,-5.996,56.571,0
28,Friesland,-6.581,56.599,0
55,North Shian,-5.387,56.535,28
24,Kellan,-6.029,56.494,0
24,Garbhallt,-5.185,56.115,0
192,Baligrundle,-5.516,56.507,24
55,Beacharr,-5.664,55.629,55
28,Reraig,-5.626,57.283,0
39,Glenmore,-6.263,57.379,20
79,Culbo,-4.281,57.614,20
24,Kirk,-3.24,58.518,24
66,Tore,-4.329,57.541,20
79,Claigan,-6.618,57.488,46
476,Kilkenneth,-6.968,56.493,160
112,Middle Cragabus,-6.248,55.627,79
94,Arichonan,-5.577,56.058,20
66,Achnashelloch,-5.457,56.07,20
24,Kilberry,-5.649,55.817,0
28,Ardrishaig,-5.45,56.016,20
24,Kilninian,-6.231,56.532,0
46,Barnacabber,-4.925,56.057,20
55,Killbeg,-5.899,56.505,55
28,Port Ann,-5.361,56.028,20
55,Crinan,-5.56,56.089,20
79,Erines,-5.427,55.923,24
24,Rahane,-4.84,56.05,20
28,Castleton,-5.399,56.009,20
331,Lagganulva,-6.136,56.493,79
39,Southend,-5.641,55.315,24
79,Kilchoman,-6.44,55.782,0
24,Pennygown,-5.904,56.515,0
160,Crossaig,-5.453,55.705,55
79,Ballymeanoch,-5.478,56.108,20
39,Middle Kames,-5.344,56.05,20
46,Nerabus,-6.416,55.71,0
112,Tullochgorm,-5.268,56.108,24
230,Blackrock,-6.299,55.787,112
24,Sandhole,-5.204,56.147,0
33,Lee,-6.193,56.311,0
46,Lossit,-6.485,55.72,0
33,Lower Killeyan,-6.323,55.606,0
331,Carsaig,-5.979,56.324,66
46,Burg,-6.17,56.362,0
276,Cleongart,-5.695,55.545,33
24,Cornabus,-6.236,55.641,0
46,West Tarbert,-5.437,55.853,39
94,Bunnahabhain,-6.126,55.881,94
24,Slockavullin,-5.498,56.118,24
192,Kilfinan,-5.309,55.957,20
94,Stuckgowan,-4.704,56.191,24
79,Kintour,-6.046,55.688,79
46,Machrihanish,-5.733,55.421,20
28,Claonaig,-5.393,55.757,0
24,South Shian,-5.401,56.522,24
66,Cretshengan,-5.654,55.841,39
94,Eorabus,-6.238,56.332,94
79,Otter Ferry,-5.32,56.006,20
24,Bonhill,-4.563,55.979,20
94,Gartocharn,-4.523,56.043,20
33,Blairquhomrie,-4.532,56.007,20
24,Caldarvan,-4.512,56.032,20
46,Bowling,-4.478,55.934,20
46,Ardanaiseig,-5.096,56.378,46
134,Carradale,-5.468,55.592,39
24,Musdale,-5.341,56.347,20
28,Achallader,-4.737,56.565,0
28,Balliemore,-5.117,56.015,24
112,Calgary,-6.274,56.584,94
134,Monreith,-4.545,54.737,55
46,Newtonairds,-3.756,55.105,20
39,Maryport,-4.882,54.672,0
79,Parkgate,-3.532,55.179,20
134,Anwoth,-4.21,54.88,20
46,Little Duchrae,-4.084,54.997,20
66,Straith,-3.821,55.176,28
46,Kirkconnel,-3.994,55.382,20
55,Milton,-3.803,55.015,20
24,Applegarthtown,-3.404,55.144,20
39,Carronbridge,-3.78,55.262,28
24,Orroland,-3.909,54.799,20
55,Tynron,-3.875,55.216,33
33,Castlefairn,-3.984,55.161,0
39,Townhead of Greenlaw,-3.969,54.962,20
94,Sibbaldbie,-3.339,55.176,20
33,Auldgirth,-3.706,55.163,20
112,Culcronchie,-4.327,54.927,20
24,Springfield,-3.055,55.007,20
39,Auchengruith,-3.858,55.364,20
28,Cample,-3.729,55.227,0
55,Barraer,-4.52,54.925,20
39,Portpatrick,-5.114,54.844,20
66,Spittal,-4.551,54.889,20
112,Ericstane,-3.462,55.383,20
476,Dumfries,-3.608,55.069,79
685,Stranraer,-5.024,54.899,94
230,Annan,-3.254,54.987,39
66,Locharbriggs,-3.58,55.106,20
39,Crocketford,-3.83,55.035,20
24,Lochans,-5.012,54.869,20
39,Locherben,-3.642,55.257,33
46,Innermessan,-4.987,54.927,20
55,Balmaclellan,-4.11,55.089,39
39,Bogue,-4.122,55.108,0
24,Cumloden,-4.469,54.979,20
33,Big Balcraig,-4.517,54.764,0
112,Carrutherstown,-3.401,55.035,20
79,Cairngarroch,-5.021,54.805,24
66,Airieland,-3.936,54.892,20
24,Moniaive,-3.919,55.195,20
46,Hightae,-3.418,55.096,20
192,Craigenputtock,-3.927,55.12,39
55,Bankshill,-3.266,55.126,20
33,Leswalt,-5.094,54.931,20
28,Keir Mill,-3.794,55.218,0
160,Crofts,-3.892,55.047,24
55,Corsock,-3.946,55.066,28
134,Glencrosh,-3.95,55.18,39
39,Creetown,-4.375,54.902,20
55,Stoneykirk,-4.977,54.837,20
55,Gordieston,-3.802,55.136,24
55,Pitkevy,-3.214,56.219,20
24,Kingseat,-3.406,56.099,20
46,Letham,-3.119,56.316,20
79,Rathillet,-3.027,56.376,20
94,Auchtermuchty,-3.231,56.292,20
46,Kettlehill,-3.089,56.256,20
94,Montrave,-3,56.246,20
33,Dairsie,-2.949,56.345,20
39,Baltersan,-4.461,54.923,20
39,Rascarrel,-3.871,54.814,24
24,Causeway End,-4.466,54.911,20
24,Millhousebridge,-3.402,55.156,20
46,Glenluce,-4.806,54.876,20
94,Johnstonebridge,-3.415,55.213,20
192,Nairn,-3.878,57.583,33
160,Dingwall,-4.435,57.602,28
79,Harris,-6.382,56.976,0
24,Balgy,-5.6,57.527,0
79,Craig,-5.276,57.494,0
55,Mudale,-4.504,58.286,0
39,Boor,-5.634,57.771,0
28,Loandhu,-3.997,57.782,20
94,Easter Galcantray,-3.984,57.507,20
24,Lonemore,-4.078,57.869,20
79,Banchor,-3.814,57.445,33
24,Penifiler,-6.182,57.394,20
46,Park Bernisdale,-6.334,57.477,20
79,Ardchuilk,-4.884,57.401,66
28,Culcharry,-3.904,57.528,20
46,Glengolly,-3.547,58.57,20
46,Balnacoil,-4.021,58.075,0
66,Daviot,-4.133,57.425,20
55,West Langwell,-4.208,58.048,39
24,Woodhead,-2.353,57.437,24
24,Esslemont,-2.12,57.358,20
24,Brownmuir,-2.418,56.888,20
39,Millbrex,-2.299,57.477,20
55,Kirkton of Tough,-2.64,57.202,20
55,Badenyon,-3.093,57.258,46
112,Perkhill,-2.707,57.14,20
39,Sandfordhill,-1.806,57.467,20
46,Ythsie,-2.189,57.368,20
39,Hillbrae,-2.664,57.518,20
66,Carnbee,-2.757,56.247,20
33,Wester Newburn,-2.901,56.236,20
55,Prior Muir,-2.76,56.313,20
39,South Straiton,-2.941,56.394,20
39,Nether Urquhart,-3.313,56.263,20
24,Crail,-2.627,56.26,20
39,Baldinnie,-2.921,56.289,20
28,Kennoway,-3.046,56.211,20
24,East Wemyss,-3.063,56.16,20
46,Stravithie,-2.745,56.292,20
55,New Gilston,-2.917,56.263,20
24,Cairneyhill,-3.529,56.06,20
39,North Queensferry,-3.394,56.011,20
46,Craigrothie,-3.002,56.287,20
39,Lochty,-2.77,56.264,20
24,Brownhills,-2.761,56.326,20
28,Newton of Falkland,-3.181,56.251,20
24,Kilrenny,-2.687,56.235,20
112,Leuchars,-2.881,56.381,20
55,Kilconquhar,-2.826,56.21,20
33,Pitscottie,-2.942,56.307,20
24,Woodend,-3.274,56.153,20
94,Achmore,-5.565,57.343,79
28,Navity,-4.036,57.656,20
24,Achriabhach,-5.041,56.771,20
134,Culnacnoc,-6.162,57.582,39
112,Scardroy,-4.986,57.522,66
39,Brydekirk,-3.274,55.023,20
33,Eaglesfield,-3.198,55.059,20
112,Mochrum,-4.571,54.785,39
39,Craigdarroch,-3.98,55.196,39
66,Lagrae,-4.04,55.404,20
134,Craig,-4.042,54.98,20
39,Kinnelhead,-3.527,55.297,20
33,Holestane,-3.778,55.279,24
39,Boreland,-4.509,54.978,20
46,Lochmaben,-3.444,55.133,20
55,Corriedoo,-4.068,55.123,46
79,Tower-of-Sark,-3.041,55.066,20
55,Auchenmalg,-4.749,54.837,33
46,Dergoals,-4.735,54.897,39
28,Colfin,-5.027,54.856,20
94,Knocknain,-5.164,54.932,20
55,Beeswing,-3.726,55.008,20
28,Auchenhessnane,-3.884,55.251,28
39,Castle Kennedy,-4.949,54.896,20
24,Carscreugh,-4.769,54.904,0
28,Barnhills,-5.152,55.001,28
39,Kirkgunzeon,-3.773,54.982,20
