rmax,name,lon,lat
192,Irvinestown,-7.631,54.472
46,Broughshane,-6.208,54.893
134,Moira,-6.229,54.477
66,Waringstown,-6.297,54.433
79,Hillsborough,-6.081,54.464
112,Killyleagh,-5.648,54.4
55,Ballygowan,-5.789,54.503
230,Lisnaskea,-7.443,54.253
66,Portaferry,-5.544,54.381
112,Newtownstewart,-7.378,54.716
192,Castlederg,-7.592,54.708
55,Bessbrook,-6.396,54.195
134,Rathfriland,-6.16,54.237
94,Castlewellan,-5.941,54.255
79,Eglinton,-7.177,55.026
276,Keady,-6.703,54.248
79,Richhill,-6.546,54.37
79,Tandragee,-6.413,54.355
55,Ahoghill,-6.363,54.85
46,Whitehead,-5.714,54.753
79,Cullybackey,-6.349,54.888
79,Annalong,-5.9,54.107
276,Dungiven,-6.919,54.926
55,Artigarvan,-7.403,54.858
192,Maghera,-6.671,54.844
94,Randalstown,-6.321,54.751
24,Rostrevor,-6.199,54.1
94,Dromore,-7.458,54.513
33,Helen's Bay,-5.736,54.666
112,Portavogie,-5.446,54.461
94,Saintfield,-5.83,54.459
55,Kilrea,-6.554,54.951
46,Ballykelly,-7.021,55.043
66,New Buildings,-7.357,54.959
33,Castledawson,-6.555,54.778
160,Crossmaglen,-6.607,54.077
33,Gilford,-6.358,54.373
46,Millisle,-5.526,54.607
192,Carnlough,-5.992,54.99
66,Draperstown,-6.783,54.793
79,Templepatrick,-6.095,54.703
94,Bushmills,-6.522,55.203
134,Markethill,-6.519,54.297
192,Cushendall,-6.061,55.08
66,Crossgar,-5.758,54.396
66,Moneymore,-6.668,54.693
66,Upperlands,-6.642,54.879
160,Fivemiletown,-7.315,54.378
134,Garvagh,-6.687,54.984
160,Ballywalter,-5.486,54.545
79,Bellaghy,-6.516,54.809
39,Bleary,-6.342,54.42
39,Greysteel,-7.111,55.033
46,Castlerock,-6.788,55.163
46,Maghaberry,-6.187,54.504
46,Dundrum,-5.845,54.258
55,Dunloy,-6.408,55.011
79,Kells,-6.213,54.805
79,Kircubbin,-5.53,54.488
33,Moneyreagh,-5.828,54.529
79,Annahilt,-5.998,54.437
55,Clough,-5.837,54.291
112,Ballinamallard,-7.592,54.422
24,Donaghadee,-5.535,54.641
79,Carryduff,-5.886,54.518
192,Ballynahinch,-5.895,54.402
28,Greenisland,-5.863,54.693
230,Ballycastle,-6.25,55.202
28,Belfast,-5.927,54.596
160,Lisburn,-6.044,54.511
822,Newry,-6.334,54.178
192,Warrenpoint,-6.252,54.101
134,Kilkeel,-6.006,54.063
192,Newcastle,-5.89,54.212
571,Downpatrick,-5.709,54.326
79,Comber,-5.743,54.549
160,Newtownards,-5.688,54.593
112,Bangor,-5.667,54.659
79,Holywood,-5.809,54.647
66,Dundonald,-5.798,54.594
112,Newtownabbey,-5.907,54.673
24,Glengormley,-5.956,54.673
66,Carrickfergus,-5.802,54.717
276,Larne,-5.808,54.855
79,Ballyclare,-5.998,54.751
276,Antrim,-6.216,54.715
571,Ballymena,-6.274,54.862
331,Coleraine,-6.664,55.13
33,Portrush,-6.653,55.198
134,Portstewart,-6.713,55.186
192,Magherafelt,-6.608,54.754
331,Cookstown,-6.743,54.649
79,Armagh,-6.654,54.351
276,Portadown,-6.445,54.422
24,Craigavon,-6.365,54.445
66,Lurgan,-6.334,54.462
192,Banbridge,-6.267,54.349
331,Strabane,-7.463,54.824
986,Omagh,-7.296,54.6
397,Enniskillen,-7.631,54.345
66,Culmore,-7.274,55.044
55,Newtownbreda,-5.906,54.552
55,Dunmurry,-6.017,54.543
28,Dollingstown,-6.294,54.461
28,Derrymacash,-6.38,54.47
55,Glenavy,-6.212,54.592
94,Cloughmills,-6.331,54.999
160,Ardglass,-5.608,54.262
39,Doagh,-6.041,54.738
134,Moy,-6.694,54.447
24,Brookeborough,-7.405,54.314
160,Newtownbutler,-7.36,54.182
134,Kesh,-7.721,54.522
160,Claudy,-7.153,54.913
571,Londonderry,-7.319,54.999
571,Belleek,-8.085,54.482
134,Aughnacloy,-6.973,54.413
79,Clogher,-7.167,54.413
112,Ballygawley,-7.021,54.462
94,Ballygally,-5.858,54.898
55,Glenarm,-5.953,54.967
46,Greyabbey,-5.56,54.535
66,Park,-7.081,54.865
94,Armoy,-6.326,55.132
39,Drumahoe,-7.271,54.978
33,Portballintrae,-6.541,55.216
66,Cargan,-6.179,54.996
94,Ballintoy,-6.358,55.236
94,Dervock,-6.469,55.123
134,Rasharkin,-6.481,54.955
46,Ballybogy,-6.556,55.13
79,Sion Mills,-7.473,54.784
55,Dunnamanagh,-7.31,54.874
66,Plumbridge,-7.25,54.769
94,Feeny,-7.02,54.893
66,Portglenone,-6.476,54.873
39,Gulladuff,-6.601,54.834
55,Desertmartin,-6.674,54.772
112,Ballyronan,-6.532,54.707
39,Tobermore,-6.709,54.81
66,Toome,-6.458,54.751
28,Galgorm,-6.322,54.86
46,Ballycarry,-5.748,54.772
66,Mullaghboy,-5.724,54.834
134,Garrison,-8.091,54.418
134,Kinawley,-7.648,54.227
94,Derrylin,-7.566,54.193
66,Lisbellaw,-7.537,54.318
94,Maguiresbridge,-7.46,54.294
94,Tempo,-7.46,54.378
160,Fintona,-7.317,54.498
112,Drumquin,-7.488,54.615
134,Pomeroy,-6.926,54.595
66,Coagh,-6.612,54.647
94,Rosslea,-7.174,54.24
230,Caledon,-6.838,54.352
94,Newtownhamilton,-6.576,54.192
79,Mayobridge,-6.229,54.18
79,Drumaness,-5.855,54.369
79,Dromara,-6.015,54.379
46,Hilltown,-6.145,54.196
55,Loughbrickland,-6.304,54.318
24,Inkberrow,-1.982,52.213
24,Broad Marston,-1.794,52.114
39,Triangle,-1.935,53.697
24,Eastwood,-2.051,53.724
39,Outlane,-1.875,53.658
24,Clough Foot,-2.137,53.711
24,Sowerby Bridge,-1.896,53.698
33,Mount Tabor,-1.919,53.74
28,Wainstalls,-1.93,53.752
46,Hebden Bridge,-2.013,53.743
28,Slack,-2.035,53.756
33,Mankinholes,-2.063,53.707
39,Ripponden,-1.946,53.67
39,Lydgate,-2.141,53.733
160,Huddersfield,-1.795,53.644
66,Dewsbury,-1.634,53.662
55,Batley,-1.641,53.72
39,Liversedge,-1.707,53.699
39,Cleckheaton,-1.721,53.728
33,Mirfield,-1.7,53.682
94,Meltham,-1.853,53.594
46,Honley,-1.788,53.605
28,Birkenshaw,-1.687,53.746
39,Shelley,-1.693,53.598
33,Grange Moor,-1.665,53.641
55,Princethorpe,-1.411,52.334
33,Bramcote,-1.403,52.495
55,Copston Magna,-1.334,52.492
160,Stratford-upon-Avon,-1.709,52.195
94,Alcester,-1.865,52.22
112,Southam,-1.387,52.254
39,Wellesbourne,-1.592,52.195
66,Studley,-1.898,52.269
112,Shipston-on-Stour,-1.627,52.062
66,Bidford-on-Avon,-1.858,52.166
24,Ardens Grafton,-1.829,52.186
24,Bearley,-1.736,52.242
28,Pillerton Priors,-1.573,52.127
24,Bascote Heath,-1.421,52.262
24,Honington,-1.614,52.079
24,Northend,-1.429,52.17
39,Alderminster,-1.66,52.134
66,Rous Lench,-1.98,52.178
28,Oddingley,-2.131,52.231
39,Drakes Broughton,-2.105,52.136
39,Bredon's Norton,-2.1,52.049
28,Norton,-1.941,52.126
24,Wickhamford,-1.899,52.073
24,Abbots Morton,-1.957,52.191
24,Church Lench,-1.962,52.159
33,Littleworth,-2.168,52.149
39,North Littleton,-1.878,52.125
24,Hadzor,-2.124,52.256
28,Knettishall,0.896,52.384
33,Nowton,0.72,52.21
46,Fornham St Genevieve,0.705,52.278
33,Whepstead,0.679,52.19
39,Withersfield,0.416,52.105
24,Coney Weston,0.872,52.364
33,Kedington,0.49,52.093
24,Great Barton,0.768,52.27
28,Great Thurlow,0.453,52.126
134,Ixworth,0.834,52.299
46,Hanbury,-2.055,52.264
39,Harvington,-1.922,52.143
33,White Ladies Aston,-2.113,52.168
28,Broughton Hackett,-2.111,52.189
55,Elmbridge,-2.145,52.308
39,Lower Moor,-2.029,52.124
79,Bredon,-2.107,52.031
33,Netherton,-2.015,52.073
39,Doverdale,-2.206,52.294
33,Kersoe,-2.011,52.058
28,Pensham,-2.088,52.096
24,Tibberton,-2.14,52.217
94,Kidderminster,-2.25,52.384
79,Stourport-on-Severn,-2.279,52.339
46,Bewdley,-2.315,52.376
24,Netherton,-1.805,53.615
24,Jackson Bridge,-1.753,53.563
24,Liley Wood,-1.681,53.653
39,Holme,-1.838,53.549
24,Wilshaw,-1.825,53.585
28,Kirkburton,-1.704,53.612
24,Cowmes,-1.724,53.643
46,Marsden,-1.925,53.602
28,Fulstone,-1.736,53.581
33,Slaithwaite,-1.88,53.623
28,Holt Head,-1.882,53.607
33,Kirkheaton,-1.726,53.659
55,Kirkby Grange,-1.63,53.624
39,Victoria,-1.732,53.546
331,Leeds,-1.548,53.744
39,Morley,-1.6,53.746
66,Pudsey,-1.671,53.803
331,Bury St Edmunds,0.716,52.227
33,Thurston End,0.623,52.131
28,Hawkedon,0.625,52.146
46,Wickhambrook,0.556,52.165
39,Fakenham Magna,0.8,52.354
28,Great Livermere,0.766,52.307
39,Lady's Green,0.564,52.202
39,Bradfield St George,0.799,52.206
28,Blackthorpe,0.784,52.232
112,Little Bradley,0.454,52.14
46,Stradishall,0.552,52.143
39,Wordwell,0.679,52.315
24,Kingshall Street,0.803,52.218
24,Genesis Green,0.554,52.189
24,Stoke-by-Clare,0.537,52.062
39,Bradfield St Clare,0.787,52.185
39,Honington,0.805,52.335
24,Ixworth Thorpe,0.808,52.322
24,Hawstead,0.717,52.197
46,Flempton,0.657,52.296
24,Great Bradley,0.437,52.15
28,Stockton,-1.36,52.271
46,Ladbroke,-1.388,52.226
33,Newbold Pacey,-1.567,52.213
33,Dorsington,-1.807,52.145
33,Ratley,-1.444,52.125
39,Winderton,-1.524,52.063
33,Preston on Stour,-1.702,52.148
66,Pathlow,-1.743,52.226
134,Upper Quinton,-1.743,52.115
33,Claverdon,-1.711,52.28
94,Chadshunt,-1.49,52.173
55,Armscote,-1.643,52.1
112,Nuthurst,-1.774,52.342
33,Wootton Wawen,-1.778,52.266
66,Long Itchington,-1.397,52.283
55,Harbury,-1.455,52.236
46,Knightcote,-1.416,52.187
46,Marston Doles,-1.318,52.22
28,Newbold-on-Stour,-1.64,52.115
24,Willington,-1.612,52.049
28,Whichford,-1.544,52.009
33,Loxley,-1.625,52.172
24,Tanworth-in-Arden,-1.835,52.333
46,Wixford,-1.867,52.189
28,Stretton-on-Fosse,-1.677,52.043
28,Ilmington,-1.691,52.09
46,Coughton,-1.885,52.24
24,Caunsall,-2.226,52.426
39,Far Forest,-2.398,52.368
39,Chaddesley Corbett,-2.159,52.36
55,Wolverley,-2.257,52.411
94,Rock,-2.39,52.339
39,Churchill,-2.179,52.412
33,Rushock,-2.172,52.337
24,Ribbesford,-2.313,52.364
33,Trimpley,-2.308,52.405
39,Shatterford,-2.306,52.424
24,Brockholes,-1.772,53.596
39,Lepton,-1.708,53.632
66,Holmfirth,-1.792,53.569
39,Wortham,1.055,52.356
39,Stuston,1.128,52.359
33,Creeting St Mary,1.067,52.169
24,Denham,1.215,52.325
66,Pettaugh,1.167,52.19
24,Drinkstone,0.866,52.219
24,Kenton,1.208,52.246
28,Wattisfield,0.946,52.327
46,Buxhall,0.928,52.182
28,Battisford,1.001,52.149
55,Earl's Green,0.982,52.258
24,Shenstone,-2.202,52.36
33,Stone,-2.205,52.372
28,Bliss Gate,-2.373,52.354
79,Biggin Hill,0.033,51.312
28,Leaves Green,0.029,51.336
24,Keston,0.026,51.36
24,Cudham,0.075,51.313
100000,London,-0.088,51.513
192,New Addington,-0.013,51.346
28,Addington,-0.034,51.358
46,Clock House,-0.153,51.323
33,Botany Bay,-0.125,51.676
46,Havering-atte-Bower,0.184,51.617
33,North Ockendon,0.292,51.543
66,Horsforth,-1.638,53.841
55,Rothwell,-1.481,53.751
134,Garforth,-1.383,53.791
160,Wetherby,-1.387,53.934
28,Guiseley,-1.715,53.876
33,Calverley,-1.69,53.828
46,Kippax,-1.371,53.769
28,Rawdon,-1.677,53.854
79,Harewood,-1.51,53.9
46,Bramham,-1.352,53.88
46,Tannington,1.284,52.259
39,Ashfield Cum Thorpe,1.233,52.217
24,Eye,1.145,52.323
160,Bedingfield,1.193,52.272
33,Forward Green,1.071,52.195
33,Brome,1.134,52.343
39,Redlingfield,1.203,52.293
39,Middlewood Green,1.067,52.21
28,Gislingham,1.038,52.299
33,Ashfield Green,1.316,52.311
46,Stretton under Fosse,-1.34,52.428
24,Newton,-1.221,52.399
24,Willey,-1.272,52.458
24,Churchover,-1.25,52.423
24,Bretford,-1.369,52.391
24,Long Lawford,-1.308,52.381
55,Binley Woods,-1.42,52.392
24,Sawbridge,-1.26,52.289
46,Grandborough,-1.28,52.299
39,Clifton upon Dunsmore,-1.222,52.383
24,Swillington,-1.418,53.769
55,Ledsham,-1.308,53.762
66,Shadwell,-1.475,53.854
46,Kiddal Lane End,-1.392,53.851
24,Troydale,-1.642,53.785
24,Carlton,-1.489,53.739
39,Bardsey,-1.44,53.888
79,Scholes,-1.423,53.826
66,Boston Spa,-1.349,53.903
66,Euston,0.787,52.377
46,Poslingford,0.583,52.105
24,Wixoe,0.508,52.058
39,Rede,0.636,52.171
94,Barningham,0.885,52.351
39,Thelnetham,0.958,52.365
28,Pakenham,0.821,52.27
24,Upthorpe,0.906,52.315
66,Congham,0.537,52.783
24,West Bilney,0.54,52.708
94,Welney,0.247,52.522
28,Barroway Drove,0.316,52.604
39,Harpley,0.658,52.798
39,Castle Rising,0.467,52.796
28,Old Hunstanton,0.506,52.953
28,Emneth,0.201,52.637
33,Stradsett,0.459,52.615
46,Tilney Fen End,0.283,52.678
55,Nordelph,0.299,52.584
28,Emneth Hungate,0.234,52.643
66,Walpole Marsh,0.197,52.733
39,Brookville,0.556,52.537
33,Marshland St James,0.246,52.66
33,Pentney,0.554,52.696
39,Three Holes,0.219,52.58
39,Gayton Thorpe,0.582,52.737
28,Shernborne,0.546,52.862
55,Marham Aerodrome,0.544,52.652
79,New Houghton,0.657,52.816
39,Whittington,0.534,52.563
24,Barton Bendish,0.529,52.618
24,St John's Highway,0.262,52.707
46,Bircham Tofts,0.644,52.862
46,Great Massingham,0.666,52.774
46,Stanhoe,0.683,52.898
94,West Winch,0.413,52.707
39,Tilney All Saints,0.32,52.737
24,Waterden,0.801,52.888
24,Burnham Market,0.729,52.939
24,Pott Row,0.522,52.771
46,Snettisham,0.502,52.878
55,West Dereham,0.454,52.587
79,Watlington,0.394,52.671
24,Barmer,0.694,52.87
33,Shouldham Thorpe,0.456,52.643
39,Burnham Overy Town,0.744,52.951
24,Saddle Bow,0.375,52.715
24,Walton Highway,0.208,52.695
55,Thornham,0.583,52.961
28,Tilney cum Islington,0.329,52.7
397,North Walsham,1.388,52.821
55,Sheringham,1.211,52.938
55,Wicken Green Village,0.74,52.856
39,Badersfield,1.344,52.761
39,Edgefield Street,1.113,52.855
46,Little Ryburgh,0.918,52.817
46,East Beckham,1.213,52.913
24,Felmingham,1.335,52.815
112,South Raynham,0.786,52.778
33,Crostwight,1.462,52.817
24,Plumstead,1.165,52.87
39,Sharrington,1.021,52.89
24,Edgefield,1.112,52.866
94,Mundesley,1.428,52.873
33,Swafield,1.395,52.839
66,Kelling,1.114,52.94
66,Happisburgh Common,1.527,52.807
46,Tatterford,0.771,52.821
28,Calthorpe,1.241,52.841
134,Wells-next-the-Sea,0.852,52.953
66,Metton,1.269,52.889
39,Hempstead,1.128,52.89
33,Little Walsingham,0.875,52.896
28,Dunton,0.789,52.837
24,Barton Turf,1.483,52.749
33,Helhoughton,0.769,52.803
33,Edingthorpe,1.446,52.841
28,Westwick,1.373,52.793
33,Sutton,1.538,52.757
55,Banningham,1.291,52.819
28,East Runton,1.271,52.934
39,Thurgarton,1.238,52.867
24,Stiffkey,0.935,52.95
39,Wighton,0.89,52.918
46,Saxlingham,1.012,52.915
66,Maypole Green,1.563,52.504
46,Brockdish,1.245,52.369
39,Thorpe,1.592,52.527
39,Aslacton,1.173,52.474
46,Wheatacre,1.624,52.487
28,Coston,1.044,52.615
46,Kirstead Green,1.382,52.524
24,Deopham,1.023,52.565
46,Topcroft Street,1.332,52.476
46,Langley Street,1.494,52.56
39,Crownthorpe,1.075,52.585
24,Hedenham,1.402,52.487
33,Ketteringham,1.19,52.584
24,Rushall,1.226,52.397
33,Billingford,1.18,52.363
33,Raveningham,1.527,52.518
39,Thelveton,1.175,52.385
39,Dickleburgh Moor,1.189,52.406
66,Denton,1.351,52.441
39,Shotesham,1.318,52.543
24,Morley St Botolph,1.056,52.557
28,Easton,1.159,52.653
39,Suton Street,1.085,52.547
24,Saxlingham Nethergate,1.288,52.529
24,North Green,1.268,52.448
33,Surlingham,1.419,52.606
28,Tacolneston,1.157,52.511
66,Claxton,1.452,52.58
24,Upper Street,1.197,52.375
39,Tharston,1.217,52.504
94,Hingham,0.986,52.581
24,Burston,1.139,52.403
46,Trowse Newton,1.319,52.612
24,Howe,1.355,52.551
33,Bergh Apton,1.403,52.56
24,Tasburgh,1.249,52.516
33,North Barsham,0.844,52.879
33,Bale,0.989,52.891
28,Swanton Novers,0.998,52.849
28,Trimingham,1.39,52.898
112,Briston,1.061,52.852
33,Catfield,1.537,52.742
33,Thursford Green,0.938,52.871
33,Hickling,1.58,52.761
39,Crossdale Street,1.314,52.905
33,Pudding Norton,0.842,52.818
33,High Kelling,1.128,52.916
24,East Ruston,1.48,52.794
55,Upper Street,1.492,52.7
28,East Raynham,0.799,52.792
28,Gresham,1.217,52.9
112,Stalham,1.52,52.772
28,Glandford,1.039,52.932
24,Salthouse,1.091,52.949
28,Bradfield,1.37,52.85
46,Kettlestone,0.918,52.846
46,Binham,0.951,52.917
24,Barney,0.961,52.853
24,Ludham,1.538,52.711
24,Langham,0.987,52.932
24,Little Barningham,1.176,52.855
28,Knapton,1.425,52.855
24,Morston,0.988,52.955
24,Brinton,1.027,52.88
33,Thurning,1.087,52.818
24,Overstrand,1.342,52.919
79,Horsey,1.645,52.748
33,Happisburgh,1.533,52.823
46,Neatishead,1.47,52.735
33,Smallburgh,1.458,52.768
55,Wroxham,1.417,52.71
39,Warham,0.899,52.939
28,Bessingham,1.218,52.883
28,Waxham,1.618,52.778
24,Sculthorpe,0.82,52.846
33,Potter Heigham,1.578,52.719
28,Itteringham,1.186,52.832
46,Thorpe Market,1.33,52.875
66,Worstead,1.415,52.782
55,Ostend,1.506,52.84
39,Cockthorpe,0.95,52.94
55,Saxthorpe,1.14,52.831
24,Ingworth,1.255,52.819
24,Roughton,1.302,52.885
28,Wood Norton,0.984,52.812
160,Holt,1.097,52.905
33,Colby,1.297,52.835
24,West Raynham,0.731,52.789
1702,Norwich,1.28,52.632
112,Wymondham,1.118,52.57
33,Cringleford,1.242,52.605
55,Hethersett,1.179,52.599
134,Harleston,1.298,52.395
94,Long Stratton,1.228,52.486
160,Poringland,1.345,52.563
24,Hackford,1.04,52.581
24,Newton Flotman,1.257,52.538
39,Ellingham,1.47,52.477
24,Kirby Bedon,1.367,52.6
28,Little Melton,1.193,52.616
46,Arminghall,1.326,52.591
33,Carleton Forehoe,1.088,52.608
28,Gissing,1.15,52.424
24,Spooner Row,1.09,52.534
39,Carleton Rode,1.112,52.488
33,Weeting,0.614,52.464
39,Sporle,0.733,52.668
24,Hardingham,1.016,52.595
24,Colkirk,0.848,52.801
39,Scarning,0.89,52.671
94,Shipdham,0.894,52.628
55,Gateley,0.907,52.779
33,Holme Hale,0.788,52.632
24,Hockering,1.07,52.676
55,Primrose Green,1.059,52.702
55,Narborough,0.585,52.683
28,Little Fransham,0.814,52.673
28,New Buckenham,1.072,52.471
24,Mundford,0.653,52.508
55,Beachamwell,0.588,52.617
79,Stow Bedon,0.876,52.53
28,Bittering,0.871,52.721
24,Mileham,0.835,52.738
33,Griston,0.863,52.555
66,Croxton,0.755,52.446
39,Guist,0.964,52.791
24,Bodney,0.701,52.556
46,Old Brigg,0.904,52.7
55,Southburgh,0.946,52.604
24,Worthing,0.962,52.739
46,Great Cressingham,0.73,52.582
33,Rushford,0.827,52.396
28,Great Ellingham,0.975,52.533
28,Whissonsett,0.845,52.774
24,South Lopham,0.996,52.389
28,Hoe,0.955,52.71
46,Bawdeswell,1.03,52.743
55,Bodney Camp,0.731,52.555
39,Shropham,0.922,52.497
33,Tittleshall,0.806,52.753
66,Great Fransham,0.804,52.685
94,Lynford,0.678,52.487
28,Quidenham,0.985,52.447
55,Wilby,0.989,52.468
55,Oxborough,0.573,52.585
28,Cockley Cley,0.645,52.607
112,Old Beetley,0.919,52.73
66,Ivy Todd,0.804,52.65
28,Great Dunham,0.769,52.697
28,North Tuddenham,1.019,52.685
24,Litcham,0.792,52.725
28,Kenninghall,0.995,52.434
79,Illington,0.864,52.474
55,Rougham,0.713,52.75
66,Cranwich,0.623,52.522
28,Swanton Morley Airfield,0.973,52.726
79,Garboldisham,0.945,52.394
39,Puddledock,1.026,52.489
24,Carbrooke,0.879,52.583
39,East Lexham,0.751,52.717
24,Hilborough,0.688,52.571
24,Daffy Green,0.896,52.65
33,Beeston,0.823,52.708
33,Foulden,0.603,52.561
33,Bintree,0.994,52.773
39,Scoulton,0.928,52.57
46,Stanfield,0.869,52.749
33,Lower Stow Bedon,0.901,52.513
66,South Acre,0.678,52.696
24,Bradenham,0.843,52.641
112,East Harling,0.932,52.438
33,Westfield,0.941,52.647
112,Taverham,1.201,52.684
112,Brundall,1.434,52.624
24,Drayton,1.23,52.674
24,Wickhampton,1.58,52.592
33,Tuttington,1.299,52.797
66,Southwood,1.54,52.592
46,Waterloo,1.29,52.727
28,Horsford,1.245,52.7
24,Burgh next Aylsham,1.29,52.78
39,Brandiston,1.164,52.751
46,Cargate Green,1.533,52.661
46,Haydon Bridge,-2.247,54.975
33,Middleton Bank Top,-1.909,55.146
55,Holburn,-1.932,55.619
28,Causey Park Bridge,-1.703,55.245
39,Ellingham,-1.728,55.527
160,Raylees,-2.117,55.217
33,Cartington,-1.938,55.336
24,Newham,-1.722,55.548
24,North Blyth,-1.507,55.135
79,Knarsdale,-2.504,54.881
28,Horncliffe,-2.111,55.743
134,Colwell,-2.076,55.074
33,Gunnerton,-2.145,55.07
39,Rothley,-1.929,55.186
66,Heugh,-1.871,55.054
55,Scremerston,-1.988,55.736
28,Halton Lea Gate,-2.543,54.921
33,Ross,-1.786,55.626
24,Medburn,-1.789,55.029
160,Rothbury,-1.911,55.311
39,Budle,-1.748,55.609
79,Burradon,-2.027,55.351
28,Bolton,-1.831,55.418
28,Whittingham,-1.89,55.401
39,Boulmer,-1.582,55.42
33,Fenton,-2.047,55.598
46,Riding Mill,-1.972,54.948
192,Stonehaugh,-2.324,55.08
28,Barrasford,-2.13,55.055
28,Bellshill,-1.804,55.569
66,Thockrington,-2.065,55.106
28,Duddo,-2.099,55.677
28,Oakwood,-2.077,54.986
28,West Edington,-1.758,55.137
39,Weston Green,1.117,52.686
66,Guestwick Green,1.047,52.794
39,Southgate,1.166,52.779
33,Lingwood,1.49,52.622
46,Oulton,1.169,52.813
33,Lenwade,1.107,52.722
24,Hassingham,1.499,52.597
28,Postwick,1.393,52.62
33,Ranworth,1.487,52.68
28,Honingham,1.109,52.662
39,The Heath,1.236,52.748
46,Little Plumstead,1.419,52.658
28,Weston Longville,1.125,52.7
28,Heydon,1.134,52.8
46,Swannington,1.161,52.726
24,Stratton Strawless,1.29,52.739
79,Spixworth,1.323,52.689
28,Oulton Street,1.193,52.802
46,Tunstall,1.57,52.617
33,Themelthorpe,1.046,52.771
33,Great Plumstead,1.4,52.639
39,Christleton,-2.836,53.184
28,Tilston,-2.802,53.055
46,Wimboldsley,-2.463,53.168
39,Lostock Gralam,-2.46,53.272
46,Churton,-2.867,53.103
28,Higher Wincham,-2.467,53.285
24,Ledsham,-2.962,53.263
24,Lach Dennis,-2.436,53.244
24,Foxwist Green,-2.561,53.214
46,Moulton,-2.511,53.222
28,Sutton Weaver,-2.686,53.311
55,Wervin,-2.864,53.243
24,Farndon,-2.877,53.084
134,Kelsall,-2.71,53.207
79,Higher Whitley,-2.57,53.317
28,Childer Thornton,-2.952,53.294
28,Guilden Sutton,-2.829,53.207
24,Coppenhall Moss,-2.441,53.123
134,Brandon,-1.933,55.449
24,North Middleton,-2,55.514
24,Netherton,-2.015,55.364
39,Ryal,-1.978,55.062
55,Wooperton,-1.936,55.478
66,Newtown,-1.936,55.52
28,South Broomhill,-1.605,55.292
39,Kirkharle,-1.978,55.137
112,Baybridge,-2.066,54.846
24,Thropton,-1.95,55.314
94,High Buston,-1.633,55.372
79,Foxstone Hill,-1.86,55.275
28,Warden,-2.134,54.995
66,Stannington,-1.667,55.109
24,Greenhead,-2.526,54.984
55,Fenrother,-1.722,55.223
24,Haugh Head,-1.993,55.527
46,Park End,-2.201,55.075
24,Little Swinburne,-2.081,55.094
66,Elishaw,-2.218,55.25
66,Whiteside,-2.461,55.017
46,Fourstones,-2.171,55.005
94,Ellington,-1.559,55.223
33,Hallington,-2.025,55.076
28,Kimmerston,-2.069,55.615
33,Coldrife,-1.895,55.248
24,Detchant,-1.861,55.623
46,Widdrington Station,-1.611,55.239
33,Sharperton,-2.064,55.332
39,Frettenham,1.325,52.709
79,Acle,1.55,52.639
24,Panxworth,1.478,52.665
24,Salle,1.126,52.78
39,Salhouse,1.419,52.677
28,Thorpe End,1.368,52.65
33,Reedham,1.566,52.56
28,Rackheath,1.371,52.675
24,Cantley,1.513,52.578
55,Coltishall,1.363,52.731
28,Felthorpe,1.207,52.716
46,Marsham,1.254,52.769
160,Reepham,1.116,52.767
134,Caister-on-Sea,1.726,52.654
46,Belton,1.662,52.567
46,Fritton,1.64,52.543
94,Hopton on Sea,1.73,52.542
24,Clippesby,1.594,52.675
46,Ormesby St Margaret,1.694,52.673
28,East Somerton,1.674,52.719
28,Billockby,1.59,52.663
33,Thrigby,1.641,52.654
94,Hemsby,1.693,52.695
39,Stokesby,1.593,52.639
55,Gawsworth,-2.16,53.225
33,Arclid,-2.311,53.153
46,Goostrey,-2.346,53.227
24,Ollerton,-2.332,53.287
55,Brereton Green,-2.333,53.174
39,Lower Withington,-2.277,53.224
33,Church Minshull,-2.5,53.142
24,Bulkeley,-2.701,53.086
46,Shavington,-2.447,53.061
39,Bate Heath,-2.47,53.31
66,Newhall,-2.58,53.006
55,Alderley Edge,-2.228,53.301
24,Styal,-2.24,53.348
160,Bickerton,-2.736,53.07
24,Smithy Green,-2.38,53.271
24,Gleadsmoss,-2.267,53.211
66,Wildboarclough,-2.024,53.216
28,Warmingham,-2.432,53.146
24,Weston,-2.401,53.066
39,Monk's Heath,-2.232,53.265
79,Wardle Industrial Estate,-2.595,53.116
46,Hesleyside,-2.288,55.147
33,Saltwick,-1.727,55.114
66,Ninebanks,-2.34,54.874
33,Wark,-2.221,55.089
112,Rochester,-2.265,55.277
39,Healey,-1.977,54.92
28,Hepscott,-1.65,55.151
39,Allendale Town,-2.252,54.896
28,High Newton-by-the-Sea,-1.626,55.521
24,Crookham,-2.129,55.636
66,Higham Dykes,-1.79,55.073
28,Pressen,-2.259,55.617
55,Bardon Mill,-2.345,54.975
55,Barnhill,-1.941,55.122
46,Horton,-1.953,55.572
46,Lanehead,-2.324,55.165
134,Bower,-2.381,55.144
79,Billsmoor Park,-2.085,55.266
55,West Fleetham,-1.689,55.549
39,Martham,1.633,52.705
24,Rollesby,1.624,52.689
33,Thurne,1.556,52.688
28,Runham,1.644,52.64
28,Bastwick,1.591,52.703
331,King's Lynn,0.417,52.755
79,Hunstanton,0.49,52.937
33,Terrington St Clement,0.302,52.755
112,Dersingham,0.503,52.844
276,Heacham,0.491,52.901
55,Upwell,0.22,52.602
24,Boughton,0.507,52.59
24,Marham,0.534,52.664
33,Hillington,0.55,52.8
192,Feltwell,0.519,52.485
24,Hockwold cum Wilton,0.544,52.463
79,Ongar Hill,0.341,52.796
33,Sedgeford,0.544,52.901
39,Sandringham,0.517,52.827
55,East Winch,0.511,52.718
28,Ringstead,0.541,52.935
46,Lakes End,0.236,52.544
28,Bircham Newton,0.627,52.874
24,Coxford,0.74,52.83
33,Denver,0.379,52.589
24,Oakgrove,-2.122,53.224
28,Lawton-gate,-2.269,53.097
33,Aston juxta Mondrum,-2.518,53.108
46,Wrenbury Heath,-2.584,53.03
39,Barthomley,-2.35,53.068
24,Barbridge,-2.573,53.107
55,Wirswall,-2.676,52.993
28,Norbury,-2.652,53.023
39,Checkley,-2.398,53.011
28,Alderley Park,-2.232,53.279
24,Morley Green,-2.263,53.335
39,Wood Lanes,-2.097,53.331
55,Sworton Heath,-2.465,53.354
46,Congleton Edge,-2.185,53.14
46,Marthall,-2.296,53.279
33,Rainow,-2.073,53.283
33,Wettenhall,-2.559,53.147
33,Langley,-2.089,53.241
24,Danebridge,-2.057,53.185
46,Burleydam,-2.585,52.98
79,North Creake,0.755,52.909
66,Brandon Creek,0.372,52.498
46,Southery,0.392,52.527
33,Fordham,0.385,52.573
24,Burnham Overy Staithe,0.748,52.963
28,Stow Bardolph,0.41,52.626
28,Wolferton,0.457,52.826
33,Docking,0.63,52.9
46,Fring,0.582,52.884
33,Anmer,0.585,52.834
28,Fair Green,0.455,52.725
28,West Acre,0.635,52.706
28,Wretton,0.493,52.572
24,West Newton,0.517,52.815
24,Fincham,0.488,52.629
28,Methwold Hythe,0.522,52.521
112,Ten Mile Bank,0.356,52.545
66,Summerfield,0.599,52.914
33,Ingleborough,0.182,52.715
39,Bawsey,0.494,52.751
39,Burton,-1.714,55.592
46,Carham,-2.32,55.639
94,Coxbank,-2.51,52.974
79,Hatherton,-2.469,53.022
24,Ashley,-2.338,53.356
28,Timbersbrook,-2.159,53.161
24,Cranage,-2.371,53.213
24,Wilkesley,-2.551,52.967
46,Larden Green,-2.614,53.06
33,Hulme Walfield,-2.229,53.182
33,Arley,-2.499,53.328
55,New Mills,-2.331,53.335
39,Peover Heath,-2.307,53.26
28,Calveley,-2.608,53.128
28,Wybunbury,-2.451,53.038
28,Chorlton,-2.403,53.05
46,Runcorn,-2.703,53.328
55,Widnes,-2.741,53.374
39,Daresbury,-2.631,53.341
55,Hale,-2.799,53.337
192,Warrington,-2.584,53.388
55,Lymm,-2.475,53.381
39,Culcheth,-2.52,53.454
33,Appleton Thorn,-2.542,53.35
46,Burtonwood,-2.653,53.432
28,Heatley,-2.446,53.391
33,Slaggyford,-2.502,54.866
46,Hebron,-1.692,55.2
134,Ancroft,-1.999,55.701
24,Beadnell,-1.634,55.557
39,Beanley,-1.871,55.46
28,East Lilburn,-1.931,55.507
24,Alwinton,-2.123,55.352
24,Bradford,-1.755,55.584
331,Wooler,-2.013,55.547
94,Langleeford,-2.08,55.492
230,Belsay,-1.839,55.102
39,Black Heddon,-1.877,55.079
66,Harlow Hill,-1.875,55.011
33,Deadwater,-2.62,55.266
39,Akeld,-2.068,55.562
24,East Hartford,-1.58,55.106
55,Longhorsley,-1.767,55.246
28,North Charlton,-1.734,55.5
276,North Sunderland,-1.656,55.579
46,West Learmouth,-2.237,55.633
33,Elford,-1.701,55.572
66,Milfield,-2.103,55.599
39,Otterburn,-2.176,55.233
33,Shillmoor,-2.179,55.366
112,Downham,-2.212,55.6
94,Cambo,-1.957,55.165
28,Lynemouth,-1.538,55.212
24,Tritlington,-1.675,55.226
24,Callaly,-1.916,55.38
46,Flotterton,-1.999,55.316
28,Kiln Pit Hill,-1.94,54.89
94,Juniper,-2.097,54.923
33,Great Ryle,-1.969,55.409
397,Comb,-2.365,55.209
24,Holystone,-2.068,55.319
79,Howick,-1.595,55.453
33,Whittonstall,-1.885,54.909
55,Chatton,-1.911,55.549
28,Horsley,-2.239,55.265
24,Linton,-1.588,55.216
28,Shotleyfield,-1.907,54.877
24,Newtown,-1.945,55.302
39,Shoresdean,-2.071,55.712
24,Easington,-1.802,55.606
24,Lucker,-1.758,55.567
28,Fenwick,-1.912,55.05
39,Slaley,-2.038,54.915
160,Ayle,-2.442,54.839
24,Stanton,-1.791,55.202
33,West Mains,-1.909,55.673
28,Ovington,-1.896,54.97
94,Stonehouse,-2.474,54.922
24,Wylam,-1.818,54.972
33,Otterburn Camp,-2.169,55.254
94,Barrowburn,-2.207,55.392
33,Shotton,-2.248,55.566
33,Kilham,-2.184,55.586
28,West Ditchburn,-1.796,55.482
24,Howtel,-2.162,55.601
28,Felkington,-2.087,55.693
66,Hartside,-2.04,55.441
66,Goswick,-1.905,55.7
28,Flodden,-2.125,55.61
33,Low Gate,-2.151,54.971
33,East Kyloe,-1.905,55.65
33,Cheswick,-1.952,55.712
46,Great Whittington,-1.992,55.031
33,Bearsbridge,-2.34,54.913
33,Rennington,-1.664,55.461
24,Yetlington,-1.963,55.383
55,Sinderhope,-2.235,54.862
24,New Bewick,-1.893,55.477
46,Kirkheaton,-1.969,55.092
39,Craster,-1.597,55.472
79,Walwick,-2.149,55.03
66,Corbridge,-2.014,54.976
55,Painshawfield,-1.899,54.931
24,Abberwick,-1.796,55.414
24,Wark,-2.276,55.641
94,West Chevington,-1.64,55.27
55,Coalpits Grange,-2.033,54.896
33,Bingfield,-2.034,55.046
112,Mousen,-1.806,55.582
39,Newton on the Moor,-1.729,55.342
46,Horton Grange,-1.688,55.074
24,Little Ryle,-1.968,55.395
24,Wall,-2.129,55.015
331,Macclesfield,-2.134,53.262
160,Wilmslow,-2.233,53.327
192,Congleton,-2.21,53.168
55,Sandbach,-2.358,53.145
55,Marton,-2.224,53.212
39,Alsager,-2.308,53.098
28,Elsdon,-2.1,55.233
55,Halton,-2.005,55.005
94,Thrunton,-1.857,55.392
24,Alnham,-2.005,55.393
28,Longhoughton,-1.615,55.431
55,Glanton Pyke,-1.908,55.423
66,West Woodburn,-2.169,55.177
33,Throphill,-1.793,55.167
24,Newstead,-1.759,55.536
24,Etal,-2.113,55.649
33,Guyzance,-1.664,55.329
66,Allenheads,-2.217,54.804
33,Gatehouse,-2.332,55.195
66,Holy Island,-1.8,55.672
24,Haggerston,-1.932,55.686
28,Middleton,-1.901,55.161
24,Bowsden,-2.011,55.67
24,Whalton,-1.795,55.127
24,Whygate,-2.358,55.078
230,Catcleugh,-2.401,55.325
28,Featherstone Rowfoot,-2.492,54.939
24,Hartburn,-1.861,55.17
94,Barmoor Lane End,-1.994,55.653
33,Carterway Heads,-1.928,54.861
28,Greenhaugh,-2.321,55.178
28,Titlington,-1.842,55.431
46,Warenford,-1.781,55.55
94,Meldon,-1.811,55.149
46,Wingates,-1.843,55.252
46,Carrshield,-2.305,54.822
33,North Hazelrigg,-1.915,55.593
28,Alnmouth,-1.612,55.389
28,Horsley,-1.851,54.988
33,Simonburn,-2.2,55.058
79,Poynton,-2.122,53.346
79,Knutsford,-2.367,53.299
39,Handforth,-2.212,53.349
33,Bollington,-2.104,53.295
55,Haslington,-2.391,53.101
28,Prestbury,-2.152,53.28
28,Blakenhall,-2.405,53.024
46,Peckforton,-2.687,53.106
24,Ravensmoor,-2.567,53.054
39,Wheelock,-2.376,53.125
28,Hankelow,-2.492,53.005
28,Astbury,-2.229,53.152
24,Henbury,-2.179,53.262
39,Macclesfield Forest,-2.038,53.245
33,Rostherne,-2.384,53.348
33,Bucklow Hill,-2.404,53.33
28,Mobberley,-2.321,53.314
46,Burntcliff Top,-2.013,53.194
55,Bosley,-2.123,53.189
28,Kenyon,-2.556,53.453
46,Higher Walton,-2.602,53.362
28,Croft,-2.55,53.441
28,Broomedge,-2.445,53.372
39,Edlingham,-1.824,55.374
66,Ford,-2.084,55.631
55,Ingoe,-1.939,55.069
46,Rock,-1.677,55.477
28,Swarland,-1.738,55.327
39,Newton,-1.943,54.975
46,Togston,-1.612,55.306
46,Pigdon,-1.753,55.189
66,Gilsland,-2.57,54.991
33,East Thirston,-1.689,55.293
28,Eshott,-1.679,55.274
160,Christon Bank,-1.664,55.5
66,Birtley,-2.189,55.098
39,Hawkhill,-1.643,55.408
33,Westnewton,-2.152,55.567
24,Roseden,-1.95,55.489
46,Lorbottle,-1.946,55.353
46,Pegswood,-1.643,55.18
33,Nunnykirk,-1.869,55.233
39,Mitford,-1.727,55.168
46,Birling,-1.611,55.351
33,Longhirst,-1.647,55.196
28,Stretton,-2.57,53.333
33,Winwick,-2.593,53.432
476,Chester,-2.894,53.198
160,Ellesmere Port,-2.894,53.275
134,Northwich,-2.508,53.246
112,Winsford,-2.518,53.193
79,Neston,-3.061,53.288
79,Frodsham,-2.719,53.294
46,Weaverham,-2.574,53.261
46,Cuddington,-2.595,53.237
24,Swan Green,-2.392,53.258
24,Mollington,-2.919,53.228
39,Delamere,-2.656,53.214
46,Dodleston,-2.954,53.143
33,Hatton Heath,-2.807,53.151
33,Crow's Nest Bridge,-2.755,53.14
94,No Man's Heath,-2.724,53.027
94,Kingsley,-2.672,53.258
24,Pulford,-2.931,53.124
28,Aston,-2.66,53.3
39,Chorlton Lane,-2.809,53.024
66,Tattenhall,-2.766,53.119
46,Willaston,-3.001,53.295
55,Scrainwood,-2.012,55.381
39,Berrington,-1.989,55.683
46,Murton,-2.051,55.732
94,Hethpool,-2.164,55.55
28,Brunton,-1.671,55.516
55,Old Swarland,-1.742,55.311
79,Kielder,-2.584,55.235
192,Haltwhistle,-2.463,54.971
28,Buckton,-1.868,55.64
24,Melkridge,-2.409,54.969
39,Ogle,-1.783,55.105
33,Ewart Newtown,-2.047,55.581
66,Middleton,-1.839,55.614
112,Netherwitton,-1.843,55.207
28,Knowesgate,-2.015,55.166
24,Red Barns,-1.699,55.605
39,Coalcleugh,-2.308,54.802
24,Woodhorn,-1.53,55.193
33,Blindburn,-2.269,55.393
24,South Charlton,-1.74,55.476
46,Falstone,-2.433,55.181
33,Dalton,-1.827,55.042
28,Shilbottle,-1.686,55.372
94,Redesmouth,-2.21,55.133
66,Grindon,-2.135,55.697
134,Catton,-2.266,54.916
33,Widdrington,-1.597,55.258
33,Pauperhaugh,-1.84,55.292
94,Linshiels,-2.167,55.35
39,Ridsdale,-2.144,55.154
66,Pentre-bont,-3.886,53.053
33,Ty'n-y-groes,-3.838,53.23
55,Ty Mawr Cwm,-3.623,53.013
33,Trefriw,-3.825,53.154
112,Eglwysbach,-3.792,53.218
79,Glan Conwy,-3.738,53.054
33,Cefn-brith,-3.591,53.042
112,Cliffe,0.499,51.46
39,Halling,0.442,51.351
66,Grain,0.714,51.455
134,Bracknell,-0.753,51.408
33,Binfield,-0.786,51.425
33,Newell Green,-0.737,51.432
24,Maiden's Green,-0.705,51.446
33,Thatcham,-1.255,51.404
94,Theale,-1.076,51.435
28,Mortimer,-1.066,51.377
66,Hungerford,-1.517,51.412
134,Lambourn,-1.529,51.507
79,Pangbourne,-1.088,51.482
28,East Ilsley,-1.288,51.527
46,Aldworth,-1.199,51.512
112,Farnborough,-1.375,51.535
79,Tan-y-fron,-3.557,53.164
66,Capel Curig,-3.91,53.104
24,Llansanffraid Glan Conwy,-3.791,53.271
46,Trofarth,-3.714,53.232
24,Llansannan,-3.596,53.181
39,Llysfaen,-3.665,53.278
55,Pentrefelin,-3.79,53.258
33,Gell,-3.721,53.213
33,Tal-y-bont,-3.845,53.203
24,Cefn Berain,-3.502,53.212
28,Llanddoged,-3.785,53.158
33,Gogarth,-3.86,53.33
79,Pentre-llyn-cymmer,-3.535,53.061
66,Capel Garmon,-3.769,53.085
28,Ty-nant,-3.505,52.992
46,Oaklands,-3.776,53.109
66,Ysbyty Ifan,-3.726,53.026
24,Deunant-isaf,-3.551,53.176
66,Gwytherin,-3.68,53.14
55,Pentre Isaf,-3.686,53.206
33,Melin-y-coed,-3.771,53.129
24,Betws-y-Coed,-3.804,53.094
24,Bylchau,-3.532,53.156
39,Henryd,-3.844,53.258
28,Betws-yn-Rhos,-3.641,53.249
28,Cwm Penmachno,-3.86,53.01
55,Pandy Tudur,-3.707,53.164
24,Cerrigydrudion,-3.56,53.025
28,Pont-y-pant,-3.864,53.07
39,Rhos-y-mawn,-3.717,53.184
39,Pennant,-3.687,53.12
39,Penmachno,-3.804,53.04
24,Cross Inn,-4.134,52.257
39,Llanilar,-4.022,52.355
79,Chancery,-4.086,52.37
24,Creuddyn Bridge,-4.117,52.151
24,Mydroilyn,-4.256,52.173
160,Aberarth,-4.229,52.251
39,Ysbyty Ystwyth,-3.858,52.326
55,Tre'r-ddol,-3.975,52.511
24,Llandre,-4.02,52.463
28,Blaenporth,-4.537,52.108
79,Llanfihangel-y-Creuddyn,-3.96,52.366
24,Cwm-cou,-4.494,52.05
28,Synod Inn,-4.335,52.162
33,Swyddffynnon,-3.915,52.278
94,Ciliau Aeron,-4.196,52.206
55,Crosswood,-3.963,52.34
66,Betws Ifan,-4.48,52.096
24,Nanternis,-4.381,52.182
28,Tal-y-bont,-3.98,52.486
66,Parcllyn,-4.561,52.131
24,Penparc,-4.613,52.101
33,Lledrod,-3.988,52.314
28,Llangrannog,-4.467,52.158
79,Pont-Sian,-4.28,52.093
55,Bwlch-y-fadfa,-4.29,52.123
33,Llanddewi Brefi,-3.957,52.18
24,Coed y Cwm,-3.332,51.627
24,Ynysybwl,-3.361,51.64
66,Taff's Well,-3.262,51.544
39,Treherbert,-3.537,51.675
24,Gilfach Goch,-3.472,51.585
24,Pen-y-coedcae,-3.356,51.58
24,Nantgarw,-3.265,51.563
33,Penderyn,-3.522,51.758
28,Pontygwaith,-3.43,51.637
24,Talbot Green,-3.384,51.534
39,Rhigos,-3.559,51.74
39,Coedely,-3.41,51.563
55,Merthyr Tydfil,-3.379,51.753
24,Merthyr Vale,-3.333,51.686
94,Vaynor,-3.381,51.784
46,Abercanaid,-3.366,51.723
28,Bedlinog,-3.308,51.704
79,St Mary Hoo,0.592,51.459
33,Allhallows-on-Sea,0.649,51.474
33,Cliffe Woods,0.497,51.434
39,Cuxton,0.454,51.375
24,Upper Upnor,0.523,51.406
112,Cwmbran,-3.029,51.652
66,Pontypool,-3.029,51.685
28,Llanfrechfa,-2.985,51.638
33,Waterloo,-3.068,51.729
39,Castell-y-bwch,-3.049,51.626
24,Garn-yr-erw,-3.108,51.783
39,Varteg,-3.066,51.748
112,Abergavenny,-3.021,51.827
331,Chepstow,-2.679,51.637
79,Caldicot,-2.76,51.591
28,Lower Basildon,-1.126,51.504
66,Yattendon,-1.204,51.466
39,Burghfield,-1.041,51.411
28,Bradfield,-1.131,51.448
39,Compton,-1.253,51.515
79,Keeston,-5.046,51.832
39,Cyffredin,-5.206,51.933
55,Rinaston,-4.933,51.893
24,Cresswell Quay,-4.824,51.722
24,Solva,-5.197,51.873
55,Llanfair-Nant-Gwyn,-4.676,52.006
46,Puncheston,-4.9,51.929
94,Bletherston,-4.805,51.854
276,Rhosson,-5.3,51.881
33,Caerfarchell,-5.207,51.897
24,Blaenffos,-4.638,51.999
66,Hermon,-4.609,51.955
24,St Davids,-5.264,51.882
94,Bwlchygroes,-4.563,51.993
24,Walton West,-5.099,51.772
24,Freshwater East,-4.862,51.649
46,Clunderwen,-4.73,51.839
192,Henry's Moat,-4.848,51.911
24,Uzmaston,-4.941,51.792
33,Crossway,-2.8,51.869
28,Sudbrook,-2.715,51.59
476,Brecon,-3.383,51.95
276,Welshpool,-3.143,52.662
24,Llandrindod Wells,-3.377,52.233
46,Knucklas,-3.096,52.36
24,Llangadfan,-3.463,52.686
39,Meifod,-3.252,52.711
66,Abbeycwmhir,-3.388,52.33
66,Foel,-3.49,52.692
94,Llansantffraed,-3.272,51.904
66,Penwyllt,-3.666,51.827
46,Michaelchurch-on-Arrow,-3.1,52.149
28,Abergwydol,-3.787,52.61
24,Buttington,-3.109,52.671
24,Tycrwyn,-3.331,52.756
66,Nant-glas,-3.471,52.274
39,Efail-rhyd,-3.245,52.828
28,Pennant,-3.655,52.561
33,Llanddew,-3.374,51.966
79,Llandefaelog,-3.407,51.983
39,Llowes,-3.176,52.066
66,Llanfechain,-3.201,52.775
46,Llanwrtyd,-3.652,52.114
33,Ddol Cownwy,-3.458,52.745
112,Dolfach,-3.599,52.382
28,Llanwddyn,-3.449,52.76
28,Granston,-5.062,51.964
33,Llandissilio,-4.731,51.858
192,Fishguard,-4.974,51.994
39,Pwllcrochan,-5.009,51.683
46,Llanfflewyn,-4.469,53.374
39,Ceidio,-4.389,53.344
24,Llanbadrig,-4.443,53.421
33,Llanallgo,-4.255,53.342
112,Capel Parc,-4.333,53.359
39,Rhosmeirch,-4.311,53.274
28,Llanfigael,-4.511,53.318
24,Llangwyllog,-4.347,53.285
28,Bodffordd,-4.362,53.267
28,Capel Gwyn,-4.474,53.254
28,Llaneilian,-4.302,53.411
24,Llangristiolus,-4.345,53.238
39,Llanfaethlu,-4.537,53.354
28,Llandyfrydog,-4.339,53.344
33,Llangaffo,-4.331,53.192
28,Dothan,-4.441,53.245
79,Bethel,-4.401,53.208
24,Ceint,-4.265,53.251
33,Llanbedrgoch,-4.238,53.303
33,Llanddyfnan,-4.247,53.285
66,Pen-y-garnedd,-4.193,53.269
39,Llanddona,-4.141,53.294
24,Evenjobb,-3.076,52.253
66,Deuddwr,-3.128,52.748
28,Guilsfield,-3.153,52.695
46,Cwmbelan,-3.551,52.425
66,Plas Llwyngwern,-3.842,52.627
28,Tyn-y-ffridd,-3.31,52.87
39,Sarn,-3.168,52.511
33,Llyswen,-3.264,52.032
46,Pentre Llifior,-3.255,52.573
94,Rhos-goch,-3.188,52.124
55,Old Radnor,-3.096,52.225
28,Llanspyddid,-3.437,51.941
46,Cwm Irfon,-3.671,52.133
28,Derwenlas,-3.886,52.574
33,Pont Crugnant,-3.64,52.549
55,Llangynidr,-3.229,51.866
33,Cwmbach,-3.215,52.049
66,Cedig,-3.485,52.795
28,Cathedine,-3.244,51.92
66,Trallong,-3.504,51.955
39,Mochdre,-3.364,52.487
24,Pwllgloyw,-3.411,51.993
24,Bleddfa,-3.162,52.308
24,Glascoed,-3.302,52.666
24,Boughrood,-3.268,52.044
28,Moelfre,-3.216,52.848
79,Llanstephan,-3.281,52.068
24,Crickhowell,-3.136,51.861
24,Llangors,-3.255,51.939
46,Llansawel,-4.012,52.008
55,Gwarallt,-4.222,52.025
46,Merthyr,-4.393,51.861
39,Crugybar,-3.954,52.021
79,Salem,-4.002,51.916
46,Pendine,-4.546,51.745
46,Pen-y-bont,-4.462,51.914
55,Ystradffin,-3.77,52.104
46,Capel Gwyn,-4.231,51.879
24,Pen-y-mynydd,-4.224,51.711
46,Trimsaran,-4.245,51.721
39,Ffaldybrenin,-3.987,52.081
39,Cilgwyn,-3.829,51.952
28,Bronwydd Arms,-4.3,51.891
66,Cwmdu,-3.986,51.953
33,Blaen-y-coed,-4.402,51.918
79,Maesybont,-4.08,51.829
33,Bryn,-4.096,51.685
160,Gwernogle,-4.137,51.982
39,Cynheidre,-4.188,51.743
28,Myddfai,-3.786,51.955
55,Pumsaint,-3.955,52.046
55,Llannon,-4.115,51.756
39,Pant yr Athro,-4.366,51.796
24,Carway,-4.224,51.735
28,Tycroes,-4.018,51.776
39,Tumble,-4.111,51.778
46,Pentre-ty-gwyn,-3.722,52.004
79,Alltwalis,-4.261,51.961
55,Llanfwrog,-4.553,53.329
112,Amlwch,-4.342,53.409
24,Mona,-4.364,53.248
55,Llechcynfarwy,-4.431,53.303
28,Beaumaris,-4.096,53.264
24,Carmel,-4.423,53.315
230,Benllech,-4.224,53.321
24,Gadfa,-4.32,53.383
24,Llanedwen,-4.233,53.197
24,Penmynydd,-4.232,53.247
79,Gaerwen,-4.271,53.223
24,Bodewryd,-4.409,53.393
39,Llantrisant,-4.457,53.326
33,Rhosgoch,-4.392,53.378
46,Llanfaes,-4.089,53.278
24,Llanddaniel Fab,-4.256,53.213
55,Llanfairyneubwll,-4.548,53.26
39,Llanfechell,-4.455,53.393
28,Bryngwran,-4.474,53.27
24,Elim,-4.473,53.336
66,Valley,-4.563,53.286
39,Dulas,-4.291,53.383
24,Talwrn,-4.27,53.268
33,Trearddur,-4.619,53.285
28,Burwen,-4.379,53.414
33,Malltraeth,-4.389,53.194
33,Rhoscolyn,-4.599,53.252
28,Llanynghenedl,-4.529,53.301
24,Brynrefail,-4.285,53.358
24,Felinfach,-3.325,51.989
94,Llaithddu,-3.367,52.411
33,Bwlch,-3.237,51.891
46,Llandyssil,-3.185,52.547
46,Llanbadarn Fynydd,-3.323,52.388
66,Cefn-gorwydd,-3.603,52.098
66,Glanmule,-3.229,52.505
39,Hyssington,-3.012,52.541
94,Abergwesyn,-3.674,52.162
33,Capel-y-ffin,-3.084,51.979
24,Abercegir,-3.766,52.601
134,Llanelieu,-3.189,52.001
112,Heol Senni,-3.558,51.898
24,Gaer,-3.206,51.888
24,Cyfronydd,-3.265,52.662
55,Maesmynis,-3.435,52.117
39,Bwlch-y-cibau,-3.218,52.748
55,Beulah,-3.577,52.147
66,Llandegley,-3.258,52.254
66,Tregoyd,-3.167,52.033
33,Aberhosan,-3.754,52.561
79,Caersws,-3.427,52.518
39,Leighton,-3.116,52.647
39,St Harmon,-3.485,52.343
33,Dolley Green,-3.049,52.282
39,Scethrog,-3.299,51.92
66,Llanfihangel Tal-y-llyn,-3.288,51.947
28,Llansaint,-4.339,51.747
55,Court Henry,-4.096,51.882
24,Rhydcymerau,-4.072,52.027
33,Crosshands,-4.624,51.873
33,Llangynog,-4.409,51.82
79,Croesyceiliog,-4.311,51.823
28,Bwlchnewydd,-4.371,51.895
230,Llandovery,-3.798,51.995
192,Cwmduad,-4.364,51.955
33,Bethlehem,-3.911,51.909
33,Dolgran,-4.282,51.984
39,Bryn Iwan,-4.451,51.955
33,Login,-4.668,51.877
33,Pentrefelin,-4.036,51.892
39,Penrherber,-4.494,52.02
79,Porthyrhyd,-3.881,52.022
39,Cwmann,-4.066,52.096
28,Llanglydwen,-4.646,51.907
55,Glandy Cross,-4.7,51.906
79,Rhos,-4.361,51.992
79,Cynghordy,-3.737,52.043
33,Marros,-4.598,51.748
66,Horeb,-4.163,51.928
33,Pen-y-garn,-4.078,51.965
46,Abernant,-4.414,51.881
55,Halfway,-3.708,51.979
28,Drefach,-4.137,51.799
134,Capel-Gwynfe,-3.856,51.88
94,Pentre Morgan,-4.313,51.904
28,Llanybri,-4.41,51.785
28,Broadlay,-4.361,51.758
39,Golden Grove,-4.047,51.857
112,Felindre,-3.887,51.929
46,East Winterslow,-1.647,51.104
66,Westdown Camp,-1.938,51.229
112,Morgan's Vale,-1.715,50.988
46,Keevil,-2.115,51.321
39,East Tytherton,-2.053,51.473
134,West End,-2.023,51.018
66,Semley,-2.152,51.041
46,Corsley,-2.242,51.219
28,Chelworth,-2.043,51.647
33,Woodminton,-1.985,50.999
39,Upper Woodford,-1.822,51.134
28,Huish,-1.791,51.37
33,Monkton Farleigh,-2.279,51.388
55,Highway,-1.94,51.47
39,Brokenborough,-2.117,51.604
33,Grittenham,-1.954,51.545
33,Britford,-1.771,51.051
24,Worton,-2.034,51.316
28,Lower Chicksgrove,-2.039,51.069
28,Green Hill,-1.9,51.568
79,Upper Upham,-1.674,51.493
46,Upton Lovell,-2.078,51.167
46,Seend,-2.081,51.349
94,Baverstock,-1.959,51.089
33,Rhydwyn,-4.534,53.372
28,Tregele,-4.473,53.406
55,Llynfaes,-4.387,53.281
24,Gwalchmai,-4.415,53.255
134,Caernarfon,-4.259,53.141
33,Fron,-4.455,52.931
55,Fairbourne,-4.051,52.7
33,Llanfachreth,-3.85,52.786
28,Rhoslan,-4.261,52.946
39,Rhiwlas,-4.129,53.172
112,Aber-Cywarch,-3.675,52.729
28,Bryncroes,-4.635,52.852
33,Llanbedrog,-4.49,52.86
24,Ynys,-4.088,52.897
33,Llandderfel,-3.513,52.923
94,Llanfendigaid,-4.117,52.624
46,Prenteg,-4.105,52.953
55,Bodermid,-4.736,52.794
79,Rhedyn,-4.533,52.864
39,Methlem,-4.714,52.84
66,Talsarnau,-4.064,52.903
134,Ffridd Uchaf,-4.123,53.044
192,Bronaber,-3.911,52.87
134,Dinas,-4.575,52.895
55,Groesffordd,-4.569,52.925
33,Rhos-y-gwaliau,-3.571,52.899
986,Pwllheli,-4.423,52.885
39,Llanrug,-4.189,53.15
28,Talgarth,-3.231,51.997
46,Llanerfyl,-3.427,52.677
79,Trelystan,-3.094,52.627
46,Pen-y-bont Llanerch Emrys,-3.169,52.806
66,Llanfilo,-3.283,51.991
39,Defynnog,-3.561,51.937
28,Pentre'r-felin,-3.572,51.961
28,Arddleen,-3.099,52.735
66,Plas Llysyn,-3.54,52.563
134,Llanidloes,-3.54,52.447
55,Clatter,-3.477,52.541
28,Llanwnog,-3.439,52.531
28,Tretower,-3.181,51.884
94,Dylife,-3.677,52.532
46,Commins Coch,-3.709,52.611
94,Melin-y-ddol,-3.348,52.652
33,Beguildy,-3.185,52.41
39,Snead,-3.006,52.522
192,Knighton,-3.045,52.343
46,Builth Road,-3.425,52.17
24,Llandefaelog-tre'r-graig,-3.272,51.961
28,Llanbister,-3.304,52.351
46,Pontrobert,-3.319,52.704
46,Elan Village,-3.559,52.271
24,Llanllugan,-3.392,52.609
46,Llandefalle,-3.302,52.011
24,Gladestry,-3.123,52.189
112,Llywel,-3.646,51.958
28,Battle,-3.439,51.968
134,Tregynon,-3.335,52.576
46,Bwlch-y-ffridd,-3.373,52.549
24,Ceinws,-3.835,52.639
55,Cenarth,-4.527,52.045
94,Cwmfelin Mynach,-4.576,51.894
55,Cwmisfael,-4.187,51.82
28,Milo,-4.037,51.837
134,Kidwelly,-4.306,51.737
24,Siloh,-3.835,52.017
66,Llidiad-Nenog,-4.12,52.016
39,Capel Iwan,-4.493,51.998
33,Talley,-3.987,51.969
24,Manordeilo,-3.928,51.921
46,Bancyfelin,-4.434,51.835
24,Cefn-y-pant,-4.628,51.897
28,Ashfield,-3.903,51.941
24,Llangendeirne,-4.238,51.803
46,Llanllawddog,-4.242,51.941
28,Capel Isaac,-4.06,51.921
33,Blaenwaun,-4.566,51.913
55,Gwyddgrug,-4.239,51.996
66,Rhandirmwyn,-3.774,52.077
39,Crwbin,-4.216,51.795
33,Cefneithin,-4.096,51.803
46,Notton,-2.127,51.426
33,Norton Bavant,-2.13,51.188
39,Upper Chute,-1.574,51.283
94,West Kington,-2.274,51.494
33,Upavon Army Camp,-1.776,51.293
55,Bromham,-2.049,51.389
66,Tisbury,-2.075,51.061
55,Atworth,-2.192,51.393
33,Alderton,-2.231,51.545
79,Fisherton de la Mere,-2,51.146
28,Fosbury,-1.541,51.318
39,Lyneham,-1.97,51.503
55,Charlton St Peter,-1.833,51.303
66,Allington,-1.901,51.366
24,Woodfalls,-1.718,50.977
33,Trading Estate,-2.206,51.274
28,Poulshot,-2.044,51.336
28,Sopworth,-2.249,51.575
33,Bratton,-2.123,51.27
24,Gastard,-2.166,51.415
94,Lower Seagry,-2.064,51.53
28,Bushton,-1.907,51.496
476,Peterborough,-0.259,52.581
94,Wittering,-0.442,52.609
24,Southorpe,-0.404,52.611
46,North Side,-0.117,52.581
33,Milking Nook,-0.249,52.637
66,Bwlchtocyn,-4.51,52.806
276,Dolgellau,-3.886,52.743
28,Garreg,-4.065,52.955
33,Abererch,-4.382,52.906
79,Llanfaelrhys,-4.651,52.811
24,Upper Caldecote,-0.29,52.099
33,Sutton,-0.213,52.111
28,Upper Shelton,-0.556,52.081
24,Tingrith,-0.534,51.98
46,Langford,-0.269,52.053
46,Lower Sundon,-0.475,51.931
66,Aspley Guise,-0.629,52.012
24,Slip End,-0.435,51.854
28,Apsley End,-0.368,51.983
33,Battlesden,-0.594,51.95
28,Millbrook,-0.523,52.036
39,Everton,-0.244,52.146
55,Cockayne Hatley,-0.159,52.131
39,Tilsworth,-0.577,51.91
46,Woburn,-0.621,51.988
39,Aberangell,-3.709,52.677
28,Penmaenpool,-3.94,52.746
28,Waunfawr,-4.207,53.113
112,Ganllwyd,-3.891,52.802
134,Llithfaen,-4.448,52.961
39,Penmorfa,-4.163,52.944
94,Llanuwchllyn,-3.67,52.857
24,Corris,-3.841,52.654
94,Corris Uchaf,-3.856,52.663
33,Betws Garmon,-4.169,53.087
39,Wenallt,-3.51,52.967
230,Bala,-3.597,52.912
46,Rhyd-yr-onen,-4.045,52.602
33,Cilan Uchaf,-4.526,52.787
24,Llanllyfni,-4.283,53.043
24,Llanegryn,-4.068,52.629
55,Criccieth,-4.229,52.92
24,Dinorwig,-4.115,53.135
39,Llanfaglan,-4.287,53.119
66,Parc,-3.671,52.892
33,Llanfihangel-y-pennant,-3.964,52.661
55,Llangwnnadl,-4.671,52.865
46,Bryncir,-4.261,52.979
55,Deiniolen,-4.128,53.147
66,Rhosgadfan,-4.233,53.095
28,Capel Carmel,-4.729,52.823
33,Llaniestyn,-4.575,52.874
55,Llannor,-4.449,52.908
28,Rhos-y-llan,-4.622,52.909
24,Llangunllo,-3.159,52.335
33,Alltforgan,-3.531,52.808
28,Llandeilo'r-Fan,-3.607,52
24,Bronllys,-3.248,52.007
39,Berriew,-3.201,52.599
134,Felmersham,-0.55,52.207
79,Souldrop,-0.557,52.244
24,Stagsden,-0.565,52.131
79,Wilden,-0.398,52.183
28,Wootton,-0.528,52.098
28,Clapham,-0.495,52.163
33,Hinwick,-0.631,52.243
55,Lower Dean,-0.455,52.311
79,Keysoe Row,-0.413,52.238
28,Wood End,-0.538,52.111
24,Knotting,-0.531,52.26
33,Milton Ernest,-0.513,52.194
33,Chellington,-0.605,52.19
55,Great Barford,-0.352,52.157
24,Pavenham,-0.556,52.189
33,Salph End,-0.409,52.163
55,Colmworth,-0.382,52.213
39,Riseley,-0.476,52.253
33,Sharnbrook,-0.542,52.224
79,Wilstead,-0.438,52.08
24,Oakley,-0.526,52.171
24,Little Staughton,-0.384,52.252
33,Willington,-0.377,52.132
39,Dunstable,-0.516,51.884
94,Leighton Buzzard,-0.662,51.92
33,Botwnnog,-4.586,52.85
24,Pentir,-4.136,53.183
33,Llwyndyrys,-4.421,52.943
33,Nantmor,-4.085,52.994
39,Tal-y-bont,-4.097,52.774
33,Croesor,-4.04,52.984
331,Tywyn,-4.092,52.584
39,Brithdir,-3.82,52.76
28,Nasareth,-4.284,53.026
33,Penrhos,-4.466,52.878
397,Colwyn Bay,-3.721,53.291
66,Abergele,-3.583,53.285
79,Llandudno,-3.825,53.317
66,Conwy,-3.811,53.289
276,Llanrwst,-3.796,53.142
112,Llanfairfechan,-3.972,53.255
28,Dolgarrog,-3.842,53.189
55,Llannefydd,-3.527,53.224
66,Maerdy,-3.463,52.991
39,Dolwen,-3.673,53.259
46,Bryn Rhyd-yr-Arian,-3.564,53.196
55,Gellioedd,-3.581,52.991
28,Towyn,-3.543,53.302
24,Llanfihangel Glyn Myfyr,-3.506,53.03
33,Rhydlydan,-3.653,53.044
28,Llanfair Talhaiarn,-3.604,53.217
33,Devil's Bridge,-3.855,52.375
46,Capel Seion,-3.999,52.394
112,Cwmystwyth,-3.779,52.351
79,Llanddeiniol,-4.112,52.328
28,Llechryd,-4.599,52.065
276,Ffoshelyg,-3.991,52.292
28,Glaspwll,-3.861,52.561
55,Pant-glas,-3.816,52.569
28,Llanfihangel-Nant-Melan,-3.196,52.214
39,Tylwch,-3.515,52.409
33,Penybont,-3.295,52.267
39,Llananno,-3.327,52.362
39,Penybontfawr,-3.354,52.811
28,Blaendyryn,-3.555,52.019
33,Llangurig,-3.604,52.406
39,Cascob,-3.116,52.291
24,Gaufron,-3.468,52.3
24,Melinbyrhedyn,-3.748,52.574
79,Upper Chapel,-3.447,52.055
134,Llangynog,-3.407,52.825
55,Pool Quay,-3.103,52.695
24,Rhiwlas,-3.193,52.88
33,Llanmerewig,-3.238,52.526
39,Llanfihangel Nant Bran,-3.537,51.997
28,Abernaint,-3.296,52.783
66,Bwlch-y-sarnau,-3.423,52.36
55,Crossway,-3.391,52.21
28,Bwlchyddar,-3.233,52.789
39,Dolwen,-3.516,52.656
33,Llanbadarn-y-garreg,-3.296,52.129
24,Pontneddfechan,-3.588,51.759
28,Cwmorgan,-4.485,51.985
55,Pontyberem,-4.178,51.775
39,Llandysul,-4.314,52.036
66,Meidrim,-4.482,51.861
33,Pwll,-4.201,51.687
39,Penrhyndeudraeth,-4.064,52.928
24,Cenin,-4.29,52.981
79,Ty-nant,-3.622,52.823
33,Gell,-4.239,52.936
24,Glasinfryn,-4.116,53.199
33,Pontllyfni,-4.337,53.048
39,Towyn,-4.551,52.819
24,Llandegwning,-4.576,52.841
24,Rhyd-Ddu,-4.135,53.054
112,Porthmadog,-4.131,52.926
33,Cae Clyd,-3.926,52.978
33,Nantlle,-4.226,53.059
24,Llandwrog,-4.315,53.081
94,Glan-yr-afon,-3.621,52.955
39,Glan-yr-afon,-3.452,52.972
46,Sarnau,-3.53,52.942
33,Pistyll,-4.493,52.95
46,Rhyd-uchaf,-3.634,52.929
55,Aberdovey,-4.043,52.546
66,Y Felinheli,-4.212,53.181
79,Llanfihangel-y-pennant,-4.196,52.982
39,Rhos-fawr,-4.401,52.926
28,Cemmaes Road,-3.741,52.622
39,Llanfihangel-yng-Ngwynfa,-3.362,52.741
28,Llanfyllin,-3.269,52.763
46,Aberedw,-3.341,52.118
46,New Radnor,-3.151,52.241
46,Rhos-y-brithdir,-3.281,52.798
24,Cnwch Coch,-3.945,52.357
24,Gwbert,-4.684,52.117
24,Goginan,-3.932,52.411
55,Bethania,-4.092,52.251
39,Llangwyryfon,-4.055,52.315
24,Salem,-3.959,52.441
24,Penuwch,-4.056,52.243
46,Alltyblaca,-4.16,52.086
160,Aber-banc,-4.401,52.048
33,Trefenter,-4.045,52.296
39,Monachty,-4.191,52.236
66,Cwmbrwyno,-3.899,52.409
55,Eglwys Fach,-3.936,52.545
24,Ffostrasol,-4.375,52.103
33,Brongest,-4.45,52.079
46,Dihewyd,-4.216,52.179
39,Capel Tygwydd,-4.524,52.063
55,Pantgwyn,-4.571,52.082
24,Pontrhydfendigaid,-3.86,52.282
24,Pisgah,-3.938,52.381
46,Llanon,-4.178,52.282
46,Llanmihangel,-3.466,51.437
28,St Hilary,-3.414,51.448
24,Peterston-super-Ely,-3.315,51.482
39,Penllyn,-3.478,51.476
33,Downs,-3.285,51.462
39,Michaelston-le-Pit,-3.221,51.45
24,Llwyn-y-brain,-4.614,51.804
55,Llangeler,-4.373,52.027
33,Llanddowror,-4.531,51.799
79,Trelech,-4.499,51.945
33,Maesycrugiau,-4.227,52.045
39,Bancyffordd,-4.319,52.015
24,Porthyrhyd,-4.148,51.819
33,Llanybyther,-4.148,52.071
39,Abergorlech,-4.065,51.984
39,Gellywen,-4.506,51.884
39,Llandybie,-4.004,51.817
79,Cwmfelin-boeth,-4.625,51.838
24,Llangain,-4.345,51.816
39,Llanddeusant,-3.779,51.905
33,Meinciau,-4.23,51.772
39,Cilycwm,-3.817,52.045
39,Llansteffan,-4.389,51.773
24,Plas Farm,-4.202,51.92
33,Llanegwad,-4.152,51.871
28,Ffynnon-ddrain,-4.328,51.871
986,Swansea,-3.949,51.643
66,Gorseinon,-4.047,51.67
55,Gowerton,-4.027,51.642
33,Upton,-0.367,52.593
55,Marholm,-0.305,52.605
28,Pilsgate,-0.427,52.638
39,Eye,-0.191,52.608
33,Thornhaugh,-0.424,52.593
28,Partrishow,-3.046,51.892
24,Pont-faen,-3.463,51.996
39,Tal-y-Wern,-3.729,52.589
94,Pant Mawr,-3.693,52.428
28,Llanigon,-3.148,52.05
24,Cilmery,-3.454,52.153
192,Builth Wells,-3.404,52.149
46,Llansantffraed-in-Elwel,-3.317,52.181
55,Llanwyddelan,-3.353,52.601
28,Garthmyl,-3.189,52.585
28,Nantmel,-3.423,52.287
39,Cwmdu,-3.189,51.906
24,Clyro,-3.148,52.081
46,Merthyr Cynog,-3.48,52.026
79,Hengoed,-3.13,52.172
28,Llangammarch Wells,-3.55,52.112
39,Rhyd,-3.517,52.594
46,Llan,-3.649,52.594
33,Gwenddwr,-3.366,52.078
24,Montgomery,-3.146,52.563
230,Hay-on-Wye,-3.125,52.073
66,Hirnant,-3.412,52.792
79,Llawr-y-glyn,-3.575,52.508
33,Forden,-3.13,52.607
66,Tirabad,-3.635,52.059
46,Gwystre,-3.369,52.28
46,Cwmavon,-3.761,51.616
28,Rhos,-3.827,51.712
55,Resolven,-3.694,51.71
33,Bryn,-3.714,51.617
28,Llandarcy,-3.858,51.641
24,Llangiwg,-3.847,51.733
33,Onllwyn,-3.677,51.779
39,St Donat's,-3.528,51.405
24,Graig Penllyn,-3.473,51.488
55,Llancarfan,-3.363,51.424
66,Lavernock,-3.173,51.407
24,West Aberthaw,-3.402,51.393
24,Colwinston,-3.521,51.469
39,Wick,-3.55,51.422
24,St Athan,-3.415,51.403
331,Rhondda,-3.47,51.645
112,Pontypridd,-3.324,51.594
160,Aberdare,-3.46,51.725
79,Mountain Ash,-3.378,51.682
66,Abercynon,-3.336,51.654
28,Tonypandy,-3.454,51.621
55,Tonyrefail,-3.42,51.586
28,Church Village,-3.319,51.567
79,Beddau,-3.354,51.555
39,Ferndale,-3.455,51.667
39,Treorchy,-3.511,51.66
55,Pontyclun,-3.388,51.523
46,Porth,-3.398,51.611
46,Westoning,-0.498,51.982
33,Brogborough,-0.595,52.034
28,Pegsdon,-0.372,51.959
33,Billington,-0.634,51.894
55,Bainton,-0.385,52.641
79,Sutton,-0.382,52.576
79,Thorney,-0.102,52.622
33,Ufford,-0.384,52.624
28,Northborough,-0.298,52.659
79,Glinton,-0.295,52.638
33,Kempston,-0.493,52.117
33,Wymington,-0.6,52.268
55,Yelden,-0.516,52.291
33,Keysoe,-0.426,52.252
33,Odell,-0.588,52.21
24,Elstow,-0.464,52.108
28,Chawston,-0.31,52.191
33,Staploe,-0.319,52.231
39,Thurleigh,-0.458,52.214
28,Bolnhurst,-0.408,52.225
28,Upper Dean,-0.467,52.297
33,Box End,-0.525,52.129
46,Bromham,-0.531,52.148
24,Cotton End,-0.416,52.094
24,Eisingrug,-4.059,52.891
55,Capel Uchaf,-4.339,53.022
33,Plas Gwynant,-4.045,53.036
24,Llawr-y-Dref,-4.557,52.829
39,Cymmer,-3.647,51.652
24,Duffryn,-3.68,51.647
39,Tonna,-3.773,51.675
33,Coedhirwaun,-3.699,51.544
28,Ystalyfera,-3.787,51.764
28,Pontrhydyfen,-3.744,51.632
39,Cwmllynfell,-3.821,51.802
79,Tonmawr,-3.735,51.652
46,Crynant,-3.747,51.726
24,Gwaun-Cae-Gurwen,-3.875,51.783
33,Abergwynfi,-3.6,51.654
79,Glyncorrwg,-3.626,51.679
134,Maesteg,-3.652,51.604
79,Porthcawl,-3.695,51.484
94,Pyle,-3.688,51.528
55,Pencoed,-3.503,51.521
46,Bettws,-3.586,51.567
28,Nant-y-moel,-3.539,51.626
33,Houghton Regis,-0.513,51.906
112,Biggleswade,-0.256,52.086
66,Flitwick,-0.496,52.004
112,Sandy,-0.291,52.134
39,Ampthill,-0.497,52.024
33,Stotfold,-0.228,52.019
55,Toddington,-0.534,51.948
39,Potton,-0.21,52.129
46,Barton-le-Clay,-0.427,51.968
24,Arlesey,-0.261,52.014
33,Cranfield,-0.603,52.068
24,Blunham,-0.319,52.145
33,Thorncote Green,-0.318,52.116
39,Upper Stondon,-0.326,52.007
55,Clophill,-0.415,52.031
28,Totternhoe,-0.568,51.884
24,Shefford,-0.33,52.037
39,Eyeworth,-0.176,52.093
28,Church End,-0.506,51.859
24,Astwick,-0.228,52.031
28,Harlington,-0.488,51.96
28,Old Linslade,-0.677,51.933
46,Studham,-0.519,51.832
66,Caddington,-0.457,51.864
24,Ridgmont,-0.58,52.013
55,Pentre Gwynfryn,-4.086,52.823
24,Nefyn,-4.522,52.936
33,Llan Ffestiniog,-3.932,52.96
55,Pant Glas,-4.279,53.004
39,Caerdeon,-4.001,52.744
46,New Mill End,-0.373,51.849
33,Southill,-0.322,52.065
39,Southend-on-Sea,0.718,51.543
46,South Ockendon,0.288,51.512
66,Tilbury,0.361,51.459
33,Chadwell St Mary,0.37,51.485
55,Purfleet,0.243,51.482
28,Aveley,0.252,51.503
33,Orsett,0.368,51.512
28,Mucking,0.424,51.503
28,Low Street,0.401,51.473
79,Bulphan,0.361,51.546
46,Coryton,0.523,51.512
55,Gillingham,0.578,51.347
28,Chatham,0.532,51.359
55,Rochester,0.486,51.396
46,Hoo St Werburgh,0.56,51.423
79,Coed Ystumgwern,-4.099,52.794
33,Maentwrog,-3.987,52.946
55,Holiday Park,-4.332,52.907
33,Llangelynin,-4.113,52.641
28,Caethle,-4.061,52.574
24,Rhoshirwaun,-4.681,52.831
230,Blaenau Ffestiniog,-3.937,52.994
39,Nant Peris,-4.084,53.105
46,Abergynolwyn,-3.955,52.645
55,Trefor,-4.425,52.994
28,Llanaelhaearn,-4.404,52.977
55,Minffordd,-3.869,52.688
46,Beddgelert,-4.103,53.014
24,Bethel,-4.211,53.168
28,Penllech,-4.645,52.881
28,Dolgoch,-3.997,52.622
28,Tal-y-bont,-4.091,53.213
66,Llangybi,-4.34,52.945
66,Rhydymain,-3.774,52.784
24,Trem-y-Garth,-4.049,52.919
33,Llangower,-3.622,52.879
94,Llanddewi Ystradenni,-3.308,52.309
46,Llanfechan,-3.498,52.143
230,Abercynafon,-3.337,51.848
24,Domgay,-3.056,52.763
28,Llanbedr,-3.249,52.11
24,Dolbenmaen,-4.227,52.966
39,Pont Pen-y-benglog,-4.019,53.124
33,Boduan,-4.494,52.913
46,Llanymawddwy,-3.628,52.758
94,Cwrt,-3.938,52.584
24,Arthog,-4.009,52.711
79,Trawsfynydd,-3.917,52.904
24,Rhyd-y-clafdy,-4.488,52.886
66,Rhyd,-4.029,52.958
28,Groeslon,-4.276,53.077
66,Penygroes,-4.281,53.056
66,Mallwyd,-3.679,52.699
55,Llwyngwril,-4.083,52.667
33,Llanaber,-4.073,52.743
46,Harlech,-4.11,52.845
79,Llanberis,-4.126,53.121
33,Llanarmon,-4.346,52.928
24,Vaynol Hall,-4.191,53.197
112,Barmouth,-4.059,52.727
55,Crymlyn,-4.041,53.225
24,Frongoch,-3.632,52.941
46,Pen-sarn,-4.331,52.973
28,Cwm-Llinau,-3.704,52.656
39,Dolfor,-3.316,52.475
24,Norton,-3.021,52.297
66,Llangadwaladr,-3.215,52.864
1183,Aberystwyth,-4.063,52.41
39,Llandinam,-3.432,52.482
28,Ponde,-3.3,52.025
24,Trefecca,-3.245,51.982
33,Aber Village,-3.301,51.885
79,Nant-ddu,-3.447,51.826
24,Crickadarn,-3.326,52.071
66,Pant-y-ffridd,-3.249,52.616
66,Cregrina,-3.281,52.164
24,Crossgates,-3.333,52.274
28,Pentre-bach,-3.587,51.984
33,Pipton,-3.215,52.034
28,Tafolwern,-3.639,52.61
46,Llaneglwys,-3.37,52.038
134,Presteigne,-3.003,52.272
192,Machynlleth,-3.846,52.591
39,Monaughty,-3.115,52.31
134,Talerddig,-3.581,52.589
33,Llandrinio,-3.059,52.75
28,Trefeglwys,-3.518,52.505
112,Pont Llogel,-3.432,52.731
24,Kerry,-3.257,52.501
28,Tai-bach,-3.261,52.849
55,Y Fan,-3.546,52.475
66,Lower Chapel,-3.413,52.012
33,Aberhafesp,-3.372,52.522
39,Pentre'r beirdd,-3.197,52.717
55,Ystradfellte,-3.552,51.81
24,Trefnanney,-3.18,52.73
24,Dol-for,-3.749,52.643
24,Pontlliw,-4.009,51.685
28,Ilston,-4.083,51.594
39,Felindre,-3.972,51.704
192,Llanddewi,-4.222,51.579
33,Penrice,-4.174,51.569
79,Llanmadoc,-4.249,51.616
476,Cardigan,-4.66,52.085
28,Rhydlewis,-4.414,52.097
28,New Cross,-4.009,52.373
39,Tynygraig,-3.918,52.307
112,Dol-y-Bont,-4.026,52.474
39,Capel Cynon,-4.365,52.118
46,Tremain,-4.578,52.107
66,Gartheli,-4.07,52.186
28,Castell Howell,-4.275,52.111
55,Gilfachreda,-4.329,52.206
55,Llwyndafydd,-4.383,52.17
46,Penbryn,-4.491,52.141
33,Henfynyw,-4.272,52.224
112,Caledrhydiau,-4.227,52.156
66,Y Ferwig,-4.652,52.116
33,Cwmsychbant,-4.226,52.091
55,Llanfair Clydogau,-4.009,52.141
46,Tregaron,-3.936,52.219
28,Bontnewydd,-4.024,52.273
24,Betws Bledrws,-4.053,52.148
28,Capel Betws Lleucu,-4.037,52.205
33,Plas Gogerddan,-4.017,52.432
24,Talgarreg,-4.301,52.133
24,Glynogwr,-3.506,51.575
55,Heol-y-Cyw,-3.522,51.547
28,Pontycymer,-3.585,51.612
46,Merthyr Mawr,-3.608,51.486
24,Mawdlam,-3.722,51.523
28,Pilton Green,-4.242,51.562
28,Llangennith,-4.271,51.6
24,Dunvant,-4.036,51.625
24,Oxwich,-4.169,51.558
66,Glais,-3.877,51.687
46,Upper Killay,-4.037,51.613
39,Oldwalls,-4.183,51.605
55,Nicholaston,-4.132,51.575
39,Pen-clawdd,-4.105,51.642
28,Pennard,-4.065,51.581
28,Craig-cefn-parc,-3.914,51.706
66,Overton,-4.218,51.544
24,Penllergaer,-4.007,51.671
94,Neath,-3.82,51.631
46,Port Talbot,-3.799,51.588
94,Pontardawe,-3.846,51.723
24,Baglan,-3.807,51.62
24,Kempston Hardwick,-0.496,52.087
33,Roxton,-0.315,52.177
55,Shortstown,-0.433,52.111
39,Swineshead,-0.45,52.28
24,Bletsoe,-0.504,52.213
24,Shelton,-0.485,52.308
24,Melchbourne,-0.495,52.275
28,Pen-y-fai,-3.591,51.524
28,Tythegston,-3.645,51.496
39,Pont Rhyd-y-cyff,-3.633,51.588
28,Cefn Cribwr,-3.641,51.532
160,Barry,-3.259,51.407
66,Penarth,-3.184,51.436
28,St Lythans,-3.283,51.449
66,Rhoose,-3.35,51.39
33,Llandow,-3.519,51.449
79,Southerndown,-3.61,51.453
112,Cowbridge,-3.45,51.461
55,St Mary Hill,-3.496,51.497
33,Ystradowen,-3.42,51.49
24,Penmark,-3.355,51.409
28,Flemingston,-3.414,51.42
66,Pendoylan,-3.354,51.481
46,Bonvilston,-3.346,51.457
24,Porthkerry,-3.322,51.392
24,Fancott,-0.516,51.938
55,Bourne End,-0.596,52.092
28,Milton Bryan,-0.587,51.963
39,Haynes,-0.394,52.066
28,Old Warden,-0.345,52.08
46,Ickwell,-0.322,52.096
24,Penmaenmawr,-3.921,53.268
46,Hafod-Dinbych,-3.653,53.067
39,Groes,-3.485,53.174
24,Llangwm,-3.538,52.989
39,Prestatyn,-3.415,53.328
160,Denbigh,-3.413,53.188
39,Graianrhyd,-3.168,53.097
28,Pentredwr,-3.192,53.011
134,Cynwyd,-3.402,52.96
28,Nantglyn,-3.488,53.148
79,Bryneglwys,-3.272,53.016
134,St Asaph,-3.446,53.259
55,Peniel,-3.449,53.158
28,Cwm,-3.401,53.286
55,Carrog,-3.325,52.983
28,Maeshafn,-3.192,53.141
134,Melin-y-Wig,-3.43,53.027
39,Rhuallt,-3.385,53.264
39,Rhewl,-3.33,53.135
24,Llangynhafal,-3.303,53.162
46,Rhuddlan,-3.467,53.293
66,Llanrhaeadr,-3.375,53.161
55,Nant-y-Patrick,-3.429,53.23
24,Bont-newydd,-3.476,53.227
39,Clawdd-newydd,-3.368,53.062
94,Ynyslas,-4.053,52.516
24,Glynarthen,-4.469,52.109
112,Pentregat,-4.406,52.139
55,Cribyn,-4.162,52.136
24,Bryngwyn,-4.486,52.079
24,Sarnau,-4.468,52.131
24,Cold Ash,-1.26,51.415
24,Frilsham,-1.215,51.454
28,Hamstead Marshall,-1.408,51.388
28,Greenham,-1.306,51.384
33,Leckhampstead,-1.37,51.484
66,Inkpen,-1.464,51.375
46,Stockcross,-1.377,51.413
33,Tidmarsh,-1.087,51.467
39,Upper Woolhampton,-1.171,51.405
39,Ashampstead,-1.186,51.488
24,Woodlands St Mary,-1.514,51.47
39,Eastbury,-1.5,51.491
33,World's End,-1.299,51.486
112,Chieveley,-1.314,51.462
685,Reading,-0.968,51.451
276,Slough,-0.597,51.515
79,Maidenhead,-0.729,51.524
66,Windsor,-0.627,51.478
79,Old Windsor,-0.581,51.452
39,Bray,-0.697,51.508
39,Fifield,-0.693,51.481
66,Flint,-3.133,53.246
33,Hawarden,-3.038,53.189
230,Holywell,-3.218,53.276
55,Mold,-3.142,53.166
66,Broughton,-2.988,53.164
39,Babell,-3.264,53.255
33,Llangovan,-2.784,51.747
39,Mathern,-2.687,51.617
46,Llanvair-Discoed,-2.796,51.627
24,Govilon,-3.063,51.816
79,Llangwm,-2.829,51.695
33,Croes y pant,-2.996,51.732
28,Greenmeadow,-2.959,51.705
112,Tregare,-2.845,51.788
46,Mitchel Troy,-2.734,51.789
28,Llandogo,-2.688,51.734
24,Pencroesoped,-2.996,51.759
79,Twyn-y-Sheriff,-2.857,51.745
28,Llanfoist,-3.03,51.812
39,Raglan,-2.849,51.765
28,Llanllowell,-2.878,51.683
28,Llandegveth,-2.956,51.656
24,Riseley,-0.959,51.364
24,Finchampstead,-0.855,51.363
24,Swallowfield,-0.962,51.377
33,Milton Keynes,-0.767,52.017
94,Newport Pagnell,-0.724,52.081
192,Olney,-0.704,52.158
24,Cosheston,-4.887,51.695
46,Cheriton,-4.906,51.638
79,Llantood,-4.691,52.044
33,Druidston,-5.092,51.807
33,Llandeloy,-5.113,51.897
192,Merrion,-4.976,51.632
28,Tegryn,-4.578,51.967
28,Maenclochog,-4.79,51.912
28,Whitchurch,-5.199,51.884
66,Llanteg,-4.637,51.76
28,Nevern,-4.795,52.024
55,Letterston,-4.995,51.926
46,Llanwnda,-5.012,52.011
112,Hayscastle,-5.06,51.888
39,Felindre Farchog,-4.77,52.014
28,Maiden Wells,-4.932,51.659
39,Tresinwen,-5.061,52.024
33,Marloes,-5.197,51.73
28,Wallis,-4.89,51.893
46,Jordanston,-5.031,51.951
46,Crymych,-4.646,51.972
39,Lambston,-5.038,51.809
46,Hasguard,-5.109,51.742
39,Capel Dewi,-4.258,52.058
46,Maes llyn,-4.383,52.075
33,Cellan,-4.032,52.119
397,Lampeter,-4.081,52.115
39,Llanrhystud,-4.141,52.306
134,Pont Llanio,-3.971,52.194
66,Blaenpennal,-4.007,52.259
39,Temple Bar,-4.139,52.166
79,Ffair-Rhos,-3.848,52.296
33,Trefilan,-4.121,52.193
24,Llanafan,-3.927,52.333
24,Ystradmeurig,-3.898,52.291
28,Rhodmad,-4.066,52.349
24,Llangeitho,-4.019,52.218
39,Ysbyty Cynfyn,-3.835,52.394
79,Risca,-3.093,51.607
46,Bargoed,-3.233,51.688
33,Pontllanfraith,-3.182,51.655
24,Bedwas,-3.193,51.595
46,Rhymney,-3.276,51.758
33,Abertridwr,-3.269,51.594
94,Talacre,-3.318,53.352
28,New Brighton,-3.116,53.18
79,Ysceifiog,-3.271,53.234
28,Brynford,-3.228,53.26
24,Llanasa,-3.342,53.323
66,Trelawnyd,-3.366,53.309
24,Sealand,-2.968,53.213
24,Flint Mountain,-3.137,53.226
28,Ffrith,-3.067,53.091
24,Nannerch,-3.248,53.217
66,Pen-y-cefn,-3.331,53.266
66,Rhosesmor,-3.176,53.211
33,Rhes-y-cae,-3.213,53.231
55,Cilcain,-3.231,53.179
28,Llanfynydd,-3.075,53.104
24,Rhydtalog,-3.142,53.089
33,Penyffordd,-3.041,53.148
39,Nercwys,-3.146,53.137
24,Llong,-3.102,53.155
28,Sandycroft,-2.996,53.197
46,Spittal,-4.941,51.867
46,Manorbier,-4.793,51.647
39,Tavernspite,-4.64,51.782
24,Bow Brickhill,-0.681,52.002
28,Calverton,-0.849,52.043
24,North Crawley,-0.648,52.093
39,Gayhurst,-0.761,52.111
55,Hardmead,-0.634,52.118
33,Chicheley,-0.682,52.105
33,Warrington,-0.689,52.177
33,Ravenstone,-0.758,52.148
33,Moulsoe,-0.676,52.069
39,Newton Blossomville,-0.652,52.154
28,Little Linford,-0.769,52.091
94,Hanslope,-0.828,52.115
24,Little Brickhill,-0.678,51.982
28,Portslade-by-Sea,-0.222,50.847
66,Woodingdean,-0.075,50.837
39,Craignant,-3.113,52.907
46,Horseman's Green,-2.822,52.965
39,Plas Nantyr,-3.26,52.926
46,Bronington,-2.765,52.95
112,Yafford,-1.365,50.634
24,Alverstone,-1.184,50.665
24,Calbourne,-1.398,50.678
24,Newbridge,-3.143,51.671
28,Thornhill,-3.212,51.553
39,Machen,-3.139,51.599
28,Deri,-3.263,51.708
33,Rudry,-3.158,51.575
28,Ystrad Mynach,-3.238,51.639
55,New Tredegar,-3.239,51.721
28,Manmoel,-3.182,51.722
28,Argoed,-3.193,51.692
33,Draethen,-3.124,51.58
39,Fochriw,-3.295,51.736
24,Llanbradach,-3.228,51.61
33,Wattsville,-3.147,51.616
24,Markham,-3.206,51.702
39,Llechrhyd,-3.292,51.777
46,Llanfabon,-3.288,51.634
24,Pontywaun,-3.126,51.629
28,Abertysswg,-3.26,51.743
46,Kintbury,-1.449,51.398
24,Halfway,-1.415,51.413
28,South Fawley,-1.437,51.518
46,Great Shefford,-1.448,51.473
33,Cold Blow,-4.723,51.781
24,Manorowen,-5.013,51.985
55,Newgale,-5.124,51.858
33,Saundersfoot,-4.704,51.706
28,Nolton Haven,-5.105,51.825
24,Robeston Wathen,-4.775,51.807
79,Narberth,-4.743,51.8
46,Manorbier Newton,-4.828,51.664
33,Pontfaen,-4.874,51.969
55,Angle,-5.092,51.683
46,Carew Cheriton,-4.827,51.69
28,Penally,-4.728,51.659
24,Jeffreyston,-4.768,51.724
24,Bethesda,-4.77,51.827
24,Pen-y-bryn,-4.659,52.053
24,Rosebush,-4.804,51.929
28,Lamphey,-4.872,51.666
24,Lower Freystrop,-4.961,51.773
46,Trecwn,-4.953,51.954
55,Undy,-2.82,51.583
28,Llanvihangel-Ystern-Llewern,-2.822,51.821
24,Llanhennock,-2.935,51.629
39,Itton Common,-2.742,51.662
66,Llantilio Crossenny,-2.875,51.828
28,Pen-twyn,-2.693,51.779
33,Rhostyllen,-3.02,53.029
55,Bettisfield,-2.8,52.912
28,Worthenbury,-2.863,53.01
33,Borras Head,-2.95,53.074
24,Froncysyllte,-3.086,52.963
28,Bwlchgwyn,-3.098,53.074
24,Talwrn,-3.05,53.026
28,Knolton,-2.923,52.943
28,Bowling Bank,-2.897,53.031
33,Marchwiel,-2.959,53.024
33,Higher Wych,-2.747,52.986
66,Erbistock,-2.964,52.972
33,Penley,-2.868,52.949
55,Tallarn Green,-2.827,52.992
112,Rossett,-2.941,53.11
24,Llechrydau,-3.152,52.899
33,Llan-y-pwll,-2.927,53.061
33,Lightwood Green,-2.916,52.961
55,Reynalton,-4.766,51.742
33,Newchapel,-4.584,52.024
33,Stepaside,-4.698,51.738
66,Tretio,-5.223,51.913
39,Downend,-1.246,50.687
28,Bowcombe,-1.336,50.679
24,Blackwater,-1.282,50.674
46,Whippingham,-1.271,50.74
24,Brighstone,-1.399,50.641
24,St Helens,-1.111,50.697
46,Wroxall,-1.223,50.616
276,Holyhead,-4.633,53.308
94,Llangefni,-4.31,53.255
28,Llandegfan,-4.144,53.241
79,Rhosneigr,-4.519,53.231
66,Penmon,-4.057,53.307
66,Llanbabo,-4.44,53.356
94,Llanafan-fawr,-3.508,52.187
33,Staylittle,-3.641,52.518
79,Pentre,-3.373,52.465
28,Garth,-3.529,52.134
39,Castle Caereinion,-3.236,52.64
66,Pentre Dolau Honddu,-3.467,52.083
55,Llansilin,-3.172,52.844
28,Kinnerton,-3.107,52.261
46,Geufron,-3.646,52.457
55,Beech Hill,-1,51.371
33,Southend,-1.143,51.431
28,Avington,-1.466,51.411
39,Wasing,-1.173,51.374
33,Boxford,-1.385,51.441
55,Brightwalton,-1.384,51.509
66,Welford,-1.412,51.454
28,Chaddleworth,-1.406,51.494
66,Bucklebury,-1.204,51.433
28,West Ilsley,-1.318,51.539
55,Combe,-1.468,51.345
28,Goldfinch Bottom,-1.28,51.373
24,Fawley,-1.435,51.529
24,Sheffield Bottom,-1.066,51.424
39,Longlane,-1.282,51.444
24,Winterbourne,-1.345,51.447
24,Beedon,-1.3,51.498
28,Upper Lambourn,-1.544,51.52
33,Ffordd-las,-3.314,53.173
33,Hirwaen,-3.289,53.142
55,Llangollen,-3.166,52.969
33,Dyserth,-3.412,53.299
28,Clawdd Poncen,-3.378,52.991
28,Glascoed,-3.507,53.255
33,Bettws Gwerfil Goch,-3.442,53.01
24,Prion,-3.414,53.151
33,Newcastle,-2.801,51.853
33,Trellech,-2.721,51.745
28,Llangattock-Vibon-Avel,-2.787,51.838
28,Kemeys Commander,-2.944,51.738
33,Dingestow,-2.786,51.789
24,Llansoy,-2.805,51.719
24,Grosmont,-2.867,51.916
33,Llanishen,-2.758,51.726
24,Llanddewi Rhydderch,-2.94,51.81
33,Llandenny,-2.848,51.731
46,Gilwern,-3.091,51.828
33,Newbridge on Usk,-2.888,51.648
24,Monkswood,-2.947,51.718
33,Coed-y-paen,-2.962,51.681
66,Hoaldalbert,-2.874,51.904
33,Nant-y-derry,-2.971,51.75
39,Hurley,-0.81,51.545
24,Horton,-0.542,51.474
66,White Waltham,-0.775,51.486
28,Eton Wick,-0.635,51.498
46,Cookham Rise,-0.726,51.555
39,Shurlock Row,-0.806,51.464
24,Cheapside,-0.645,51.417
24,Burchett's Green,-0.792,51.524
24,Hythe End,-0.538,51.444
112,Talbenny,-5.131,51.763
24,Welsh Hook,-5.003,51.909
112,Dale,-5.172,51.705
46,Tangiers,-4.962,51.823
46,Wiston,-4.871,51.824
33,Leweston,-4.993,51.863
28,Rosemarket,-4.965,51.737
24,Goodwick,-4.997,52.002
79,Minwear,-4.844,51.78
39,Bosherston,-4.939,51.613
24,Wolfsdale,-5.004,51.851
39,Llanychaer,-4.933,51.978
24,Boncath,-4.615,52.014
66,Treffynnon,-5.128,51.914
55,Mathry,-5.086,51.944
24,Haroldston West,-5.096,51.795
33,Whitehill,-4.818,51.707
94,Usk,-2.902,51.702
66,Cross Ash,-2.862,51.873
112,Forest Coal Pit,-3.035,51.88
24,Bettws,-3.019,51.869
33,Llanellen,-3.013,51.793
39,Gaer-fawr,-2.808,51.679
39,Llangattock Nigh Usk,-2.97,51.782
160,Rhayader,-3.509,52.302
66,Crewgreen,-3.002,52.733
24,Manafon,-3.31,52.613
39,Pant-y-Dwr,-3.493,52.364
33,Rhos-y-meirch,-3.058,52.318
39,Glangrwyney,-3.108,51.844
33,Llwynderw,-3.167,52.625
28,Bryngwyn,-3.186,52.139
24,Brooks,-3.265,52.584
33,Llandeilo Graban,-3.322,52.094
46,Felindre,-3.223,52.421
46,Crug,-3.186,52.343
28,Cefn Coch,-3.324,52.828
33,Tredomen,-3.279,51.975
46,Llanbedr,-3.104,51.876
94,Pandy-rhiw-Saeson,-3.619,52.627
66,Dolanog,-3.382,52.705
24,Newchurch,-3.145,52.149
55,Cemmaes,-3.714,52.641
46,Llanfihangel Rhydithon,-3.245,52.292
33,Glascwm,-3.229,52.171
46,Tai'r Bull,-3.464,51.923
28,Ynyswen,-3.69,51.804
24,Sennybridge,-3.567,51.948
46,Mynachlog-ddu,-4.7,51.937
192,Carmarthen,-4.313,51.859
39,Ammanford,-3.98,51.791
28,Clocaenog,-3.367,53.076
33,Rhewl,-3.218,52.995
24,Graig,-3.371,53.238
33,Bodfari,-3.356,53.221
46,Glyndyfrdwy,-3.265,52.974
28,Berwyn,-3.194,52.981
33,Eryrys,-3.189,53.114
46,Llanfair Dyffryn Clwyd,-3.292,53.088
39,Rhyd-y-meudwy,-3.298,53.05
39,Bontuchel,-3.367,53.111
46,Saron,-3.449,53.135
24,Llangwyfan,-3.312,53.186
28,Bryn Saith Marchog,-3.376,53.04
28,Nilig,-3.454,53.084
24,Llanbedr-Dyffryn-Clwyd,-3.275,53.127
66,Llandegla,-3.197,53.059
79,Llandrillo,-3.437,52.921
39,Henllan,-3.46,53.203
33,Bodelwyddan,-3.504,53.269
79,Buckley,-3.078,53.169
66,Rhydroser,-4.107,52.288
55,Bont-goch,-3.938,52.459
112,Milford Haven,-5.035,51.719
571,Haverfordwest,-4.98,51.798
79,Pembroke Dock,-4.941,51.689
33,Pembroke,-4.914,51.676
24,Herbrandston,-5.087,51.724
33,Gelli,-4.786,51.84
39,Datchet,-0.576,51.481
28,Bisham,-0.777,51.557
24,Paley Street,-0.741,51.477
55,Wokingham,-0.839,51.408
66,Crowthorne,-0.798,51.374
46,Winnersh,-0.88,51.43
33,Sonning,-0.91,51.473
28,Barkham,-0.875,51.391
39,Hurst,-0.855,51.452
24,Arborfield,-0.917,51.4
46,Wargrave,-0.863,51.5
24,Farley Hill,-0.917,51.373
24,Spencers Wood,-0.963,51.394
33,Cockpole Green,-0.852,51.518
24,Greenfield,-3.207,53.288
55,Downing,-3.269,53.298
28,Bagillt,-3.171,53.267
39,Ffynnongroyw,-3.3,53.329
33,Gorsedd,-3.269,53.28
24,Soughton,-3.132,53.19
24,Clydach,-3.123,51.812
33,Llanvetherine,-2.922,51.849
24,Llantillio Pertholey,-3,51.841
66,Newmills,-2.703,51.764
79,Earlswood,-2.805,51.656
28,Pen-clawdd,-2.793,51.767
112,Llanthony,-3.033,51.944
24,Llangua,-2.878,51.927
28,Penrhos,-2.846,51.802
24,Llangattock Lingoed,-2.927,51.876
39,Llantrisant,-2.879,51.668
39,Gwernesney,-2.843,51.712
28,Highmoor Hill,-2.778,51.602
160,Newport,-2.99,51.571
39,Caerleon,-2.959,51.614
33,Rogerstone,-3.064,51.595
33,Broadstreet Common,-2.927,51.56
28,Parc-Seymour,-2.855,51.621
46,Underwood,-2.885,51.597
46,Whitson,-2.892,51.546
39,Rottingdean,-0.057,50.807
24,Ovingdean,-0.072,50.817
55,Portsmouth,-1.07,50.808
112,Newport,-1.299,50.697
94,Ventnor,-1.224,50.591
24,Glyn-teg,-4.387,52.014
33,Nantycaws,-4.238,51.841
28,Talog,-4.427,51.902
28,Whitland,-4.608,51.818
28,Dre-fach,-3.957,51.828
28,Llanfallteg,-4.677,51.846
79,Llandyfaelog,-4.298,51.78
112,Cwrt-y-cadno,-3.91,52.079
94,Llandawke,-4.486,51.772
79,Llandeilo,-3.996,51.881
112,St Clears,-4.501,51.818
39,Felingwmuchaf,-4.167,51.901
39,Llanwrda,-3.875,51.966
28,Llanarthne,-4.131,51.86
39,Brechfa,-4.145,51.951
33,Edwinsford,-3.993,51.994
39,Michaelston-y-Fedw,-3.093,51.554
24,Nash,-2.946,51.549
28,Marshfield,-3.066,51.532
66,St Brides Wentlooge,-3.018,51.535
33,Redwick,-2.846,51.553
28,Bishton,-2.879,51.584
39,Lampeter Velfrey,-4.676,51.796
55,Moylgrove,-4.748,52.067
39,St Brides,-5.192,51.748
24,Scolton,-4.92,51.859
33,Llanycefn,-4.763,51.876
39,Trevine,-5.146,51.949
39,Neyland,-4.95,51.711
46,New Moat,-4.816,51.893
46,Llangwm,-4.916,51.749
28,Wolf's Castle,-4.973,51.901
33,Hook,-4.93,51.763
55,Lawrenny,-4.871,51.725
24,Houghton,-4.92,51.724
24,Redberth,-4.778,51.702
66,Johnston,-4.996,51.757
33,Roch,-5.084,51.847
55,Llawhaden,-4.805,51.817
24,St Nicholas,-5.059,51.979
24,Llanddewi Velfrey,-4.687,51.82
79,Parrog,-4.849,52.019
39,Panteg,-5.023,51.972
24,Tredegar,-3.247,51.778
24,Brynmawr,-3.176,51.8
134,Abertilleryi,-3.137,51.736
24,Nantyglo,-3.17,51.784
55,Blaina,-3.157,51.763
33,Cwm,-3.179,51.74
46,Llanhilleth,-3.13,51.701
55,Trefil,-3.276,51.806
24,Hendre,-3.205,53.201
28,Caerwys,-3.305,53.248
28,Northop,-3.127,53.21
28,Gronant,-3.357,53.339
24,Trelogan,-3.323,53.31
55,Pontybodkin,-3.088,53.125
160,Wrexham,-2.984,53.053
79,Rhosllannerchrugog,-3.048,53.01
66,Cefn-mawr,-3.075,52.976
28,Brymbo,-3.054,53.077
33,Gresford,-2.964,53.089
28,Coedpoeth,-3.068,53.054
28,Llay,-2.998,53.096
33,Crosswell,-4.733,51.994
33,Ludchurch,-4.694,51.763
39,Martletwy,-4.847,51.76
24,Treglemais,-5.173,51.915
28,Dinas Cross,-4.904,52.01
46,Chillerton,-1.31,50.653
39,Shalcombe,-1.439,50.671
46,Porchfield,-1.364,50.716
28,Wootton Bridge,-1.231,50.726
33,Little Atherfield,-1.348,50.619
46,Hamstead,-1.434,50.721
28,Branstone,-1.214,50.65
33,Luccombe Village,-1.177,50.615
39,Bierley,-1.279,50.6
33,Shalfleet,-1.416,50.699
24,Yarbridge,-1.144,50.674
33,Arreton,-1.235,50.672
46,Seaview,-1.112,50.717
94,Bembridge,-1.081,50.688
24,Newbridge,-1.418,50.688
46,Mottistone,-1.428,50.651
28,Hanmer,-2.811,52.952
39,Crabtree Green,-2.988,52.997
39,Llanarmon Dyffryn Ceiriog,-3.253,52.886
134,Pandy,-3.196,52.914
28,Isycoed,-2.891,53.047
39,Llwynmawr,-3.155,52.924
33,Pentre,-3.285,52.906
160,Ystradgynlais,-3.748,51.784
28,Peterstone Wentlooge,-3.055,51.516
24,Castleton,-3.078,51.543
33,Cat's Ash,-2.907,51.611
24,Rhiwderin,-3.066,51.582
39,Creigiau,-3.323,51.524
33,Capel Llanilltern,-3.303,51.512
66,Newton,-3.097,51.504
24,Tongwynlais,-3.245,51.534
33,Brynsiencyn,-4.274,53.181
79,Newborough,-4.358,53.168
46,Capel Coch,-4.313,53.317
39,Aberffraw,-4.466,53.193
33,Maenaddwyn,-4.315,53.333
28,Backhill,-2.353,57.448
79,Affleck,-2.229,57.302
112,Culdrain,-2.801,57.392
39,Greystone,-2.935,57.053
28,Glenkindie,-2.936,57.212
24,Lumsden,-2.874,57.284
46,Whiteford,-2.469,57.325
24,Slacks of Cairnbanno,-2.25,57.508
66,Balmedie,-2.056,57.25
39,Whinnyfold,-1.868,57.389
28,Hillhead,-2.706,57.408
33,Redhill,-2.37,57.13
112,Weachyburn,-2.617,57.599
33,Easter Whyntie,-2.632,57.675
33,Keilhill,-2.482,57.626
66,Bonnyton,-2.539,57.367
28,Dykeside,-2.462,57.482
33,Inverallochy,-1.932,57.674
66,Longhaven,-1.832,57.445
134,Balgaveny,-2.568,57.457
66,Edzell Woods,-2.621,56.816
46,Gordonstown,-2.732,57.594
24,Achath,-2.445,57.189
46,Kirkton,-2.597,57.316
33,Skelmonae,-2.192,57.442
94,Mondynes,-2.362,56.903
46,Littlemill,-3.116,57.048
24,Tannachie,-2.354,56.945
24,Denend,-2.664,57.431
66,Toll of Birness,-1.994,57.403
55,Mains of Dellavaird,-2.425,56.926
134,Newburgh,-2.057,57.621
24,Little Lynturk,-2.7,57.202
79,Mains of Balnakettle,-2.616,56.862
46,Gateside,-2.633,57.234
33,Allanaquoich,-3.45,57.004
79,Old Kinnernie,-2.459,57.175
39,Dykelands,-2.487,56.811
24,Blackhall,-2.544,57.053
39,Dounepark,-2.478,57.651
79,Mains of Kirktonhill,-2.497,56.785
28,Mains of Laithers,-2.541,57.532
230,Laurencekirk,-2.467,56.833
160,Belnacraig,-3.034,57.235
66,Marywell,-2.691,57.049
66,Ironside,-2.199,57.559
33,Craigearn,-2.464,57.217
28,Maud,-2.134,57.52
79,Nethermuir,-2.147,57.485
39,Birkenhills,-2.424,57.498
39,Little Dens,-1.882,57.487
46,Crossroads,-2.411,57.038
28,Balthangie,-2.277,57.554
46,Muirskie,-2.287,57.053
28,Abergeldie,-3.172,57.04
39,Milltown of Towie,-2.896,57.202
24,Nether Crimond,-2.294,57.292
79,Inverbervie,-2.281,56.844
46,Rosehearty,-2.116,57.697
55,Folla Rule,-2.449,57.387
28,Tarland,-2.857,57.127
33,Newtonhill,-2.153,57.035
28,Arthrath,-2.058,57.419
24,Easterton of Auchleuchries,-1.975,57.417
55,Lunderton,-1.827,57.538
24,Jackstown,-2.413,57.373
39,Muiryfold,-2.393,57.551
46,Milton of Campfield,-2.583,57.095
33,Sauchen,-2.499,57.188
28,Port Elphinstone,-2.373,57.271
24,Muirtack,-2.012,57.428
33,Old Crombie,-2.678,57.547
46,Myrebird,-2.427,57.08
33,Fettercairn,-2.578,56.85
33,Tullynessle,-2.735,57.265
134,Bush Crathie,-3.23,57.053
79,Howe of Teuchar,-2.346,57.511
66,Cobairdy,-2.709,57.481
33,Dumeath,-2.959,57.422
39,Durno,-2.477,57.344
79,The Birks,-2.426,57.112
28,Woodlands,-2.349,57.054
66,Percie,-2.67,57.017
112,Ardallie,-1.987,57.442
55,Blackdog,-2.071,57.218
24,Denhead,-1.998,57.562
33,Wester Ord,-2.296,57.134
160,Aucholzie,-3.083,57.001
46,Flushing,-1.911,57.512
39,Meikle Wartle,-2.466,57.368
33,Drumligair,-2.164,57.237
66,Comers,-2.543,57.156
94,Muckletown,-2.711,57.285
46,Clatt,-2.766,57.321
24,Coilacriech,-3.116,57.059
79,Burnend,-2.27,57.459
46,Invergelder,-3.249,57.03
66,Memsie,-2.051,57.652
28,The Haughs,-2.822,57.53
33,Cairnbrogie,-2.25,57.332
33,Grantlodge,-2.493,57.246
79,Petty,-2.396,57.417
39,Fedderate,-2.179,57.542
33,Fiddes,-2.31,56.922
28,Muirden,-2.495,57.569
28,Daviot,-2.418,57.343
79,Mergie,-2.336,56.989
28,Drumlassie,-2.594,57.14
94,Heugh-head,-3.024,57.19
39,Causeyend,-2.091,57.268
39,Scotston,-2.437,56.855
112,Mintlaw,-2.003,57.523
24,Cottown,-2.819,57.327
66,King Edward,-2.479,57.61
28,Potarch,-2.648,57.062
39,East Auchronie,-2.303,57.178
160,Insch,-2.616,57.342
24,Milton of Coldwells,-2.074,57.44
24,Delfrigs,-2.053,57.28
28,Ardoyne,-2.574,57.336
28,Bainshole,-2.653,57.404
28,Arbuthnott,-2.332,56.871
33,Drumblair,-2.619,57.478
28,Clunie,-2.612,57.54
46,Steinmanhill,-2.39,57.468
230,Huntly,-2.787,57.447
33,Lochside,-2.431,56.774
28,Cornhill,-2.697,57.612
66,Rora,-1.901,57.547
28,Bonnykelly,-2.231,57.571
33,Lauchintilly,-2.421,57.204
28,Inch of Arnhall,-2.618,56.83
33,Cairnpark,-2.27,57.255
112,Glas-allt-Shiel,-3.19,56.929
66,Clova,-2.906,57.29
79,Kintore,-2.346,57.234
46,Glencat,-2.76,57.027
55,New Aberdour,-2.193,57.659
39,Fortrie,-2.066,57.457
24,Tomintoul,-3.403,56.998
28,Kennethmont,-2.768,57.348
24,Broomfield,-2.073,57.38
55,East Davoch,-2.883,57.154
33,Bracklamore,-2.26,57.612
28,Hirn,-2.444,57.092
28,Sauchieburn,-2.551,56.819
46,Tewel,-2.285,56.96
24,Percyhorner,-2.068,57.678
33,Ruthven,-2.825,57.508
55,Clatterin' Brig,-2.554,56.894
55,Glenton,-2.591,57.27
55,Strachan,-2.539,57.021
39,Hardgate,-2.347,57.105
55,Auchlossan,-2.71,57.107
66,Succoth,-2.956,57.406
33,Kinneff,-2.238,56.867
33,Lochton,-2.405,57.022
66,Kemnay,-2.445,57.235
39,Rothmaise,-2.532,57.386
24,Crimond,-1.915,57.601
24,Gordonstown,-2.478,57.436
46,Inveramsay,-2.431,57.306
33,Keyhead,-1.882,57.593
55,Pennan,-2.26,57.678
24,Skelmuir,-2.035,57.475
39,Montgarrie,-2.703,57.25
24,Auchiries,-1.866,57.431
28,Gartly,-2.796,57.378
33,Migvie,-2.931,57.147
33,Aquhythie,-2.423,57.257
39,Bogton,-2.541,57.553
2042,Aberdeen,-2.123,57.16
79,Cults,-2.188,57.118
46,Bucksburn,-2.171,57.179
39,Peterculter,-2.265,57.099
66,Cove Bay,-2.087,57.102
112,Aberdeen Airport,-2.215,57.205
39,Kingswells,-2.218,57.152
46,Greenspot,-2.333,57.373
55,Drumwhindle,-2.124,57.418
39,Slioch,-2.731,57.434
33,Tillathrowie,-2.882,57.403
66,Fiddler's Green,-1.935,57.627
79,Wedderlairs,-2.245,57.386
28,Birse,-2.729,57.061
66,Adziel,-2.089,57.569
39,Tillyfour,-2.671,57.182
28,Drumblade,-2.691,57.45
24,Culsh,-2.191,57.529
24,Carnie,-2.323,57.142
55,Benholm,-2.321,56.815
33,Spittal of Glenmuick,-3.137,56.951
24,Drums,-2.027,57.295
39,Crathes,-2.411,57.059
39,Drymuir,-2.151,57.505
28,Boghead,-2.629,57.022
39,Hillockhead,-3.018,57.171
134,Netherbrae,-2.344,57.624
33,New Pitsligo,-2.198,57.593
33,Fordyce,-2.745,57.662
46,Bailiesward,-2.884,57.422
24,Banchory-Devenick,-2.155,57.111
24,East Cairnbeg,-2.476,56.881
39,Badentoy Park,-2.155,57.07
24,Backfolds,-1.96,57.564
46,Kirkton of Maryculter,-2.236,57.083
28,Cairnborrow,-2.9,57.453
24,Inverquhomery,-1.967,57.508
28,Douneside,-2.857,57.141
33,Darra,-2.43,57.514
28,Kincardine O' Neil,-2.672,57.086
28,Thomastown,-2.708,57.421
39,Hatton of Fintray,-2.268,57.239
46,Ordhead,-2.549,57.187
33,Rothiebrisbane,-2.425,57.43
28,Glenbervie,-2.383,56.916
24,Oldtown,-2.699,57.35
39,Garmond,-2.324,57.557
24,Boultenstone,-2.974,57.185
24,Udny Green,-2.198,57.327
39,Rorandle,-2.572,57.253
46,Easter Culfosie,-2.427,57.154
66,Auchininna,-2.59,57.511
46,Old Rattray,-1.854,57.611
55,Fetterangus,-2.022,57.548
28,Rothienorman,-2.467,57.412
46,Mossat,-2.872,57.26
39,Ythanbank,-2.156,57.396
33,Fordoun,-2.415,56.875
46,Udny Station,-2.154,57.309
33,Auquhorthies,-2.279,57.355
24,Shanquhar,-2.764,57.408
46,Kinknockie,-1.991,57.465
46,Mains of Crichie,-2.044,57.496
24,Torterston,-1.874,57.52
55,Ladysford,-2.161,57.636
39,Bridge of Canny,-2.569,57.065
24,Gourdon,-2.285,56.829
33,Muir,-3.538,56.988
39,Chapel Hill,-1.887,57.412
24,Glasslaw,-2.236,57.625
28,Keig,-2.649,57.26
33,Greenlaw,-2.538,57.612
28,Torphins,-2.625,57.105
55,Ordie,-2.904,57.103
66,Auchallater,-3.387,56.978
39,Tulloch,-2.38,56.836
28,Aulton,-2.662,57.349
33,Rathen,-2,57.637
39,Bridgend,-2.809,57.41
33,Annochie,-2.103,57.473
46,Auchterderran,-3.259,56.142
24,Saline,-3.573,56.114
33,Charlestown,-3.498,56.037
24,Drumeldrie,-2.9,56.218
134,Glasgow,-4.232,55.801
986,Inverness,-4.231,57.464
1419,Fort William,-5.103,56.819
24,Achreamie,-3.697,58.577
28,Allt nan Sugh,-5.487,57.311
134,Nedd,-5.175,58.236
134,Invershin,-4.409,57.938
28,Uiginish,-6.597,57.442
33,Fisherton,-4.093,57.535
112,Coldbackie,-4.38,58.504
33,Camascross,-5.806,57.136
33,Strathcarron,-5.429,57.423
476,Claonel,-4.438,58.008
46,Balblair,-4.172,57.673
331,Polloch,-5.611,56.757
24,North Watten,-3.312,58.511
276,Tofts,-3.087,58.596
24,Contullich,-4.288,57.704
46,Savary,-5.848,56.546
79,Cove,-5.696,57.852
28,Tarbet,-5.138,58.387
28,Dunan,-6.006,57.277
46,Ardvasar,-5.909,57.059
28,Westfield,-3.615,58.555
24,Achaphubuil,-5.14,56.835
94,Kilchoan,-6.103,56.698
134,Croick,-4.599,57.885
28,Cantraydoune,-4.018,57.49
79,Drynoch,-6.311,57.301
28,Pitforthie,-2.313,56.905
66,Gowanhill,-1.951,57.657
46,Clardon,-3.459,58.595
94,Clachan,-5.071,57.815
134,Glasnakille,-6.073,57.141
79,Portclair,-4.625,57.186
112,Orbost,-6.567,57.395
476,Coulags,-5.399,57.45
28,Tomich,-4.181,57.71
24,Harlois,-6.515,57.385
24,Maligar,-6.215,57.602
46,Achiltibuie,-5.342,58.02
134,Blar a' Chaorainn,-5.107,56.753
28,Dalhalvaig,-3.896,58.467
94,Ardross,-4.327,57.738
66,Hunspow,-3.348,58.636
112,Achintraid,-5.598,57.387
66,Golval,-3.892,58.532
66,Nigg,-4.008,57.718
24,Cromdale,-3.538,57.337
24,Little Gruinard,-5.468,57.85
66,Braemore,-3.57,58.251
112,Rhifail,-4.179,58.415
33,Killiemor,-6.082,56.483
24,Ardnacross,-5.996,56.571
28,Friesland,-6.581,56.599
55,North Shian,-5.387,56.535
24,Kellan,-6.029,56.494
24,Garbhallt,-5.185,56.115
192,Baligrundle,-5.516,56.507
55,Beacharr,-5.664,55.629
28,Reraig,-5.626,57.283
39,Glenmore,-6.263,57.379
79,Culbo,-4.281,57.614
24,Kirk,-3.24,58.518
66,Tore,-4.329,57.541
79,Claigan,-6.618,57.488
476,Kilkenneth,-6.968,56.493
112,Middle Cragabus,-6.248,55.627
94,Arichonan,-5.577,56.058
66,Achnashelloch,-5.457,56.07
24,Kilberry,-5.649,55.817
28,Ardrishaig,-5.45,56.016
24,Kilninian,-6.231,56.532
46,Barnacabber,-4.925,56.057
55,Killbeg,-5.899,56.505
28,Port Ann,-5.361,56.028
55,Crinan,-5.56,56.089
79,Erines,-5.427,55.923
24,Rahane,-4.84,56.05
28,Castleton,-5.399,56.009
331,Lagganulva,-6.136,56.493
39,Southend,-5.641,55.315
79,Kilchoman,-6.44,55.782
24,Pennygown,-5.904,56.515
160,Crossaig,-5.453,55.705
79,Ballymeanoch,-5.478,56.108
39,Middle Kames,-5.344,56.05
46,Nerabus,-6.416,55.71
112,Tullochgorm,-5.268,56.108
230,Blackrock,-6.299,55.787
24,Sandhole,-5.204,56.147
33,Lee,-6.193,56.311
46,Lossit,-6.485,55.72
33,Lower Killeyan,-6.323,55.606
331,Carsaig,-5.979,56.324
46,Burg,-6.17,56.362
276,Cleongart,-5.695,55.545
24,Cornabus,-6.236,55.641
46,West Tarbert,-5.437,55.853
94,Bunnahabhain,-6.126,55.881
24,Slockavullin,-5.498,56.118
192,Kilfinan,-5.309,55.957
94,Stuckgowan,-4.704,56.191
79,Kintour,-6.046,55.688
46,Machrihanish,-5.733,55.421
28,Claonaig,-5.393,55.757
24,South Shian,-5.401,56.522
66,Cretshengan,-5.654,55.841
94,Eorabus,-6.238,56.332
79,Otter Ferry,-5.32,56.006
24,Bonhill,-4.563,55.979
94,Gartocharn,-4.523,56.043
33,Blairquhomrie,-4.532,56.007
24,Caldarvan,-4.512,56.032
46,Bowling,-4.478,55.934
46,Ardanaiseig,-5.096,56.378
134,Carradale,-5.468,55.592
24,Musdale,-5.341,56.347
28,Achallader,-4.737,56.565
28,Balliemore,-5.117,56.015
112,Calgary,-6.274,56.584
134,Monreith,-4.545,54.737
46,Newtonairds,-3.756,55.105
39,Maryport,-4.882,54.672
79,Parkgate,-3.532,55.179
134,Anwoth,-4.21,54.88
46,Little Duchrae,-4.084,54.997
66,Straith,-3.821,55.176
46,Kirkconnel,-3.994,55.382
55,Milton,-3.803,55.015
24,Applegarthtown,-3.404,55.144
39,Carronbridge,-3.78,55.262
24,Orroland,-3.909,54.799
55,Tynron,-3.875,55.216
33,Castlefairn,-3.984,55.161
39,Townhead of Greenlaw,-3.969,54.962
94,Sibbaldbie,-3.339,55.176
33,Auldgirth,-3.706,55.163
112,Culcronchie,-4.327,54.927
24,Springfield,-3.055,55.007
39,Auchengruith,-3.858,55.364
28,Cample,-3.729,55.227
55,Barraer,-4.52,54.925
39,Portpatrick,-5.114,54.844
66,Spittal,-4.551,54.889
112,Ericstane,-3.462,55.383
476,Dumfries,-3.608,55.069
685,Stranraer,-5.024,54.899
230,Annan,-3.254,54.987
66,Locharbriggs,-3.58,55.106
39,Crocketford,-3.83,55.035
24,Lochans,-5.012,54.869
39,Locherben,-3.642,55.257
46,Innermessan,-4.987,54.927
55,Balmaclellan,-4.11,55.089
39,Bogue,-4.122,55.108
24,Cumloden,-4.469,54.979
33,Big Balcraig,-4.517,54.764
112,Carrutherstown,-3.401,55.035
79,Cairngarroch,-5.021,54.805
66,Airieland,-3.936,54.892
24,Moniaive,-3.919,55.195
46,Hightae,-3.418,55.096
192,Craigenputtock,-3.927,55.12
55,Bankshill,-3.266,55.126
33,Leswalt,-5.094,54.931
28,Keir Mill,-3.794,55.218
160,Crofts,-3.892,55.047
55,Corsock,-3.946,55.066
134,Glencrosh,-3.95,55.18
39,Creetown,-4.375,54.902
55,Stoneykirk,-4.977,54.837
55,Gordieston,-3.802,55.136
55,Pitkevy,-3.214,56.219
24,Kingseat,-3.406,56.099
46,Letham,-3.119,56.316
79,Rathillet,-3.027,56.376
94,Auchtermuchty,-3.231,56.292
46,Kettlehill,-3.089,56.256
94,Montrave,-3,56.246
33,Dairsie,-2.949,56.345
39,Baltersan,-4.461,54.923
39,Rascarrel,-3.871,54.814
24,Causeway End,-4.466,54.911
24,Millhousebridge,-3.402,55.156
46,Glenluce,-4.806,54.876
94,Johnstonebridge,-3.415,55.213
192,Nairn,-3.878,57.583
160,Dingwall,-4.435,57.602
79,Harris,-6.382,56.976
24,Balgy,-5.6,57.527
79,Craig,-5.276,57.494
55,Mudale,-4.504,58.286
39,Boor,-5.634,57.771
28,Loandhu,-3.997,57.782
94,Easter Galcantray,-3.984,57.507
24,Lonemore,-4.078,57.869
79,Banchor,-3.814,57.445
24,Penifiler,-6.182,57.394
46,Park Bernisdale,-6.334,57.477
79,Ardchuilk,-4.884,57.401
28,Culcharry,-3.904,57.528
46,Glengolly,-3.547,58.57
46,Balnacoil,-4.021,58.075
66,Daviot,-4.133,57.425
55,West Langwell,-4.208,58.048
24,Woodhead,-2.353,57.437
24,Esslemont,-2.12,57.358
24,Brownmuir,-2.418,56.888
39,Millbrex,-2.299,57.477
55,Kirkton of Tough,-2.64,57.202
55,Badenyon,-3.093,57.258
112,Perkhill,-2.707,57.14
39,Sandfordhill,-1.806,57.467
46,Ythsie,-2.189,57.368
39,Hillbrae,-2.664,57.518
66,Carnbee,-2.757,56.247
33,Wester Newburn,-2.901,56.236
55,Prior Muir,-2.76,56.313
39,South Straiton,-2.941,56.394
39,Nether Urquhart,-3.313,56.263
24,Crail,-2.627,56.26
39,Baldinnie,-2.921,56.289
28,Kennoway,-3.046,56.211
24,East Wemyss,-3.063,56.16
46,Stravithie,-2.745,56.292
55,New Gilston,-2.917,56.263
24,Cairneyhill,-3.529,56.06
39,North Queensferry,-3.394,56.011
46,Craigrothie,-3.002,56.287
39,Lochty,-2.77,56.264
24,Brownhills,-2.761,56.326
28,Newton of Falkland,-3.181,56.251
24,Kilrenny,-2.687,56.235
112,Leuchars,-2.881,56.381
55,Kilconquhar,-2.826,56.21
33,Pitscottie,-2.942,56.307
24,Woodend,-3.274,56.153
94,Achmore,-5.565,57.343
28,Navity,-4.036,57.656
24,Achriabhach,-5.041,56.771
134,Culnacnoc,-6.162,57.582
112,Scardroy,-4.986,57.522
39,Brydekirk,-3.274,55.023
33,Eaglesfield,-3.198,55.059
112,Mochrum,-4.571,54.785
39,Craigdarroch,-3.98,55.196
66,Lagrae,-4.04,55.404
134,Craig,-4.042,54.98
39,Kinnelhead,-3.527,55.297
33,Holestane,-3.778,55.279
39,Boreland,-4.509,54.978
46,Lochmaben,-3.444,55.133
55,Corriedoo,-4.068,55.123
79,Tower-of-Sark,-3.041,55.066
55,Auchenmalg,-4.749,54.837
46,Dergoals,-4.735,54.897
28,Colfin,-5.027,54.856
94,Knocknain,-5.164,54.932
55,Beeswing,-3.726,55.008
28,Auchenhessnane,-3.884,55.251
39,Castle Kennedy,-4.949,54.896
24,Carscreugh,-4.769,54.904
28,Barnhills,-5.152,55.001
39,Kirkgunzeon,-3.773,54.982
24,Dumcrieff,-3.414,55.318
55,Carsegowan,-4.463,54.898
112,Caulside,-2.871,55.115
160,Gretna,-3.064,54.994
79,Kirkcowan,-4.608,54.915
476,Cutcloy,-4.399,54.686
160,Lockerbie,-3.359,55.124
24,Cults,-4.392,54.762
112,Corsebank,-3.888,55.432
24,Granish,-3.823,57.21
33,Golspie,-3.978,57.974
55,Drumuillie,-3.744,57.26
33,Plockton,-5.65,57.34
33,Thrumster,-3.133,58.389
66,Invercassley,-4.591,57.98
79,Eynort,-6.344,57.254
66,Milton of Cushnie,-2.797,57.191
55,Cairnhill,-2.099,57.34
28,Macduff,-2.491,57.668
24,Cottown,-2.385,57.226
24,Corsindae,-2.521,57.17
33,Bent,-2.507,56.844
24,Barthol Chapel,-2.311,57.397
28,Coburty,-2.128,57.668
39,Asloun,-2.76,57.223
24,Skares,-2.612,57.396
33,Newburgh,-2.002,57.32
134,Bridge of Dye,-2.574,56.965
55,Collynie,-2.256,57.414
66,Borrowfield,-2.282,57.031
94,Portsoy,-2.692,57.68
39,Dinnet,-2.893,57.078
24,Cuminestown,-2.329,57.542
46,Kirktown,-1.852,57.557
39,Drumsallie,-5.353,56.856
79,Swordale,-4.388,57.658
39,Mungasdale,-5.429,57.879
55,Achmelvich,-5.304,58.167
33,Soyal,-4.418,57.887
66,Back of Keppoch,-5.864,56.922
46,Auchgourish,-3.757,57.218
331,Aultdearg,-4.865,57.647
55,Kirkton,-5.476,57.415
112,Bun Loyne,-4.952,57.144
112,Inverbrough,-3.972,57.347
94,South Garvan,-5.29,56.844
28,Mountgerald,-4.397,57.62
28,Leanaig,-4.408,57.554
24,Milton,-3.127,58.441
55,Roughburn,-4.669,56.895
33,Clashnessie,-5.313,58.222
134,Myrelandhorn,-3.226,58.509
331,West Clyne,-3.884,58.027
33,Mains of Watten,-3.286,58.488
33,Westerdale,-3.497,58.444
55,Culloden,-4.135,57.486
192,Tain,-4.057,57.811
39,Cluniter,-4.949,55.91
94,Glenmallan,-4.816,56.127
66,Invernoaden,-5.023,56.135
24,Balliemore,-5.521,56.402
55,Kilmartin,-5.485,56.134
134,Balnahard,-6.132,56.431
66,Killocraw,-5.706,55.514
55,Erchless Castle,-4.648,57.43
230,Tomich,-4.807,57.304
134,Stronchrubie,-4.975,58.128
33,Colaboll,-4.437,58.058
79,Resipole,-5.727,56.714
39,Lochluichart,-4.803,57.626
24,Cantraywood,-4.031,57.5
33,Achinduich,-4.399,57.966
33,Chapelhill,-3.973,57.737
55,Aultbea,-5.587,57.84
24,Millness,-4.691,57.347
24,Portuairk,-6.192,56.734
192,Oldshore Beg,-5.094,58.484
28,Bowden,-2.703,55.568
28,Cessford,-2.419,55.504
28,Morebattle,-2.362,55.518
160,Teviothead,-2.94,55.336
33,Chatto,-2.362,55.453
33,Buckholm,-2.821,55.64
66,Hallyne,-3.284,55.65
112,Swintonmill,-2.296,55.707
79,Innerleithen,-3.062,55.62
28,Falla,-2.459,55.42
46,Polwarth,-2.407,55.745
46,Yarrowford,-2.943,55.562
66,Craik,-3.026,55.364
46,Stobo,-3.299,55.627
94,Swinside Hall,-2.432,55.441
28,Castleweary,-2.936,55.323
397,Balnahard,-6.16,56.117
822,Glenegedale,-6.247,55.684
46,Uig,-4.974,56.018
46,Aird,-5.597,56.143
112,Druimavuic,-5.24,56.553
28,Luss,-4.641,56.102
24,Belloch,-5.694,55.579
39,Torrans,-6.076,56.35
33,Low Ballevain,-5.702,55.47
24,Upper Ardroscadale,-5.133,55.833
55,Succoth,-4.747,56.21
94,Clachaig,-5.018,55.989
94,Ardlussa,-5.772,56.026
79,Fanmore,-6.198,56.521
24,Ardfern,-5.537,56.182
39,Creagan,-5.305,56.552
39,Cluanach,-6.195,55.757
28,Corrynachenchy,-5.834,56.504
66,Shantron,-4.658,56.057
28,Ardentinny,-4.91,56.045
24,Sanachan,-5.598,57.399
28,Davidston,-4.088,57.652
28,Farlary,-4.085,58.027
66,Crofts of Benachielt,-3.394,58.325
39,Newtonmore,-4.118,57.064
24,Ardheslaig,-5.707,57.547
33,Auchnagallin,-3.577,57.385
24,Linsidemore,-4.461,57.958
24,Ardmair,-5.187,57.933
331,Balnabruich,-3.439,58.247
33,Slickly,-3.209,58.582
28,Achvarasdal,-3.747,58.56
331,Hilton,-3.814,57.847
39,Castlecraig,-3.981,57.698
46,Inverinate,-5.458,57.243
33,Grotaig,-4.502,57.281
24,Garrygualach,-5.019,57.066
39,Mey,-3.233,58.636
46,Crossal,-6.231,57.307
79,Kilmarie,-6.06,57.183
24,Ballochyle,-4.983,55.995
46,Bernice,-5.001,56.081
46,Cour,-5.463,55.681
66,Kilmichael,-5.641,55.446
66,Feochaig,-5.53,55.364
39,Portavadie,-5.311,55.873
39,Innellan,-4.963,55.89
39,Kilmore,-5.439,56.374
24,Middleton,-6.968,56.482
33,Boleside,-2.801,55.593
39,Sundhope,-3.049,55.516
33,Roberton,-2.896,55.42
24,Lanton,-2.6,55.488
39,Preston,-2.331,55.81
160,Halmyre Mains,-3.311,55.73
46,Thirlestane,-2.688,55.724
46,Whitton,-2.381,55.493
55,Lumsdaine,-2.205,55.915
160,Yarrow,-3.017,55.542
94,Alloa,-3.787,56.118
33,Tullibody,-3.847,56.125
55,Tillicoultry,-3.738,56.153
46,Alva,-3.804,56.153
28,Clackmannan,-3.746,56.108
46,Pool of Muckhart,-3.611,56.188
79,Forestmill,-3.686,56.125
24,Fishcross,-3.77,56.138
28,Dollar,-3.675,56.164
24,Menstrie,-3.846,56.15
112,Dumbarton,-4.548,55.948
33,Bottomcraig,-3.023,56.409
39,Elie,-2.82,56.191
28,Drumoig,-2.914,56.411
33,Giffordtown,-3.148,56.289
39,Moonzie,-3.067,56.346
46,Balhelvie,-3.119,56.385
55,Bowershall,-3.451,56.104
28,Glasdrum,-5.242,56.567
46,Rhonehouse,-3.962,54.916
55,Ewes,-2.991,55.209
112,Balmae,-4.047,54.783
112,Birkhill,-3.262,55.429
39,Newbridge,-3.651,55.091
230,Glentrool Village,-4.574,55.073
79,Lochfoot,-3.726,55.045
66,Kippford,-3.812,54.877
55,Laverhay,-3.353,55.269
66,Castlewigg,-4.437,54.759
46,Hollee,-3.143,55.016
39,Newton,-3.394,55.239
94,Port Logan,-4.954,54.724
46,Corrie Common,-3.244,55.162
39,Mainsriddle,-3.644,54.895
24,Heck,-3.412,55.109
39,St Ann's,-3.457,55.226
28,Sundaywell,-3.867,55.14
79,Auchmantle,-4.882,54.925
24,Townhead,-4.033,54.796
79,Auchinleck,-4.423,55.008
46,Kirtlebridge,-3.194,55.044
33,Mouswald,-3.458,55.041
230,North Cairn,-5.161,54.986
66,Bentpath,-3.079,55.202
28,Gelston,-3.921,54.908
66,Kirkandrews,-4.176,54.809
24,Mile-end,-4.13,54.823
33,Castlemilk,-3.328,55.079
79,Polskeoch,-4.069,55.297
134,Castlemaddy,-4.272,55.178
55,Bladnoch,-4.458,54.86
46,Kirminnoch,-5.114,54.966
46,Powfoot,-3.329,54.981
112,Hardgate,-3.854,54.982
230,Dalbeattie,-3.821,54.932
46,Castle Douglas,-3.93,54.942
39,Rowanburn,-2.924,55.087
79,Dunragit,-4.883,54.88
66,Lagg,-5.853,55.937
55,Rhugarbh,-5.363,56.511
55,Ardtalla,-6.034,55.719
55,Lealt,-5.755,56.054
55,Caol Ila,-6.113,55.854
79,Kilbride,-5.143,55.864
112,Kingarth,-5.033,55.761
28,Ardmore,-4.696,55.971
46,Clachan of Glendaruel,-5.216,56.01
276,Garelochhead,-4.829,56.082
24,Coulaghailtro,-5.649,55.829
46,Carnduncan,-6.398,55.819
24,Scoor,-6.174,56.293
79,Shandon,-4.807,56.048
39,Ardmaleish,-5.079,55.876
134,Garrachra,-5.067,56.051
39,Glen Sluain,-5.065,56.151
46,Cabrach,-6.004,55.805
94,Pennyghael,-6.018,56.363
28,Ensay,-6.294,56.556
66,Edentaggart,-4.693,56.109
46,Inverarnan,-4.724,56.328
134,Clachbreck,-5.572,55.924
79,Torinturk,-5.497,55.822
28,Loch Head,-4.604,54.812
39,Cairnryan,-5.018,54.974
24,New Galloway,-4.14,55.074
55,Auchencairn,-3.874,54.843
55,Kingsbarns,-2.657,56.298
28,Colinsburgh,-2.844,56.221
28,Ladybank,-3.127,56.278
79,Kirklands,-2.614,56.272
28,Blebocraigs,-2.923,56.323
24,Peat Inn,-2.883,56.277
55,Kincaple,-2.87,56.355
28,Brunton,-3.097,56.374
24,Bow of Fife,-3.097,56.303
24,Kinghorn,-3.178,56.069
28,Dunshalt,-3.212,56.281
39,Star,-3.102,56.219
39,Pitlessie,-3.076,56.276
39,Lower Largo,-2.947,56.215
39,Muirhead,-3.148,56.236
33,Glasslie,-3.231,56.233
822,Heilam,-4.651,58.501
79,Conon Bridge,-4.437,57.565
28,Baramore,-5.857,56.804
192,Alltsigh,-4.559,57.238
112,Melgarve,-4.534,57.029
112,Auchteraw,-4.72,57.136
33,Urquhart,-4.373,57.594
230,Scourie Mor,-5.159,58.343
192,Nethertown,-3.114,58.684
24,Strathpeffer,-4.54,57.587
39,Heaste,-5.894,57.188
79,Winless,-3.198,58.469
46,Lower Diabaig,-5.687,57.58
28,Valtos,-6.161,57.596
39,Oakley,-3.567,56.084
24,Crombie,-3.527,56.048
55,Balgonar,-3.575,56.126
28,Springfield,-3.063,56.296
28,Langdyke,-3.075,56.232
28,Boarhills,-2.703,56.318
24,Hill End,-3.551,56.141
276,Anstruther,-2.706,56.221
24,Strathkinness,-2.872,56.336
94,Newport-on-Tay,-2.957,56.432
28,Cowstrandburn,-3.55,56.099
39,Aberdour,-3.299,56.053
66,Thornton,-3.145,56.165
55,High Valleyfield,-3.595,56.061
24,Burnside,-3.351,56.257
39,Crossgates,-3.368,56.083
66,Newburgh,-3.237,56.351
39,Fortrie,-2.56,57.495
24,Minnes,-2.098,57.303
192,Aboyne,-2.785,57.073
28,Monymusk,-2.523,57.227
39,Logie Newton,-2.557,57.439
24,Craskins,-2.808,57.143
28,Collieston,-1.939,57.348
112,Wheedlemont,-2.871,57.323
55,Bridge of Muchalls,-2.181,57.012
24,Hillbrae,-2.351,57.301
33,Strathdon,-3.078,57.202
33,Allardice,-2.296,56.861
66,Newmachar,-2.189,57.265
33,Burnside,-2.287,57.501
24,Knowes of Elrick,-2.661,57.574
55,Waterside,-1.993,57.338
66,Roadside of Kinneff,-2.258,56.881
24,Contlaw,-2.264,57.115
55,Plaidy,-2.452,57.584
39,Craiglug,-2.305,57.072
28,Milton of Lesmore,-2.883,57.346
39,Blackburn,-2.289,57.207
39,Johnshaven,-2.335,56.796
112,Newton,-2.869,57.495
28,Yonder Bognie,-2.67,57.503
46,Knowhead,-2.126,57.594
28,Kinmundy,-2.18,57.251
24,Balbithan,-2.335,57.247
28,Kirkton of Glenbuchat,-3.032,57.222
28,Fintry,-2.41,57.58
230,Alford,-2.7,57.231
33,Tillykerrie,-2.278,57.281
28,Potterton,-2.095,57.228
24,Bridgend,-2.7,57.191
33,Lonmay,-1.979,57.616
24,Auldyoch,-2.525,57.466
28,Lessendrum,-2.706,57.467
33,Moor of Balvack,-2.547,57.209
24,Tipperty,-2.059,57.331
79,Inkhorn,-2.128,57.446
55,Bograxie,-2.482,57.268
24,Rickarton,-2.301,56.992
24,Overton,-2.216,57.216
28,Blacktop,-2.23,57.129
24,Chapel of Stoneywood,-2.223,57.192
571,Peterhead,-1.795,57.491
331,Inverurie,-2.386,57.287
476,Fraserburgh,-2.016,57.687
230,Stonehaven,-2.218,56.967
94,Westhill,-2.288,57.152
230,Banchory,-2.495,57.054
160,Portlethen,-2.134,57.053
24,Largie,-2.65,57.372
33,Craigmaud,-2.188,57.618
24,Tyrie,-2.131,57.654
