rmax,name,lon,lat
192,Irvinestown,-7.631,54.472
55,Broughshane,-6.208,54.893
134,Moira,-6.229,54.477
79,Waringstown,-6.297,54.433
112,Hillsborough,-6.081,54.464
112,Killyleagh,-5.648,54.4
66,Ballygowan,-5.789,54.503
276,Lisnaskea,-7.443,54.253
79,Portaferry,-5.544,54.381
112,Newtownstewart,-7.378,54.716
230,Castlederg,-7.592,54.708
66,Bessbrook,-6.396,54.195
112,Rathfriland,-6.16,54.237
134,Castlewellan,-5.941,54.255
79,Eglinton,-7.177,55.026
331,Keady,-6.703,54.248
79,Richhill,-6.546,54.37
94,Tandragee,-6.413,54.355
66,Ahoghill,-6.363,54.85
134,Whitehead,-5.714,54.753
94,Cullybackey,-6.349,54.888
94,Annalong,-5.9,54.107
276,Dungiven,-6.919,54.926
66,Artigarvan,-7.403,54.858
276,Maghera,-6.671,54.844
112,Randalstown,-6.321,54.751
28,Rostrevor,-6.199,54.1
94,Dromore,-7.458,54.513
39,Helen's Bay,-5.736,54.666
230,Portavogie,-5.446,54.461
112,Saintfield,-5.83,54.459
55,Kilrea,-6.554,54.951
46,Ballykelly,-7.021,55.043
79,New Buildings,-7.357,54.959
39,Castledawson,-6.555,54.778
160,Crossmaglen,-6.607,54.077
39,Gilford,-6.358,54.373
55,Millisle,-5.526,54.607
230,Carnlough,-5.992,54.99
94,Draperstown,-6.783,54.793
94,Templepatrick,-6.095,54.703
94,Bushmills,-6.522,55.203
160,Markethill,-6.519,54.297
230,Cushendall,-6.061,55.08
66,Crossgar,-5.758,54.396
79,Moneymore,-6.668,54.693
79,Upperlands,-6.642,54.879
160,Fivemiletown,-7.315,54.378
134,Garvagh,-6.687,54.984
192,Ballywalter,-5.486,54.545
112,Bellaghy,-6.516,54.809
39,Bleary,-6.342,54.42
46,Greysteel,-7.111,55.033
46,Castlerock,-6.788,55.163
24,Ballystrudder,-5.709,54.778
55,Maghaberry,-6.187,54.504
46,Dundrum,-5.845,54.258
55,Dunloy,-6.408,55.011
94,Kells,-6.213,54.805
94,Kircubbin,-5.53,54.488
39,Moneyreagh,-5.828,54.529
94,Annahilt,-5.998,54.437
55,Clough,-5.837,54.291
134,Ballinamallard,-7.592,54.422
33,Donaghadee,-5.535,54.641
94,Carryduff,-5.886,54.518
230,Ballynahinch,-5.895,54.402
39,Greenisland,-5.863,54.693
276,Ballycastle,-6.25,55.202
33,Belfast,-5.927,54.596
192,Lisburn,-6.044,54.511
986,Newry,-6.334,54.178
230,Warrenpoint,-6.252,54.101
160,Kilkeel,-6.006,54.063
134,Newcastle,-5.89,54.212
571,Downpatrick,-5.709,54.326
79,Comber,-5.743,54.549
192,Newtownards,-5.688,54.593
112,Bangor,-5.667,54.659
94,Holywood,-5.809,54.647
66,Dundonald,-5.798,54.594
134,Newtownabbey,-5.907,54.673
24,Glengormley,-5.956,54.673
39,Carrickfergus,-5.802,54.717
276,Larne,-5.808,54.855
94,Ballyclare,-5.998,54.751
331,Antrim,-6.216,54.715
685,Ballymena,-6.274,54.862
397,Coleraine,-6.664,55.13
33,Portrush,-6.653,55.198
160,Portstewart,-6.713,55.186
192,Magherafelt,-6.608,54.754
331,Cookstown,-6.743,54.649
192,Armagh,-6.654,54.351
331,Portadown,-6.445,54.422
33,Craigavon,-6.365,54.445
79,Lurgan,-6.334,54.462
230,Banbridge,-6.267,54.349
397,Strabane,-7.463,54.824
1183,Omagh,-7.296,54.6
476,Enniskillen,-7.631,54.345
79,Culmore,-7.274,55.044
112,Newtownbreda,-5.906,54.552
66,Dunmurry,-6.017,54.543
33,Dollingstown,-6.294,54.461
33,Derrymacash,-6.38,54.47
66,Glenavy,-6.212,54.592
94,Cloughmills,-6.331,54.999
192,Ardglass,-5.608,54.262
46,Doagh,-6.041,54.738
160,Moy,-6.694,54.447
28,Brookeborough,-7.405,54.314
192,Newtownbutler,-7.36,54.182
160,Kesh,-7.721,54.522
192,Claudy,-7.153,54.913
685,Londonderry,-7.319,54.999
571,Belleek,-8.085,54.482
160,Aughnacloy,-6.973,54.413
79,Clogher,-7.167,54.413
134,Ballygawley,-7.021,54.462
112,Ballygally,-5.858,54.898
66,Glenarm,-5.953,54.967
46,Greyabbey,-5.56,54.535
79,Park,-7.081,54.865
112,Armoy,-6.326,55.132
39,Drumahoe,-7.271,54.978
39,Portballintrae,-6.541,55.216
79,Cargan,-6.179,54.996
112,Ballintoy,-6.358,55.236
112,Dervock,-6.469,55.123
230,Rasharkin,-6.481,54.955
46,Ballybogy,-6.556,55.13
94,Sion Mills,-7.473,54.784
55,Dunnamanagh,-7.31,54.874
79,Plumbridge,-7.25,54.769
94,Feeny,-7.02,54.893
66,Portglenone,-6.476,54.873
46,Gulladuff,-6.601,54.834
66,Desertmartin,-6.674,54.772
79,Ballyronan,-6.532,54.707
39,Tobermore,-6.709,54.81
79,Toome,-6.458,54.751
28,Galgorm,-6.322,54.86
55,Ballycarry,-5.748,54.772
79,Mullaghboy,-5.724,54.834
160,Garrison,-8.091,54.418
134,Kinawley,-7.648,54.227
112,Derrylin,-7.566,54.193
79,Lisbellaw,-7.537,54.318
112,Maguiresbridge,-7.46,54.294
94,Tempo,-7.46,54.378
160,Fintona,-7.317,54.498
112,Drumquin,-7.488,54.615
160,Pomeroy,-6.926,54.595
79,Coagh,-6.612,54.647
94,Rosslea,-7.174,54.24
134,Caledon,-6.838,54.352
112,Newtownhamilton,-6.576,54.192
94,Mayobridge,-6.229,54.18
66,Drumaness,-5.855,54.369
94,Dromara,-6.015,54.379
55,Hilltown,-6.145,54.196
66,Loughbrickland,-6.304,54.318
28,Inkberrow,-1.982,52.213
24,Broad Marston,-1.794,52.114
46,Triangle,-1.935,53.697
28,Eastwood,-2.051,53.724
46,Outlane,-1.875,53.658
24,Clough Foot,-2.137,53.711
28,Sowerby Bridge,-1.896,53.698
33,Mount Tabor,-1.919,53.74
33,Wainstalls,-1.93,53.752
55,Hebden Bridge,-2.013,53.743
33,Mankinholes,-2.063,53.707
46,Lydgate,-2.141,53.733
192,Huddersfield,-1.795,53.644
79,Dewsbury,-1.634,53.662
66,Batley,-1.641,53.72
39,Liversedge,-1.707,53.699
39,Cleckheaton,-1.721,53.728
55,Mirfield,-1.7,53.682
112,Meltham,-1.853,53.594
55,Honley,-1.788,53.605
79,Birkenshaw,-1.687,53.746
46,Shelley,-1.693,53.598
39,Grange Moor,-1.665,53.641
28,Hade Edge,-1.779,53.545
24,Clayton West,-1.612,53.595
28,Ansty,-1.416,52.446
55,Princethorpe,-1.411,52.334
39,Bramcote,-1.403,52.495
66,Copston Magna,-1.334,52.492
276,Stratford-upon-Avon,-1.709,52.195
112,Alcester,-1.865,52.22
112,Southam,-1.387,52.254
39,Wellesbourne,-1.592,52.195
79,Studley,-1.898,52.269
112,Shipston-on-Stour,-1.627,52.062
66,Bidford-on-Avon,-1.858,52.166
28,Ardens Grafton,-1.829,52.186
28,Bearley,-1.736,52.242
28,Pillerton Priors,-1.573,52.127
28,Bascote Heath,-1.421,52.262
24,Honington,-1.614,52.079
39,Priors Hardwick,-1.313,52.2
28,Northend,-1.429,52.17
46,Alderminster,-1.66,52.134
79,Rous Lench,-1.98,52.178
33,Oddingley,-2.131,52.231
66,Crowle,-2.114,52.204
46,Drakes Broughton,-2.105,52.136
46,Bredon's Norton,-2.1,52.049
33,Norton,-1.941,52.126
24,Wickhamford,-1.899,52.073
28,Abbots Morton,-1.957,52.191
28,Church Lench,-1.962,52.159
33,Littleworth,-2.168,52.149
46,North Littleton,-1.878,52.125
33,Hadzor,-2.124,52.256
28,Knettishall,0.896,52.384
39,Nowton,0.72,52.21
46,Fornham St Genevieve,0.705,52.278
79,Whepstead,0.679,52.19
24,Withersfield,0.416,52.105
28,Coney Weston,0.872,52.364
39,Kedington,0.49,52.093
28,Great Barton,0.768,52.27
33,Great Thurlow,0.453,52.126
24,Hepworth,0.911,52.336
160,Ixworth,0.834,52.299
46,Hanbury,-2.055,52.264
39,Harvington,-1.922,52.143
33,White Ladies Aston,-2.113,52.168
33,Broughton Hackett,-2.111,52.189
55,Elmbridge,-2.145,52.308
39,Lower Moor,-2.029,52.124
94,Bredon,-2.107,52.031
39,Netherton,-2.015,52.073
24,Doverdale,-2.206,52.294
24,Spetchley,-2.153,52.184
39,Kersoe,-2.011,52.058
24,Elmley Lovett,-2.19,52.324
24,Grafton Flyford,-2.056,52.199
24,Fladbury,-2.008,52.116
33,Pensham,-2.088,52.096
33,Tibberton,-2.14,52.217
134,Kidderminster,-2.25,52.384
79,Stourport-on-Severn,-2.279,52.339
55,Bewdley,-2.315,52.376
28,Netherton,-1.805,53.615
24,Jackson Bridge,-1.753,53.563
24,Netherthong,-1.791,53.583
24,Liley Wood,-1.681,53.653
46,Holme,-1.838,53.549
24,Wilshaw,-1.825,53.585
33,Kirkburton,-1.704,53.612
28,Cowmes,-1.724,53.643
24,Oakenshaw,-1.74,53.747
55,Marsden,-1.925,53.602
24,Farnley Tyas,-1.749,53.611
33,Fulstone,-1.736,53.581
39,Slaithwaite,-1.88,53.623
24,Thurstonland,-1.751,53.59
33,Holt Head,-1.882,53.607
39,Kirkheaton,-1.726,53.659
55,Kirkby Grange,-1.63,53.624
46,Victoria,-1.732,53.546
192,Leeds,-1.548,53.744
46,Morley,-1.6,53.746
24,Norton,0.867,52.254
24,Wetherden,0.935,52.226
24,Winston,1.189,52.208
397,Bury St Edmunds,0.716,52.227
46,Thurston End,0.623,52.131
24,Timworth,0.725,52.289
33,Hawkedon,0.625,52.146
46,Wickhambrook,0.556,52.165
39,Fakenham Magna,0.8,52.354
33,Great Livermere,0.766,52.307
46,Lady's Green,0.564,52.202
46,Bradfield St George,0.799,52.206
24,Fornham St Martin,0.71,52.269
24,Little Wratting,0.464,52.101
28,Blackthorpe,0.784,52.232
134,Little Bradley,0.454,52.14
46,Stradishall,0.552,52.143
46,Wordwell,0.679,52.315
28,Kingshall Street,0.803,52.218
24,Hengrave,0.673,52.285
28,Genesis Green,0.554,52.189
28,Stoke-by-Clare,0.537,52.062
39,Bradfield St Clare,0.787,52.185
46,Honington,0.805,52.335
28,Ixworth Thorpe,0.808,52.322
24,Hawstead,0.717,52.197
134,Flempton,0.657,52.296
28,Great Bradley,0.437,52.15
24,King's Coughton,-1.879,52.228
33,Stockton,-1.36,52.271
46,Ladbroke,-1.388,52.226
55,Newbold Pacey,-1.567,52.213
33,Dorsington,-1.807,52.145
39,Ratley,-1.444,52.125
39,Winderton,-1.524,52.063
24,Crimscote,-1.66,52.124
39,Preston on Stour,-1.702,52.148
79,Pathlow,-1.743,52.226
160,Upper Quinton,-1.743,52.115
33,Claverdon,-1.711,52.28
112,Chadshunt,-1.49,52.173
55,Armscote,-1.643,52.1
112,Nuthurst,-1.774,52.342
55,Wootton Wawen,-1.778,52.266
79,Long Itchington,-1.397,52.283
55,Harbury,-1.455,52.236
55,Knightcote,-1.416,52.187
79,Marston Doles,-1.318,52.22
39,Newbold-on-Stour,-1.64,52.115
24,Willington,-1.612,52.049
24,Napton on the Hill,-1.32,52.247
55,Whichford,-1.544,52.009
33,Loxley,-1.625,52.172
24,Tanworth-in-Arden,-1.835,52.333
55,Wixford,-1.867,52.189
33,Stretton-on-Fosse,-1.677,52.043
28,Ilmington,-1.691,52.09
55,Coughton,-1.885,52.24
24,Wormleighton,-1.345,52.18
28,Caunsall,-2.226,52.426
46,Far Forest,-2.398,52.368
39,Chaddesley Corbett,-2.159,52.36
66,Wolverley,-2.257,52.411
112,Rock,-2.39,52.339
24,Low Habberley,-2.285,52.397
46,Churchill,-2.179,52.412
39,Rushock,-2.172,52.337
28,Ribbesford,-2.313,52.364
39,Trimpley,-2.308,52.405
46,Shatterford,-2.306,52.424
46,Lepton,-1.708,53.632
79,Holmfirth,-1.792,53.569
39,Wortham,1.055,52.356
46,Stuston,1.128,52.359
46,Creeting St Mary,1.067,52.169
28,Denham,1.215,52.325
46,Pettaugh,1.167,52.19
24,Drinkstone,0.866,52.219
28,Kenton,1.208,52.246
28,Wattisfield,0.946,52.327
55,Buxhall,0.928,52.182
33,Battisford,1.001,52.149
24,Earl Stonham,1.097,52.187
66,Earl's Green,0.982,52.258
24,Blakedown,-2.173,52.403
24,Kingsford,-2.265,52.429
28,Shenstone,-2.202,52.36
39,Stone,-2.205,52.372
24,Callow Hill,-2.378,52.36
24,North Cray,0.142,51.432
55,Biggin Hill,0.033,51.312
33,Leaves Green,0.029,51.336
28,Keston,0.026,51.36
24,Cudham,0.075,51.313
100000,London,-0.088,51.513
230,New Addington,-0.013,51.346
33,Addington,-0.034,51.358
46,Clock House,-0.153,51.323
39,Botany Bay,-0.125,51.676
46,Havering-atte-Bower,0.184,51.617
33,North Ockendon,0.292,51.543
79,Horsforth,-1.638,53.841
66,Rothwell,-1.481,53.751
192,Wetherby,-1.387,53.934
33,Guiseley,-1.715,53.876
33,Calverley,-1.69,53.828
33,Kippax,-1.371,53.769
33,Rawdon,-1.677,53.854
24,Oulton,-1.449,53.753
24,East Keswick,-1.453,53.896
33,Harewood,-1.51,53.9
24,Walton,-1.318,53.915
55,Bramham,-1.352,53.88
46,Tannington,1.284,52.259
39,Ashfield Cum Thorpe,1.233,52.217
24,Mickfield,1.123,52.211
24,Metfield,1.366,52.372
24,Eye,1.145,52.323
192,Bedingfield,1.193,52.272
39,Forward Green,1.071,52.195
39,Brome,1.134,52.343
39,Redlingfield,1.203,52.293
28,Wingfield,1.268,52.345
55,Middlewood Green,1.067,52.21
33,Gislingham,1.038,52.299
39,Ashfield Green,1.316,52.311
24,Worlingworth,1.263,52.268
46,Stretton under Fosse,-1.34,52.428
28,Newton,-1.221,52.399
28,Willey,-1.272,52.458
28,Churchover,-1.25,52.423
24,Bretford,-1.369,52.391
24,Brandon,-1.4,52.385
28,Long Lawford,-1.308,52.381
66,Binley Woods,-1.42,52.392
28,Sawbridge,-1.26,52.289
55,Grandborough,-1.28,52.299
46,Clifton upon Dunsmore,-1.222,52.383
24,Swillington,-1.418,53.769
55,Ledsham,-1.308,53.762
55,Shadwell,-1.475,53.854
55,Kiddal Lane End,-1.392,53.851
28,Troydale,-1.642,53.785
28,Carlton,-1.489,53.739
66,Bardsey,-1.44,53.888
55,Scholes,-1.423,53.826
79,Boston Spa,-1.349,53.903
79,Euston,0.787,52.377
46,Poslingford,0.583,52.105
24,Lackford,0.624,52.303
28,Wixoe,0.508,52.058
39,Rede,0.636,52.171
24,Wickham Street,0.568,52.157
112,Barningham,0.885,52.351
46,Thelnetham,0.958,52.365
24,Chilton Street,0.562,52.094
28,Pakenham,0.821,52.27
24,Westley,0.669,52.25
28,Upthorpe,0.906,52.315
66,Congham,0.537,52.783
79,West Bilney,0.54,52.708
94,Welney,0.247,52.522
28,Barroway Drove,0.316,52.604
46,Harpley,0.658,52.798
46,Castle Rising,0.467,52.796
33,Old Hunstanton,0.506,52.953
33,Emneth,0.201,52.637
39,Stradsett,0.459,52.615
46,Tilney Fen End,0.283,52.678
24,Flitcham,0.563,52.81
66,Nordelph,0.299,52.584
28,Emneth Hungate,0.234,52.643
79,Walpole Marsh,0.197,52.733
55,Brookville,0.556,52.537
39,Marshland St James,0.246,52.66
33,Pentney,0.554,52.696
46,Three Holes,0.219,52.58
66,Gayton Thorpe,0.582,52.737
33,Shernborne,0.546,52.862
55,Marham Aerodrome,0.544,52.652
94,New Houghton,0.657,52.816
46,Whittington,0.534,52.563
28,Barton Bendish,0.529,52.618
28,St John's Highway,0.262,52.707
46,Bircham Tofts,0.644,52.862
46,Great Massingham,0.666,52.774
33,Stow Bridge,0.374,52.637
39,Stanhoe,0.683,52.898
112,West Winch,0.413,52.707
39,Tilney All Saints,0.32,52.737
33,Waterden,0.801,52.888
28,Burnham Market,0.729,52.939
24,Hay Green,0.284,52.738
28,Pott Row,0.522,52.771
55,Snettisham,0.502,52.878
66,West Dereham,0.454,52.587
94,Watlington,0.394,52.671
24,Barmer,0.694,52.87
39,Shouldham Thorpe,0.456,52.643
39,Burnham Overy Town,0.744,52.951
28,Saddle Bow,0.375,52.715
24,Walton Highway,0.208,52.695
33,Thornham,0.583,52.961
28,Tilney cum Islington,0.329,52.7
476,North Walsham,1.388,52.821
55,Sheringham,1.211,52.938
66,Wicken Green Village,0.74,52.856
94,Badersfield,1.344,52.761
39,Edgefield Street,1.113,52.855
55,Little Ryburgh,0.918,52.817
24,Blakeney,1.018,52.955
55,East Beckham,1.213,52.913
24,Felmingham,1.335,52.815
134,South Raynham,0.786,52.778
33,Crostwight,1.462,52.817
28,Plumstead,1.165,52.87
46,Sharrington,1.021,52.89
28,Edgefield,1.112,52.866
24,Holkham,0.818,52.958
112,Mundesley,1.428,52.873
39,Swafield,1.395,52.839
24,Suffield,1.312,52.846
79,Kelling,1.114,52.94
66,Happisburgh Common,1.527,52.807
46,Tatterford,0.771,52.821
94,Calthorpe,1.241,52.841
24,Ashmanhaugh,1.427,52.737
160,Wells-next-the-Sea,0.852,52.953
24,Honing,1.452,52.797
79,Metton,1.269,52.889
46,Hempstead,1.128,52.89
39,Little Walsingham,0.875,52.896
39,Dunton,0.789,52.837
28,Barton Turf,1.483,52.749
46,Helhoughton,0.769,52.803
33,Edingthorpe,1.446,52.841
33,Westwick,1.373,52.793
39,Sutton,1.538,52.757
55,Banningham,1.291,52.819
33,East Runton,1.271,52.934
46,Thurgarton,1.238,52.867
28,Stiffkey,0.935,52.95
46,Wighton,0.89,52.918
46,Saxlingham,1.012,52.915
79,Maypole Green,1.563,52.504
55,Brockdish,1.245,52.369
55,Thorpe,1.592,52.527
39,Aslacton,1.173,52.474
55,Wheatacre,1.624,52.487
33,Coston,1.044,52.615
28,Kirstead Green,1.382,52.524
24,Deopham,1.023,52.565
46,Topcroft Street,1.332,52.476
66,Langley Street,1.494,52.56
24,Great Moulton,1.191,52.465
46,Crownthorpe,1.075,52.585
33,Hedenham,1.402,52.487
39,Ketteringham,1.19,52.584
28,Rushall,1.226,52.397
39,Billingford,1.18,52.363
33,Bramerton,1.39,52.591
24,Lower Thurlton,1.58,52.536
33,Hempnall Green,1.309,52.488
39,Raveningham,1.527,52.518
46,Thelveton,1.175,52.385
46,Dickleburgh Moor,1.189,52.406
55,Denton,1.351,52.441
24,Silfield,1.127,52.553
24,Yelverton,1.382,52.569
46,Shotesham,1.318,52.543
24,Bunwell,1.12,52.499
24,Barford,1.124,52.625
24,Morley St Botolph,1.056,52.557
33,Easton,1.159,52.653
24,Hellington,1.416,52.576
46,Suton Street,1.085,52.547
28,Saxlingham Nethergate,1.288,52.529
24,North Green,1.268,52.448
46,Surlingham,1.419,52.606
33,Tacolneston,1.157,52.511
55,Claxton,1.452,52.58
24,Upper Street,1.197,52.375
24,Ashby St Mary,1.436,52.568
46,Tharston,1.217,52.504
94,Hingham,0.986,52.581
24,Dickleburgh,1.185,52.395
24,Burston,1.139,52.403
46,Trowse Newton,1.319,52.612
24,Redenhall,1.327,52.409
46,Thurton,1.435,52.558
24,Tibenham,1.141,52.462
24,Howe,1.355,52.551
24,Tasburgh,1.249,52.516
39,North Barsham,0.844,52.879
33,Bale,0.989,52.891
28,Swanton Novers,0.998,52.849
33,Trimingham,1.39,52.898
134,Briston,1.061,52.852
39,Thursford Green,0.938,52.871
39,Hickling,1.58,52.761
24,Hickling Heath,1.562,52.749
39,Crossdale Street,1.314,52.905
33,Pudding Norton,0.842,52.818
33,High Kelling,1.128,52.916
28,East Ruston,1.48,52.794
55,Upper Street,1.492,52.7
33,East Raynham,0.799,52.792
33,Gresham,1.217,52.9
94,Stalham,1.52,52.772
33,Glandford,1.039,52.932
28,Salthouse,1.091,52.949
33,Bradfield,1.37,52.85
46,Kettlestone,0.918,52.846
112,Binham,0.951,52.917
24,Barney,0.961,52.853
24,Ludham,1.538,52.711
28,Langham,0.987,52.932
24,Witton Bridge,1.473,52.828
24,Little Barningham,1.176,52.855
33,Knapton,1.425,52.855
24,Felbrigg,1.28,52.908
28,Morston,0.988,52.955
28,Brinton,1.027,52.88
39,Thurning,1.087,52.818
24,Overstrand,1.342,52.919
24,Fulmodeston,0.955,52.84
230,Horsey,1.645,52.748
39,Happisburgh,1.533,52.823
24,Wiveton,1.037,52.947
55,Neatishead,1.47,52.735
39,Smallburgh,1.458,52.768
66,Wroxham,1.417,52.71
46,Warham,0.899,52.939
33,Bessingham,1.218,52.883
33,Waxham,1.618,52.778
24,Sea Palling,1.602,52.787
28,Sculthorpe,0.82,52.846
39,Potter Heigham,1.578,52.719
28,Itteringham,1.186,52.832
46,Thorpe Market,1.33,52.875
24,Hindolveston,1.021,52.824
33,Worstead,1.415,52.782
55,Ostend,1.506,52.84
46,Cockthorpe,0.95,52.94
24,West Barsham,0.828,52.867
66,Saxthorpe,1.14,52.831
24,Ingworth,1.255,52.819
46,Briningham,1.026,52.867
28,Roughton,1.302,52.885
28,Wood Norton,0.984,52.812
24,Sloley,1.399,52.772
160,Holt,1.097,52.905
24,Trunch,1.397,52.861
33,Colby,1.297,52.835
28,West Raynham,0.731,52.789
2042,Norwich,1.28,52.632
134,Wymondham,1.118,52.57
39,Cringleford,1.242,52.605
66,Hethersett,1.179,52.599
160,Harleston,1.298,52.395
112,Long Stratton,1.228,52.486
192,Poringland,1.345,52.563
24,Hackford,1.04,52.581
24,Newton Flotman,1.257,52.538
46,Ellingham,1.47,52.477
24,Kirby Bedon,1.367,52.6
39,Little Melton,1.193,52.616
66,Arminghall,1.326,52.591
39,Carleton Forehoe,1.088,52.608
33,Gissing,1.15,52.424
33,Spooner Row,1.09,52.534
55,Carleton Rode,1.112,52.488
46,Weeting,0.614,52.464
24,East Bilney,0.891,52.737
28,Sporle,0.733,52.668
28,Hardingham,1.016,52.595
24,Colkirk,0.848,52.801
39,Scarning,0.89,52.671
112,Shipdham,0.894,52.628
24,North Lopham,0.991,52.406
55,Gateley,0.907,52.779
66,Holme Hale,0.788,52.632
33,Hockering,1.07,52.676
79,Primrose Green,1.059,52.702
55,Narborough,0.585,52.683
39,New Buckenham,1.072,52.471
28,Mundford,0.653,52.508
55,Beachamwell,0.588,52.617
46,Stow Bedon,0.876,52.53
33,Bittering,0.871,52.721
28,Mileham,0.835,52.738
39,Griston,0.863,52.555
79,Croxton,0.755,52.446
24,Letton Green,0.928,52.623
46,Guist,0.964,52.791
24,Bodney,0.701,52.556
46,Old Brigg,0.904,52.7
66,Southburgh,0.946,52.604
24,Worthing,0.962,52.739
24,Blo' Norton,0.958,52.375
55,Great Cressingham,0.73,52.582
39,Rushford,0.827,52.396
33,Great Ellingham,0.975,52.533
28,Whissonsett,0.845,52.774
24,South Lopham,0.996,52.389
24,Sparham,1.067,52.736
33,Hoe,0.955,52.71
55,Bawdeswell,1.03,52.743
66,Bodney Camp,0.731,52.555
46,Shropham,0.922,52.497
24,Old Buckenham,1.032,52.48
33,Tittleshall,0.806,52.753
66,Great Fransham,0.804,52.685
112,Lynford,0.678,52.487
24,Great Hockham,0.875,52.496
28,Quidenham,0.985,52.447
66,Wilby,0.989,52.468
66,Oxborough,0.573,52.585
33,Cockley Cley,0.645,52.607
112,Old Beetley,0.919,52.73
39,Ivy Todd,0.804,52.65
33,Great Dunham,0.769,52.697
33,North Tuddenham,1.019,52.685
24,Litcham,0.792,52.725
33,Kenninghall,0.995,52.434
94,Illington,0.864,52.474
55,Rougham,0.713,52.75
79,Cranwich,0.623,52.522
28,Swanton Morley Airfield,0.973,52.726
79,Garboldisham,0.945,52.394
46,Puddledock,1.026,52.489
24,Carbrooke,0.879,52.583
46,East Lexham,0.751,52.717
24,Beetley,0.922,52.717
28,Hilborough,0.688,52.571
24,Woodrising,0.933,52.593
46,Great Palgrave,0.71,52.678
24,Daffy Green,0.896,52.65
28,Beeston,0.823,52.708
39,Foulden,0.603,52.561
46,Bintree,0.994,52.773
39,Scoulton,0.928,52.57
55,Stanfield,0.869,52.749
46,Lower Stow Bedon,0.901,52.513
24,Saham Toney,0.803,52.58
79,South Acre,0.678,52.696
33,Bradenham,0.843,52.641
94,East Harling,0.932,52.438
39,Westfield,0.941,52.647
134,Taverham,1.201,52.684
112,Brundall,1.434,52.624
28,Drayton,1.23,52.674
24,Haveringland,1.203,52.728
24,Wickhampton,1.58,52.592
39,Tuttington,1.299,52.797
66,Southwood,1.54,52.592
55,Waterloo,1.29,52.727
33,Horsford,1.245,52.7
33,Burgh next Aylsham,1.29,52.78
46,Brandiston,1.164,52.751
55,Cargate Green,1.533,52.661
55,Haydon Bridge,-2.247,54.975
33,Middleton Bank Top,-1.909,55.146
94,Holburn,-1.932,55.619
33,Causey Park Bridge,-1.703,55.245
46,Ellingham,-1.728,55.527
192,Raylees,-2.117,55.217
39,Cartington,-1.938,55.336
24,Newham,-1.722,55.548
33,North Blyth,-1.507,55.135
94,Knarsdale,-2.504,54.881
33,Horncliffe,-2.111,55.743
134,Colwell,-2.076,55.074
33,Gunnerton,-2.145,55.07
46,Rothley,-1.929,55.186
79,Heugh,-1.871,55.054
66,Scremerston,-1.988,55.736
28,Halton Lea Gate,-2.543,54.921
33,Ross,-1.786,55.626
24,Medburn,-1.789,55.029
192,Rothbury,-1.911,55.311
55,Budle,-1.748,55.609
94,Burradon,-2.027,55.351
33,Bolton,-1.831,55.418
33,Whittingham,-1.89,55.401
39,Boulmer,-1.582,55.42
39,Fenton,-2.047,55.598
55,Riding Mill,-1.972,54.948
331,Stonehaugh,-2.324,55.08
33,Newlands,-1.847,54.895
33,Barrasford,-2.13,55.055
33,Bellshill,-1.804,55.569
79,Thockrington,-2.065,55.106
33,Duddo,-2.099,55.677
24,Oakwood,-2.077,54.986
33,West Edington,-1.758,55.137
33,Weston Green,1.117,52.686
79,Guestwick Green,1.047,52.794
39,Southgate,1.166,52.779
39,Lingwood,1.49,52.622
55,Oulton,1.169,52.813
39,Lenwade,1.107,52.722
24,Hassingham,1.499,52.597
28,Postwick,1.393,52.62
39,Ranworth,1.487,52.68
46,Honingham,1.109,52.662
39,The Heath,1.236,52.748
46,Little Plumstead,1.419,52.658
28,Weston Longville,1.125,52.7
46,Swannington,1.161,52.726
28,Stratton Strawless,1.29,52.739
94,Spixworth,1.323,52.689
33,Oulton Street,1.193,52.802
55,Tunstall,1.57,52.617
24,Hemblington,1.465,52.652
24,Eastgate,1.18,52.762
33,Themelthorpe,1.046,52.771
24,Wood Dalling,1.098,52.802
39,Great Plumstead,1.4,52.639
24,Cuddington Heath,-2.789,53.016
24,Christleton,-2.836,53.184
33,Tilston,-2.802,53.055
66,Wimboldsley,-2.463,53.168
24,Backford,-2.899,53.241
46,Lostock Gralam,-2.46,53.272
55,Churton,-2.867,53.103
33,Higher Wincham,-2.467,53.285
28,Rowton,-2.827,53.175
24,Ledsham,-2.962,53.263
28,Lach Dennis,-2.436,53.244
28,Alvanley,-2.753,53.261
24,Foxwist Green,-2.561,53.214
24,Aldford,-2.866,53.128
24,Oscroft,-2.739,53.198
55,Moulton,-2.511,53.222
33,Sutton Weaver,-2.686,53.311
66,Wervin,-2.864,53.243
28,Farndon,-2.877,53.084
134,Kelsall,-2.71,53.207
94,Higher Whitley,-2.57,53.317
46,Newton,-2.705,53.271
24,Littleton,-2.836,53.193
28,Childer Thornton,-2.952,53.294
33,Guilden Sutton,-2.829,53.207
28,Coppenhall Moss,-2.441,53.123
33,Brandon,-1.933,55.449
28,North Middleton,-2,55.514
28,Netherton,-2.015,55.364
39,Ryal,-1.978,55.062
24,Biddlestone,-2.059,55.369
46,Sandhoe,-2.046,54.992
160,Wooperton,-1.936,55.478
79,Newtown,-1.936,55.52
24,Eglingham,-1.831,55.47
33,South Broomhill,-1.605,55.292
46,Kirkharle,-1.978,55.137
134,Baybridge,-2.066,54.846
24,Thropton,-1.95,55.314
112,High Buston,-1.633,55.372
94,Foxstone Hill,-1.86,55.275
33,Warden,-2.134,54.995
66,Stannington,-1.667,55.109
28,Greenhead,-2.526,54.984
66,Fenrother,-1.722,55.223
28,Haugh Head,-1.993,55.527
55,Park End,-2.201,55.075
28,Little Swinburne,-2.081,55.094
79,Elishaw,-2.218,55.25
79,Whiteside,-2.461,55.017
55,Fourstones,-2.171,55.005
112,Ellington,-1.559,55.223
33,Hallington,-2.025,55.076
33,Kimmerston,-2.069,55.615
33,Coldrife,-1.895,55.248
28,Detchant,-1.861,55.623
55,Widdrington Station,-1.611,55.239
39,Sharperton,-2.064,55.332
46,Frettenham,1.325,52.709
79,Acle,1.55,52.639
24,Panxworth,1.478,52.665
33,Salle,1.126,52.78
55,Salhouse,1.419,52.677
33,Thorpe End,1.368,52.65
33,Reedham,1.566,52.56
33,Buxton,1.308,52.755
33,Rackheath,1.371,52.675
33,Cantley,1.513,52.578
66,Coltishall,1.363,52.731
33,Felthorpe,1.207,52.716
28,Marsham,1.254,52.769
192,Reepham,1.116,52.767
24,Halvergate,1.573,52.607
24,Great Yarmouth,1.722,52.582
160,Caister-on-Sea,1.726,52.654
55,Belton,1.662,52.567
39,Fritton,1.64,52.543
79,Hopton on Sea,1.73,52.542
33,Clippesby,1.594,52.675
55,Ormesby St Margaret,1.694,52.673
33,East Somerton,1.674,52.719
28,Billockby,1.59,52.663
33,Thrigby,1.641,52.654
112,Hemsby,1.693,52.695
24,West End,1.696,52.643
46,Stokesby,1.593,52.639
46,Gawsworth,-2.16,53.225
33,Arclid,-2.311,53.153
55,Goostrey,-2.346,53.227
28,Ollerton,-2.332,53.287
55,Brereton Green,-2.333,53.174
46,Lower Withington,-2.277,53.224
39,Church Minshull,-2.5,53.142
28,Bulkeley,-2.701,53.086
24,Disley,-2.033,53.358
46,Shavington,-2.447,53.061
28,Bate Heath,-2.47,53.31
66,Newhall,-2.58,53.006
55,Alderley Edge,-2.228,53.301
28,Butt Green,-2.494,53.058
28,Styal,-2.24,53.348
192,Bickerton,-2.736,53.07
28,Smithy Green,-2.38,53.271
24,Higher Poynton,-2.083,53.352
33,Brindley,-2.606,53.075
24,Gleadsmoss,-2.267,53.211
79,Wildboarclough,-2.024,53.216
28,Warmingham,-2.432,53.146
28,Weston,-2.401,53.066
39,Monk's Heath,-2.232,53.265
66,Wardle Industrial Estate,-2.595,53.116
24,Aston,-2.578,53.016
55,Hesleyside,-2.288,55.147
39,Saltwick,-1.727,55.114
192,Ninebanks,-2.34,54.874
24,Longframlington,-1.795,55.303
39,Wark,-2.221,55.089
134,Rochester,-2.265,55.277
46,Healey,-1.977,54.92
28,Hepscott,-1.65,55.151
55,Allendale Town,-2.252,54.896
24,Elwick,-1.815,55.625
24,Harbottle,-2.102,55.336
46,High Newton-by-the-Sea,-1.626,55.521
28,Crookham,-2.129,55.636
94,Higham Dykes,-1.79,55.073
33,Pressen,-2.259,55.617
24,Denwick,-1.672,55.422
66,Bardon Mill,-2.345,54.975
66,Barnhill,-1.941,55.122
55,Horton,-1.953,55.572
33,Lanehead,-2.324,55.165
24,Seaton Sluice,-1.477,55.083
160,Bower,-2.381,55.144
79,Billsmoor Park,-2.085,55.266
24,Stamfordham,-1.878,55.044
66,West Fleetham,-1.689,55.549
46,Martham,1.633,52.705
28,Rollesby,1.624,52.689
39,Thurne,1.556,52.688
33,Runham,1.644,52.64
28,Bastwick,1.591,52.703
397,King's Lynn,0.417,52.755
94,Hunstanton,0.49,52.937
39,Terrington St Clement,0.302,52.755
94,Dersingham,0.503,52.844
331,Heacham,0.491,52.901
66,Upwell,0.22,52.602
28,Boughton,0.507,52.59
33,Marham,0.534,52.664
24,Hillington,0.55,52.8
134,Feltwell,0.519,52.485
24,Hockwold cum Wilton,0.544,52.463
79,Ongar Hill,0.341,52.796
39,Sedgeford,0.544,52.901
46,Sandringham,0.517,52.827
28,East Winch,0.511,52.718
28,Ringstead,0.541,52.935
55,Lakes End,0.236,52.544
33,Bircham Newton,0.627,52.874
28,Coxford,0.74,52.83
39,Denver,0.379,52.589
24,Oakgrove,-2.122,53.224
28,Lawton-gate,-2.269,53.097
28,Radway Green,-2.334,53.084
39,Aston juxta Mondrum,-2.518,53.108
24,Bunbury,-2.651,53.116
55,Wrenbury Heath,-2.584,53.03
46,Barthomley,-2.35,53.068
28,Barbridge,-2.573,53.107
33,Wirswall,-2.676,52.993
33,Norbury,-2.652,53.023
46,Checkley,-2.398,53.011
33,Alderley Park,-2.232,53.279
28,Morley Green,-2.263,53.335
46,Wood Lanes,-2.097,53.331
66,Sworton Heath,-2.465,53.354
39,Withington Green,-2.288,53.238
55,Congleton Edge,-2.185,53.14
55,Marthall,-2.296,53.279
33,Rainow,-2.073,53.283
33,Wettenhall,-2.559,53.147
33,Allgreave,-2.04,53.201
24,Stapeley,-2.478,53.044
39,Rode Heath,-2.29,53.115
39,Langley,-2.089,53.241
66,Danebridge,-2.057,53.185
46,Burleydam,-2.585,52.98
94,North Creake,0.755,52.909
66,Brandon Creek,0.372,52.498
55,Southery,0.392,52.527
39,Fordham,0.385,52.573
24,East Walton,0.58,52.716
24,Burnham Overy Staithe,0.748,52.963
33,Stow Bardolph,0.41,52.626
39,Wolferton,0.457,52.826
39,Docking,0.63,52.9
46,Fring,0.582,52.884
39,Anmer,0.585,52.834
28,Middleton,0.461,52.715
39,Fair Green,0.455,52.725
33,West Acre,0.635,52.706
33,Wretton,0.493,52.572
28,West Newton,0.517,52.815
28,Fincham,0.488,52.629
33,Methwold Hythe,0.522,52.521
160,Ten Mile Bank,0.356,52.545
79,Summerfield,0.599,52.914
39,Ingleborough,0.182,52.715
39,Bawsey,0.494,52.751
24,Outwell,0.235,52.613
46,Burton,-1.714,55.592
55,Carham,-2.32,55.639
94,Coxbank,-2.51,52.974
46,Hatherton,-2.469,53.022
28,Ashley,-2.338,53.356
33,Timbersbrook,-2.159,53.161
33,Hassall Green,-2.328,53.125
28,Cranage,-2.371,53.213
28,Wilkesley,-2.551,52.967
46,Larden Green,-2.614,53.06
24,Rease Heath,-2.53,53.086
39,Hulme Walfield,-2.229,53.182
24,Key Green,-2.165,53.17
33,Arley,-2.499,53.328
28,Rodeheath,-2.183,53.198
66,New Mills,-2.331,53.335
46,Peover Heath,-2.307,53.26
33,Calveley,-2.608,53.128
33,Wybunbury,-2.451,53.038
33,Chorlton,-2.403,53.05
55,Runcorn,-2.703,53.328
66,Widnes,-2.741,53.374
46,Daresbury,-2.631,53.341
94,Hale,-2.799,53.337
24,Preston on the Hill,-2.64,53.322
24,Moore,-2.64,53.35
192,Warrington,-2.584,53.388
66,Lymm,-2.475,53.381
46,Culcheth,-2.52,53.454
33,Appleton Thorn,-2.542,53.35
55,Burtonwood,-2.653,53.432
33,Heatley,-2.446,53.391
39,Slaggyford,-2.502,54.866
55,Hebron,-1.692,55.2
24,Byrness,-2.372,55.319
160,Ancroft,-1.999,55.701
24,Beadnell,-1.634,55.557
55,Beanley,-1.871,55.46
33,East Lilburn,-1.931,55.507
28,Alwinton,-2.123,55.352
28,Bradford,-1.755,55.584
397,Wooler,-2.013,55.547
66,Langleeford,-2.08,55.492
24,Branton,-1.926,55.44
79,Belsay,-1.839,55.102
39,Black Heddon,-1.877,55.079
66,Harlow Hill,-1.875,55.011
39,Deadwater,-2.62,55.266
55,Akeld,-2.068,55.562
24,East Hartford,-1.58,55.106
46,Longhorsley,-1.767,55.246
28,North Charlton,-1.734,55.5
276,North Sunderland,-1.656,55.579
55,West Learmouth,-2.237,55.633
39,Elford,-1.701,55.572
79,Milfield,-2.103,55.599
55,Otterburn,-2.176,55.233
24,Chillingham,-1.907,55.529
134,Shillmoor,-2.179,55.366
134,Downham,-2.212,55.6
112,Cambo,-1.957,55.165
33,Lynemouth,-1.538,55.212
24,Ulgham,-1.633,55.224
24,Hazelrigg,-1.91,55.585
28,Tritlington,-1.675,55.226
24,Callaly,-1.916,55.38
46,Flotterton,-1.999,55.316
33,Kiln Pit Hill,-1.94,54.89
112,Juniper,-2.097,54.923
39,Great Ryle,-1.969,55.409
331,Comb,-2.365,55.209
28,Holystone,-2.068,55.319
79,Howick,-1.595,55.453
33,Whittonstall,-1.885,54.909
66,Chatton,-1.911,55.549
33,Horsley,-2.239,55.265
24,Linton,-1.588,55.216
33,Shotleyfield,-1.907,54.877
46,Shoresdean,-2.071,55.712
28,Easington,-1.802,55.606
28,Lucker,-1.758,55.567
28,Fenwick,-1.912,55.05
39,Slaley,-2.038,54.915
112,Ayle,-2.442,54.839
24,Stanton,-1.791,55.202
33,West Mains,-1.909,55.673
28,Ovington,-1.896,54.97
94,Stonehouse,-2.474,54.922
24,Wylam,-1.818,54.972
33,Otterburn Camp,-2.169,55.254
66,Barrowburn,-2.207,55.392
39,Shotton,-2.248,55.566
39,Kilham,-2.184,55.586
24,Broome Park,-1.825,55.409
28,West Ditchburn,-1.796,55.482
28,Howtel,-2.162,55.601
33,Felkington,-2.087,55.693
55,Bomarsund,-1.574,55.152
79,Hartside,-2.04,55.441
66,Goswick,-1.905,55.7
33,Flodden,-2.125,55.61
24,Wallridge,-1.912,55.085
33,Low Gate,-2.151,54.971
33,East Kyloe,-1.905,55.65
39,Cheswick,-1.952,55.712
46,Great Whittington,-1.992,55.031
39,Bearsbridge,-2.34,54.913
39,Rennington,-1.664,55.461
28,Yetlington,-1.963,55.383
66,Sinderhope,-2.235,54.862
24,New Bewick,-1.893,55.477
55,Kirkheaton,-1.969,55.092
46,Craster,-1.597,55.472
94,Walwick,-2.149,55.03
46,Corbridge,-2.014,54.976
66,Painshawfield,-1.899,54.931
24,Wark,-2.276,55.641
112,West Chevington,-1.64,55.27
55,Coalpits Grange,-2.033,54.896
39,Bingfield,-2.034,55.046
112,Mousen,-1.806,55.582
39,Newton on the Moor,-1.729,55.342
46,Horton Grange,-1.688,55.074
28,Little Ryle,-1.968,55.395
24,Wall,-2.129,55.015
331,Macclesfield,-2.134,53.262
192,Wilmslow,-2.233,53.327
192,Congleton,-2.21,53.168
94,Sandbach,-2.358,53.145
94,Marton,-2.224,53.212
46,Alsager,-2.308,53.098
39,Elsdon,-2.1,55.233
33,Halton,-2.005,55.005
94,Thrunton,-1.857,55.392
28,Alnham,-2.005,55.393
33,Longhoughton,-1.615,55.431
94,Glanton Pyke,-1.908,55.423
79,West Woodburn,-2.169,55.177
39,Throphill,-1.793,55.167
33,Newstead,-1.759,55.536
28,Etal,-2.113,55.649
39,Guyzance,-1.664,55.329
66,Allenheads,-2.217,54.804
24,Aydon,-1.986,54.988
39,Gatehouse,-2.332,55.195
79,Holy Island,-1.8,55.672
28,Haggerston,-1.932,55.686
24,Dilston,-2.038,54.964
33,Middleton,-1.901,55.161
28,Bowsden,-2.011,55.67
28,Whalton,-1.795,55.127
24,Whygate,-2.358,55.078
276,Catcleugh,-2.401,55.325
46,Featherstone Rowfoot,-2.492,54.939
24,Hartburn,-1.861,55.17
112,Barmoor Lane End,-1.994,55.653
24,High Hauxley,-1.561,55.322
39,Carterway Heads,-1.928,54.861
66,Greenhaugh,-2.321,55.178
33,Titlington,-1.842,55.431
55,Warenford,-1.781,55.55
192,Meldon,-1.811,55.149
66,Wingates,-1.843,55.252
134,Carrshield,-2.305,54.822
33,North Hazelrigg,-1.915,55.593
39,Alnmouth,-1.612,55.389
66,Horsley,-1.851,54.988
28,Stocksfield,-1.913,54.941
33,Simonburn,-2.2,55.058
79,Poynton,-2.122,53.346
94,Knutsford,-2.367,53.299
46,Handforth,-2.212,53.349
79,Bollington,-2.104,53.295
46,Haslington,-2.391,53.101
24,Acton,-2.547,53.074
33,Prestbury,-2.152,53.28
33,Blakenhall,-2.405,53.024
55,Peckforton,-2.687,53.106
28,Ravensmoor,-2.567,53.054
28,Wheelock,-2.376,53.125
24,Twemlow Green,-2.323,53.215
33,Hankelow,-2.492,53.005
55,Marbury,-2.654,53.008
33,Astbury,-2.229,53.152
28,Henbury,-2.179,53.262
46,Macclesfield Forest,-2.038,53.245
39,Rostherne,-2.384,53.348
39,Bucklow Hill,-2.404,53.33
33,Mobberley,-2.321,53.314
24,Burntcliff Top,-2.013,53.194
55,Bosley,-2.123,53.189
28,Kenyon,-2.556,53.453
55,Higher Walton,-2.602,53.362
33,Croft,-2.55,53.441
28,Broomedge,-2.445,53.372
55,Edlingham,-1.824,55.374
79,Ford,-2.084,55.631
55,Ingoe,-1.939,55.069
28,Rock,-1.677,55.477
33,Swarland,-1.738,55.327
55,Newton,-1.943,54.975
55,Togston,-1.612,55.306
55,Pigdon,-1.753,55.189
24,Great Tosson,-1.954,55.3
79,Gilsland,-2.57,54.991
28,Mindrum,-2.248,55.592
39,East Thirston,-1.689,55.293
24,Longwitton,-1.879,55.194
28,Eshott,-1.679,55.274
24,Forestburn Gate,-1.897,55.262
192,Christon Bank,-1.664,55.5
28,Old Bewick,-1.891,55.487
79,Birtley,-2.189,55.098
39,Hawkhill,-1.643,55.408
39,Westnewton,-2.152,55.567
33,Roseden,-1.95,55.489
55,Lorbottle,-1.946,55.353
55,Pegswood,-1.643,55.18
39,Nunnykirk,-1.869,55.233
39,Mitford,-1.727,55.168
55,Birling,-1.611,55.351
46,Ingram,-1.973,55.441
33,Longhirst,-1.647,55.196
39,Stretton,-2.57,53.333
33,Winwick,-2.593,53.432
571,Chester,-2.894,53.198
192,Ellesmere Port,-2.894,53.275
160,Northwich,-2.508,53.246
134,Winsford,-2.518,53.193
94,Neston,-3.061,53.288
79,Frodsham,-2.719,53.294
55,Weaverham,-2.574,53.261
24,Barnton,-2.548,53.273
55,Cuddington,-2.595,53.237
33,Norley,-2.645,53.247
24,Little Budworth,-2.602,53.183
28,Swan Green,-2.392,53.258
24,Mollington,-2.919,53.228
24,Salterswall,-2.557,53.198
39,Delamere,-2.656,53.214
24,Aldersey Green,-2.806,53.105
79,Dodleston,-2.954,53.143
79,Hatton Heath,-2.807,53.151
33,Crow's Nest Bridge,-2.755,53.14
112,No Man's Heath,-2.724,53.027
39,Kingsley,-2.672,53.258
33,Pulford,-2.931,53.124
33,Aston,-2.66,53.3
24,Stoak,-2.865,53.253
24,Utkinton,-2.671,53.184
39,Chorlton Lane,-2.809,53.024
66,Tattenhall,-2.766,53.119
55,Willaston,-3.001,53.295
66,Scrainwood,-2.012,55.381
46,Berrington,-1.989,55.683
46,Murton,-2.051,55.732
94,Hethpool,-2.164,55.55
28,Brunton,-1.671,55.516
39,Old Swarland,-1.742,55.311
79,Kielder,-2.584,55.235
192,Haltwhistle,-2.463,54.971
33,Buckton,-1.868,55.64
28,Melkridge,-2.409,54.969
46,Ogle,-1.783,55.105
39,Ewart Newtown,-2.047,55.581
55,Middleton,-1.839,55.614
134,Netherwitton,-1.843,55.207
33,Knowesgate,-2.015,55.166
28,Red Barns,-1.699,55.605
46,Coalcleugh,-2.308,54.802
28,Woodhorn,-1.53,55.193
39,Blindburn,-2.269,55.393
39,South Charlton,-1.74,55.476
55,Falstone,-2.433,55.181
39,Dalton,-1.827,55.042
28,Shilbottle,-1.686,55.372
112,Redesmouth,-2.21,55.133
79,Grindon,-2.135,55.697
79,Catton,-2.266,54.916
39,Widdrington,-1.597,55.258
24,Pauperhaugh,-1.84,55.292
39,Linshiels,-2.167,55.35
39,Ridsdale,-2.144,55.154
66,Pentre-bont,-3.886,53.053
39,Ty'n-y-groes,-3.838,53.23
66,Ty Mawr Cwm,-3.623,53.013
24,Caerhun,-3.839,53.22
33,Trefriw,-3.825,53.154
160,Eglwysbach,-3.792,53.218
94,Glan Conwy,-3.738,53.054
39,Cefn-brith,-3.591,53.042
94,Cliffe,0.499,51.46
39,Halling,0.442,51.351
66,Grain,0.714,51.455
160,Bracknell,-0.753,51.408
39,Binfield,-0.786,51.425
24,Newell Green,-0.737,51.432
24,Warfield,-0.733,51.442
24,Winkfield,-0.696,51.442
24,Winkfield Row,-0.707,51.425
24,Woodside,-0.663,51.432
46,Hawthorn Hill,-0.745,51.45
33,Thatcham,-1.255,51.404
94,Theale,-1.076,51.435
33,Mortimer,-1.066,51.377
79,Hungerford,-1.517,51.412
160,Lambourn,-1.529,51.507
94,Pangbourne,-1.088,51.482
33,East Ilsley,-1.288,51.527
55,Aldworth,-1.199,51.512
33,Farnborough,-1.375,51.535
94,Tan-y-fron,-3.557,53.164
66,Capel Curig,-3.91,53.104
28,Llansanffraid Glan Conwy,-3.791,53.271
46,Trofarth,-3.714,53.232
28,Llansannan,-3.596,53.181
46,Llysfaen,-3.665,53.278
66,Pentrefelin,-3.79,53.258
33,Gell,-3.721,53.213
24,Graig,-3.791,53.229
33,Tal-y-bont,-3.845,53.203
24,Cefn Berain,-3.502,53.212
24,Rhyd-y-foel,-3.631,53.277
39,Llanddoged,-3.785,53.158
39,Gogarth,-3.86,53.33
94,Pentre-llyn-cymmer,-3.535,53.061
79,Capel Garmon,-3.769,53.085
33,Ty-nant,-3.505,52.992
55,Oaklands,-3.776,53.109
79,Ysbyty Ifan,-3.726,53.026
24,Deunant-isaf,-3.551,53.176
79,Gwytherin,-3.68,53.14
55,Pentre Isaf,-3.686,53.206
39,Melin-y-coed,-3.771,53.129
28,Betws-y-Coed,-3.804,53.094
28,Bylchau,-3.532,53.156
46,Henryd,-3.844,53.258
33,Betws-yn-Rhos,-3.641,53.249
28,Cwm Penmachno,-3.86,53.01
66,Pandy Tudur,-3.707,53.164
24,Cerrigydrudion,-3.56,53.025
33,Pont-y-pant,-3.864,53.07
46,Rhos-y-mawn,-3.717,53.184
46,Pennant,-3.687,53.12
46,Penmachno,-3.804,53.04
24,Cross Inn,-4.134,52.257
33,Llanilar,-4.022,52.355
66,Chancery,-4.086,52.37
28,Creuddyn Bridge,-4.117,52.151
28,Mydroilyn,-4.256,52.173
192,Aberarth,-4.229,52.251
39,Ysbyty Ystwyth,-3.858,52.326
55,Tre'r-ddol,-3.975,52.511
39,Oakford,-4.267,52.198
28,Llandre,-4.02,52.463
33,Pen-bont Rhydybeddau,-3.942,52.433
24,Borth,-4.051,52.478
33,Blaenporth,-4.537,52.108
112,Llanfihangel-y-Creuddyn,-3.96,52.366
28,Cwm-cou,-4.494,52.05
33,Synod Inn,-4.335,52.162
39,Swyddffynnon,-3.915,52.278
112,Ciliau Aeron,-4.196,52.206
66,Crosswood,-3.963,52.34
33,Betws Ifan,-4.48,52.096
28,Nanternis,-4.381,52.182
28,Tal-y-bont,-3.98,52.486
66,Parcllyn,-4.561,52.131
28,Penparc,-4.613,52.101
33,Lledrod,-3.988,52.314
39,Llangrannog,-4.467,52.158
24,Llanwenog,-4.2,52.085
24,Aberffrwd,-3.929,52.391
94,Pont-Sian,-4.28,52.093
66,Bwlch-y-fadfa,-4.29,52.123
39,Llanddewi Brefi,-3.957,52.18
28,Coed y Cwm,-3.332,51.627
24,Ynysybwl,-3.361,51.64
134,Taff's Well,-3.262,51.544
46,Treherbert,-3.537,51.675
28,Gilfach Goch,-3.472,51.585
28,Pen-y-coedcae,-3.356,51.58
28,Penderyn,-3.522,51.758
33,Pontygwaith,-3.43,51.637
28,Talbot Green,-3.384,51.534
39,Rhigos,-3.559,51.74
55,Coedely,-3.41,51.563
66,Merthyr Tydfil,-3.379,51.753
24,Merthyr Vale,-3.333,51.686
112,Vaynor,-3.381,51.784
24,Winch Fawr,-3.416,51.747
46,Abercanaid,-3.366,51.723
39,Bedlinog,-3.308,51.704
79,St Mary Hoo,0.592,51.459
33,Allhallows-on-Sea,0.649,51.474
39,Cliffe Woods,0.497,51.434
46,Cuxton,0.454,51.375
24,Cooling,0.527,51.455
39,Stoke,0.62,51.446
24,Upper Upnor,0.523,51.406
112,Cwmbran,-3.029,51.652
79,Pontypool,-3.029,51.685
33,Llanfrechfa,-2.985,51.638
39,Waterloo,-3.068,51.729
46,Castell-y-bwch,-3.049,51.626
28,Garn-yr-erw,-3.108,51.783
39,Varteg,-3.066,51.748
134,Abergavenny,-3.021,51.827
397,Chepstow,-2.679,51.637
94,Caldicot,-2.76,51.591
33,Lower Basildon,-1.126,51.504
79,Yattendon,-1.204,51.466
46,Burghfield,-1.041,51.411
46,Bradfield,-1.131,51.448
39,Compton,-1.253,51.515
112,Keeston,-5.046,51.832
46,Cyffredin,-5.206,51.933
66,Rinaston,-4.933,51.893
24,Cresswell Quay,-4.824,51.722
79,Solva,-5.197,51.873
24,Brynberian,-4.763,51.981
66,Llanfair-Nant-Gwyn,-4.676,52.006
192,Puncheston,-4.9,51.929
94,Bletherston,-4.805,51.854
331,Rhosson,-5.3,51.881
46,Caerfarchell,-5.207,51.897
33,Blaenffos,-4.638,51.999
79,Hermon,-4.609,51.955
28,St Davids,-5.264,51.882
94,Bwlchygroes,-4.563,51.993
24,Walton West,-5.099,51.772
28,Freshwater East,-4.862,51.649
33,Clunderwen,-4.73,51.839
66,Henry's Moat,-4.848,51.911
28,Uzmaston,-4.941,51.792
46,Trelleck Grange,-2.735,51.712
39,Crossway,-2.8,51.869
33,Pandy,-2.96,51.894
24,Llancayo,-2.912,51.725
24,Cwmcarvan,-2.755,51.764
33,Sudbrook,-2.715,51.59
571,Brecon,-3.383,51.95
331,Welshpool,-3.143,52.662
28,Llandrindod Wells,-3.377,52.233
55,Knucklas,-3.096,52.36
28,Llangadfan,-3.463,52.686
39,Meifod,-3.252,52.711
79,Abbeycwmhir,-3.388,52.33
79,Foel,-3.49,52.692
24,Llanyre,-3.401,52.252
112,Llansantffraed,-3.272,51.904
79,Penwyllt,-3.666,51.827
112,Michaelchurch-on-Arrow,-3.1,52.149
28,Abergwydol,-3.787,52.61
24,Buttington,-3.109,52.671
55,Tycrwyn,-3.331,52.756
79,Nant-glas,-3.471,52.274
24,Four Crosses,-3.398,52.671
46,Efail-rhyd,-3.245,52.828
33,Pennant,-3.655,52.561
39,Llanddew,-3.374,51.966
94,Llandefaelog,-3.407,51.983
46,Llowes,-3.176,52.066
66,Llanfechain,-3.201,52.775
55,Llanwrtyd,-3.652,52.114
39,Ddol Cownwy,-3.458,52.745
134,Dolfach,-3.599,52.382
33,Llanwddyn,-3.449,52.76
24,Forge,-3.825,52.584
24,Castlemartin,-5.016,51.646
24,Hundleton,-4.951,51.666
28,Granston,-5.062,51.964
33,Llandissilio,-4.731,51.858
230,Fishguard,-4.974,51.994
39,Pwllcrochan,-5.009,51.683
55,Llanfflewyn,-4.469,53.374
39,Ceidio,-4.389,53.344
28,Llanbadrig,-4.443,53.421
39,Llanallgo,-4.255,53.342
134,Capel Parc,-4.333,53.359
46,Rhosmeirch,-4.311,53.274
33,Llanfigael,-4.511,53.318
28,Llangwyllog,-4.347,53.285
33,Bodffordd,-4.362,53.267
39,Capel Gwyn,-4.474,53.254
33,Llaneilian,-4.302,53.411
33,Llangristiolus,-4.345,53.238
39,Llanfaethlu,-4.537,53.354
33,Llandyfrydog,-4.339,53.344
33,Llangaffo,-4.331,53.192
33,Dothan,-4.441,53.245
94,Bethel,-4.401,53.208
24,Moelfre,-4.238,53.355
24,Penrhos,-4.598,53.303
28,Ceint,-4.265,53.251
39,Llanbedrgoch,-4.238,53.303
39,Llanddyfnan,-4.247,53.285
55,Pen-y-garnedd,-4.193,53.269
46,Llanddona,-4.141,53.294
24,Dol-fach,-3.602,52.603
28,Evenjobb,-3.076,52.253
24,Trewern,-3.066,52.697
94,Deuddwr,-3.128,52.748
28,Guilsfield,-3.153,52.695
55,Cwmbelan,-3.551,52.425
94,Plas Llwyngwern,-3.842,52.627
33,Tyn-y-ffridd,-3.31,52.87
46,Sarn,-3.168,52.511
39,Llyswen,-3.264,52.032
24,Pentrefelin,-3.249,52.814
55,Pentre Llifior,-3.255,52.573
66,Rhos-goch,-3.188,52.124
66,Old Radnor,-3.096,52.225
33,Llanspyddid,-3.437,51.941
55,Cwm Irfon,-3.671,52.133
28,Derwenlas,-3.886,52.574
33,Pont Crugnant,-3.64,52.549
66,Llangynidr,-3.229,51.866
33,Cwmbach,-3.215,52.049
79,Cedig,-3.485,52.795
33,Cathedine,-3.244,51.92
79,Trallong,-3.504,51.955
46,Mochdre,-3.364,52.487
28,Pwllgloyw,-3.411,51.993
28,Bleddfa,-3.162,52.308
24,Glascoed,-3.302,52.666
33,Boughrood,-3.268,52.044
33,Moelfre,-3.216,52.848
94,Llanstephan,-3.281,52.068
24,Llanwrthwl,-3.5,52.261
28,Crickhowell,-3.136,51.861
28,Llangors,-3.255,51.939
55,Llansawel,-4.012,52.008
66,Gwarallt,-4.222,52.025
66,Merthyr,-4.393,51.861
39,Crugybar,-3.954,52.021
24,Llandyfan,-3.97,51.837
94,Salem,-4.002,51.916
28,Pendine,-4.546,51.745
55,Pen-y-bont,-4.462,51.914
66,Ystradffin,-3.77,52.104
55,Capel Gwyn,-4.231,51.879
28,Pen-y-mynydd,-4.224,51.711
55,Trimsaran,-4.245,51.721
24,Ystradowen,-3.811,51.793
39,Ffaldybrenin,-3.987,52.081
46,Cilgwyn,-3.829,51.952
33,Bronwydd Arms,-4.3,51.891
79,Cwmdu,-3.986,51.953
39,Blaen-y-coed,-4.402,51.918
94,Maesybont,-4.08,51.829
33,Bryn,-4.096,51.685
134,Gwernogle,-4.137,51.982
39,Cynheidre,-4.188,51.743
33,Myddfai,-3.786,51.955
160,Pumsaint,-3.955,52.046
24,Aber-Giar,-4.185,52.046
66,Llannon,-4.115,51.756
94,Pant yr Athro,-4.366,51.796
28,Carway,-4.224,51.735
33,Tycroes,-4.018,51.776
39,Tumble,-4.111,51.778
46,Pentre-ty-gwyn,-3.722,52.004
79,Alltwalis,-4.261,51.961
24,Llangennech,-4.084,51.695
55,Llanfwrog,-4.553,53.329
134,Amlwch,-4.342,53.409
28,Mona,-4.364,53.248
55,Llechcynfarwy,-4.431,53.303
33,Beaumaris,-4.096,53.264
28,Carmel,-4.423,53.315
276,Benllech,-4.224,53.321
28,Gadfa,-4.32,53.383
28,Llanedwen,-4.233,53.197
28,Penmynydd,-4.232,53.247
94,Gaerwen,-4.271,53.223
24,Bodewryd,-4.409,53.393
55,Llantrisant,-4.457,53.326
39,Rhosgoch,-4.392,53.378
94,Llanfaes,-4.089,53.278
28,Llanddaniel Fab,-4.256,53.213
66,Llanfairyneubwll,-4.548,53.26
46,Llanfechell,-4.455,53.393
33,Bryngwran,-4.474,53.27
28,Elim,-4.473,53.336
79,Valley,-4.563,53.286
46,Dulas,-4.291,53.383
28,Talwrn,-4.27,53.268
24,Bodorgan,-4.417,53.182
33,Trearddur,-4.619,53.285
28,Burwen,-4.379,53.414
39,Malltraeth,-4.389,53.194
33,Rhoscolyn,-4.599,53.252
33,Llanynghenedl,-4.529,53.301
28,Brynrefail,-4.285,53.358
24,Felindre,-3.187,52.021
24,Llanymynech,-3.088,52.78
28,Felinfach,-3.325,51.989
112,Llaithddu,-3.367,52.411
39,Bwlch,-3.237,51.891
66,Llandyssil,-3.185,52.547
46,Llanbadarn Fynydd,-3.323,52.388
79,Cefn-gorwydd,-3.603,52.098
66,Glanmule,-3.229,52.505
55,Hyssington,-3.012,52.541
112,Abergwesyn,-3.674,52.162
39,Capel-y-ffin,-3.084,51.979
28,Abercegir,-3.766,52.601
160,Llanelieu,-3.189,52.001
112,Heol Senni,-3.558,51.898
24,Gaer,-3.206,51.888
24,Cyfronydd,-3.265,52.662
66,Maesmynis,-3.435,52.117
46,Bwlch-y-cibau,-3.218,52.748
46,Beulah,-3.577,52.147
66,Llandegley,-3.258,52.254
79,Tregoyd,-3.167,52.033
39,Aberhosan,-3.754,52.561
79,Caersws,-3.427,52.518
46,Leighton,-3.116,52.647
46,St Harmon,-3.485,52.343
39,Dolley Green,-3.049,52.282
46,Scethrog,-3.299,51.92
79,Llanfihangel Tal-y-llyn,-3.288,51.947
33,Llansaint,-4.339,51.747
24,Pontyates,-4.215,51.749
55,Court Henry,-4.096,51.882
24,Rhydcymerau,-4.072,52.027
39,Crosshands,-4.624,51.873
46,Llangynog,-4.409,51.82
46,Croesyceiliog,-4.311,51.823
112,Bwlchnewydd,-4.371,51.895
230,Llandovery,-3.798,51.995
331,Cwmduad,-4.364,51.955
46,Bethlehem,-3.911,51.909
39,Dolgran,-4.282,51.984
24,Mynyddygarreg,-4.277,51.75
39,Bryn Iwan,-4.451,51.955
39,Login,-4.668,51.877
33,Pentrefelin,-4.036,51.892
46,Penrherber,-4.494,52.02
79,Porthyrhyd,-3.881,52.022
46,Cwmann,-4.066,52.096
28,Llanglydwen,-4.646,51.907
66,Glandy Cross,-4.7,51.906
94,Rhos,-4.361,51.992
94,Cynghordy,-3.737,52.043
28,Ffairfach,-3.992,51.867
46,Marros,-4.598,51.748
112,Horeb,-4.163,51.928
24,Gwndwn,-4.22,52.016
55,Pen-y-garn,-4.078,51.965
33,Abernant,-4.414,51.881
66,Halfway,-3.708,51.979
46,Drefach,-4.137,51.799
94,Capel-Gwynfe,-3.856,51.88
33,Pentre Morgan,-4.313,51.904
24,Llanfynydd,-4.098,51.926
33,Llanybri,-4.41,51.785
33,Broadlay,-4.361,51.758
46,Golden Grove,-4.047,51.857
79,Felindre,-3.887,51.929
33,East Winterslow,-1.647,51.104
66,Westdown Camp,-1.938,51.229
134,Morgan's Vale,-1.715,50.988
46,Keevil,-2.115,51.321
46,East Tytherton,-2.053,51.473
94,West End,-2.023,51.018
66,Semley,-2.152,51.041
55,Corsley,-2.242,51.219
28,Berwick St Leonard,-2.106,51.098
28,Chelworth,-2.043,51.647
46,Woodminton,-1.985,50.999
46,Upper Woodford,-1.822,51.134
79,Huish,-1.791,51.37
39,Monkton Farleigh,-2.279,51.388
66,Highway,-1.94,51.47
46,Brokenborough,-2.117,51.604
39,Grittenham,-1.954,51.545
24,Steeple Ashton,-2.135,51.31
39,Britford,-1.771,51.051
24,Worton,-2.034,51.316
28,Lower Chicksgrove,-2.039,51.069
24,Green Hill,-1.9,51.568
66,Upper Upham,-1.674,51.493
55,Upton Lovell,-2.078,51.167
33,Seend,-2.081,51.349
94,Baverstock,-1.959,51.089
24,Llangoed,-4.087,53.296
46,Rhydwyn,-4.534,53.372
33,Tregele,-4.473,53.406
66,Llynfaes,-4.387,53.281
24,Gwalchmai,-4.415,53.255
160,Caernarfon,-4.259,53.141
55,Fron,-4.455,52.931
66,Fairbourne,-4.051,52.7
39,Llanfachreth,-3.85,52.786
33,Rhoslan,-4.261,52.946
46,Rhiwlas,-4.129,53.172
134,Aber-Cywarch,-3.675,52.729
33,Bryncroes,-4.635,52.852
33,Llanbedrog,-4.49,52.86
28,Ynys,-4.088,52.897
55,Llandderfel,-3.513,52.923
112,Llanfendigaid,-4.117,52.624
55,Prenteg,-4.105,52.953
24,Mynytho,-4.517,52.853
66,Bodermid,-4.736,52.794
94,Rhedyn,-4.533,52.864
46,Methlem,-4.714,52.84
79,Talsarnau,-4.064,52.903
94,Ffridd Uchaf,-4.123,53.044
230,Bronaber,-3.911,52.87
94,Dinas,-4.575,52.895
66,Groesffordd,-4.569,52.925
39,Rhos-y-gwaliau,-3.571,52.899
331,Pwllheli,-4.423,52.885
46,Llanrug,-4.189,53.15
33,Talgarth,-3.231,51.997
55,Llanerfyl,-3.427,52.677
94,Trelystan,-3.094,52.627
55,Pen-y-bont Llanerch Emrys,-3.169,52.806
66,Llanfilo,-3.283,51.991
46,Defynnog,-3.561,51.937
33,Pentre'r-felin,-3.572,51.961
28,Arddleen,-3.099,52.735
79,Plas Llysyn,-3.54,52.563
134,Llanidloes,-3.54,52.447
24,Hope,-3.103,52.657
55,Clatter,-3.477,52.541
33,Llanwnog,-3.439,52.531
33,Tretower,-3.181,51.884
112,Dylife,-3.677,52.532
46,Commins Coch,-3.709,52.611
112,Melin-y-ddol,-3.348,52.652
39,Beguildy,-3.185,52.41
46,Snead,-3.006,52.522
192,Knighton,-3.045,52.343
33,Builth Road,-3.425,52.17
28,Llandefaelog-tre'r-graig,-3.272,51.961
24,Llanfaredd,-3.358,52.146
33,Llanbister,-3.304,52.351
46,Pontrobert,-3.319,52.704
46,Elan Village,-3.559,52.271
28,Llanllugan,-3.392,52.609
55,Llandefalle,-3.302,52.011
28,Gladestry,-3.123,52.189
134,Llywel,-3.646,51.958
33,Battle,-3.439,51.968
160,Tregynon,-3.335,52.576
55,Bwlch-y-ffridd,-3.373,52.549
28,Ceinws,-3.835,52.639
55,Cenarth,-4.527,52.045
94,Cwmfelin Mynach,-4.576,51.894
66,Cwmisfael,-4.187,51.82
28,Milo,-4.037,51.837
192,Kidwelly,-4.306,51.737
28,Siloh,-3.835,52.017
79,Llidiad-Nenog,-4.12,52.016
28,Pentrecagal,-4.423,52.034
39,Capel Iwan,-4.493,51.998
39,Talley,-3.987,51.969
24,Manordeilo,-3.928,51.921
46,Bancyfelin,-4.434,51.835
28,Cefn-y-pant,-4.628,51.897
33,Ashfield,-3.903,51.941
28,Llangendeirne,-4.238,51.803
55,Llanllawddog,-4.242,51.941
33,Brook,-4.512,51.756
24,Cross Hands,-4.084,51.794
33,Capel Isaac,-4.06,51.921
39,Blaenwaun,-4.566,51.913
66,Gwyddgrug,-4.239,51.996
134,Rhandirmwyn,-3.774,52.077
46,Crwbin,-4.216,51.795
24,Hebron,-4.648,51.915
24,Cefneithin,-4.096,51.803
24,Ferryside,-4.366,51.767
46,Notton,-2.127,51.426
33,Norton Bavant,-2.13,51.188
33,Lydiard Millicent,-1.863,51.571
39,Upper Chute,-1.574,51.283
112,West Kington,-2.274,51.494
39,Upavon Army Camp,-1.776,51.293
55,Bromham,-2.049,51.389
94,Tisbury,-2.075,51.061
66,Atworth,-2.192,51.393
39,Alderton,-2.231,51.545
79,Fisherton de la Mere,-2,51.146
28,Fosbury,-1.541,51.318
94,Lyneham,-1.97,51.503
66,Charlton St Peter,-1.833,51.303
79,Allington,-1.901,51.366
28,Woodfalls,-1.718,50.977
24,Nettleton,-2.263,51.504
39,Trading Estate,-2.206,51.274
24,Poulshot,-2.044,51.336
33,Sopworth,-2.249,51.575
39,Bratton,-2.123,51.27
28,Gastard,-2.166,51.415
94,Lower Seagry,-2.064,51.53
28,Bushton,-1.907,51.496
685,Peterborough,-0.259,52.581
112,Wittering,-0.442,52.609
24,Southorpe,-0.404,52.611
55,North Side,-0.117,52.581
33,Milking Nook,-0.249,52.637
66,Bwlchtocyn,-4.51,52.806
331,Dolgellau,-3.886,52.743
28,Garreg,-4.065,52.955
33,Abererch,-4.382,52.906
94,Llanfaelrhys,-4.651,52.811
24,Moggerhanger,-0.334,52.129
24,Upper Caldecote,-0.29,52.099
46,Sutton,-0.213,52.111
28,Upper Shelton,-0.556,52.081
24,Tingrith,-0.534,51.98
55,Langford,-0.269,52.053
55,Lower Sundon,-0.475,51.931
24,Maulden,-0.465,52.032
66,Aspley Guise,-0.629,52.012
28,Slip End,-0.435,51.854
28,Apsley End,-0.368,51.983
24,Stanford,-0.304,52.057
33,Pulloxhill,-0.452,51.995
33,Battlesden,-0.594,51.95
33,Millbrook,-0.523,52.036
46,Everton,-0.244,52.146
55,Cockayne Hatley,-0.159,52.131
39,Tilsworth,-0.577,51.91
66,Woburn,-0.621,51.988
24,Wharley End,-0.628,52.074
46,Aberangell,-3.709,52.677
28,Penmaenpool,-3.94,52.746
39,Waunfawr,-4.207,53.113
134,Ganllwyd,-3.891,52.802
24,Abergwyngregyn,-4.015,53.236
192,Llithfaen,-4.448,52.961
39,Penmorfa,-4.163,52.944
112,Llanuwchllyn,-3.67,52.857
28,Corris,-3.841,52.654
94,Corris Uchaf,-3.856,52.663
39,Betws Garmon,-4.169,53.087
46,Wenallt,-3.51,52.967
276,Bala,-3.597,52.912
46,Rhyd-yr-onen,-4.045,52.602
39,Cilan Uchaf,-4.526,52.787
28,Llanllyfni,-4.283,53.043
24,Llanegryn,-4.068,52.629
66,Criccieth,-4.229,52.92
33,Dinorwig,-4.115,53.135
46,Llanfaglan,-4.287,53.119
79,Parc,-3.671,52.892
33,Llanfihangel-y-pennant,-3.964,52.661
24,Pont-rug,-4.223,53.145
24,Cwm-y-glo,-4.166,53.142
55,Llangwnnadl,-4.671,52.865
46,Bryncir,-4.261,52.979
33,Deiniolen,-4.128,53.147
66,Rhosgadfan,-4.233,53.095
33,Capel Carmel,-4.729,52.823
39,Llaniestyn,-4.575,52.874
66,Llannor,-4.449,52.908
33,Rhos-y-llan,-4.622,52.909
28,Llangunllo,-3.159,52.335
46,Alltforgan,-3.531,52.808
28,Llandeilo'r-Fan,-3.607,52
28,Bronllys,-3.248,52.007
24,Trecastle,-3.63,51.95
46,Berriew,-3.201,52.599
160,Felmersham,-0.55,52.207
94,Souldrop,-0.557,52.244
28,Stagsden,-0.565,52.131
79,Wilden,-0.398,52.183
39,Wootton,-0.528,52.098
33,Clapham,-0.495,52.163
28,Hinwick,-0.631,52.243
66,Lower Dean,-0.455,52.311
79,Keysoe Row,-0.413,52.238
33,Wood End,-0.538,52.111
33,Knotting,-0.531,52.26
39,Milton Ernest,-0.513,52.194
33,Chellington,-0.605,52.19
66,Great Barford,-0.352,52.157
28,Pavenham,-0.556,52.189
33,Salph End,-0.409,52.163
28,Stewartby,-0.513,52.073
66,Colmworth,-0.382,52.213
55,Riseley,-0.476,52.253
39,Sharnbrook,-0.542,52.224
94,Wilstead,-0.438,52.08
28,Oakley,-0.526,52.171
28,Little Staughton,-0.384,52.252
24,Willington,-0.377,52.132
46,Dunstable,-0.516,51.884
112,Leighton Buzzard,-0.662,51.92
39,Botwnnog,-4.586,52.85
28,Pentir,-4.136,53.183
39,Llwyndyrys,-4.421,52.943
33,Nantmor,-4.085,52.994
46,Tal-y-bont,-4.097,52.774
46,Croesor,-4.04,52.984
476,Tywyn,-4.092,52.584
46,Brithdir,-3.82,52.76
28,Nasareth,-4.284,53.026
33,Penrhos,-4.466,52.878
476,Colwyn Bay,-3.721,53.291
66,Abergele,-3.583,53.285
94,Llandudno,-3.825,53.317
79,Conwy,-3.811,53.289
33,Penrhyn Bay,-3.769,53.32
331,Llanrwst,-3.796,53.142
112,Llanfairfechan,-3.972,53.255
55,Dolgarrog,-3.842,53.189
24,Llanddulas,-3.643,53.29
66,Llannefydd,-3.527,53.224
79,Maerdy,-3.463,52.991
46,Dolwen,-3.673,53.259
55,Bryn Rhyd-yr-Arian,-3.564,53.196
24,St George,-3.539,53.27
66,Gellioedd,-3.581,52.991
33,Towyn,-3.543,53.302
28,Llanfihangel Glyn Myfyr,-3.506,53.03
39,Rhydlydan,-3.653,53.044
28,Llanfair Talhaiarn,-3.604,53.217
33,Devil's Bridge,-3.855,52.375
66,Capel Seion,-3.999,52.394
94,Cwmystwyth,-3.779,52.351
79,Llanddeiniol,-4.112,52.328
46,Llechryd,-4.599,52.065
331,Ffoshelyg,-3.991,52.292
33,Glaspwll,-3.861,52.561
66,Pant-glas,-3.816,52.569
33,Llanfihangel-Nant-Melan,-3.196,52.214
46,Tylwch,-3.515,52.409
39,Penybont,-3.295,52.267
46,Llananno,-3.327,52.362
46,Penybontfawr,-3.354,52.811
66,Blaendyryn,-3.555,52.019
39,Llangurig,-3.604,52.406
39,Cascob,-3.116,52.291
28,Gaufron,-3.468,52.3
28,Melinbyrhedyn,-3.748,52.574
94,Upper Chapel,-3.447,52.055
230,Llangynog,-3.407,52.825
66,Pool Quay,-3.103,52.695
28,Rhiwlas,-3.193,52.88
39,Llanmerewig,-3.238,52.526
39,Llanfihangel Nant Bran,-3.537,51.997
33,Abernaint,-3.296,52.783
79,Bwlch-y-sarnau,-3.423,52.36
66,Crossway,-3.391,52.21
33,Bwlchyddar,-3.233,52.789
46,Dolwen,-3.516,52.656
24,Penygarnedd,-3.325,52.803
39,Llanbadarn-y-garreg,-3.296,52.129
24,Llangenny,-3.1,51.855
28,Pontneddfechan,-3.588,51.759
33,Cwmorgan,-4.485,51.985
66,Pontyberem,-4.178,51.775
39,Llandysul,-4.314,52.036
24,Esgair,-4.363,51.933
66,Meidrim,-4.482,51.861
33,Pwll,-4.201,51.687
39,Penrhyndeudraeth,-4.064,52.928
28,Cenin,-4.29,52.981
94,Ty-nant,-3.622,52.823
39,Gell,-4.239,52.936
28,Glasinfryn,-4.116,53.199
33,Pontllyfni,-4.337,53.048
46,Towyn,-4.551,52.819
28,Llandegwning,-4.576,52.841
28,Rhyd-Ddu,-4.135,53.054
134,Porthmadog,-4.131,52.926
46,Cae Clyd,-3.926,52.978
33,Nantlle,-4.226,53.059
24,Llandwrog,-4.315,53.081
79,Glan-yr-afon,-3.621,52.955
46,Glan-yr-afon,-3.452,52.972
55,Sarnau,-3.53,52.942
39,Pistyll,-4.493,52.95
55,Rhyd-uchaf,-3.634,52.929
79,Aberdovey,-4.043,52.546
46,Y Felinheli,-4.212,53.181
79,Llanfihangel-y-pennant,-4.196,52.982
39,Rhos-fawr,-4.401,52.926
33,Cemmaes Road,-3.741,52.622
28,Llanfihangel-yng-Ngwynfa,-3.362,52.741
39,Llanfyllin,-3.269,52.763
55,Aberedw,-3.341,52.118
55,New Radnor,-3.151,52.241
46,Rhos-y-brithdir,-3.281,52.798
28,Cnwch Coch,-3.945,52.357
28,Gwbert,-4.684,52.117
24,Goginan,-3.932,52.411
66,Bethania,-4.092,52.251
46,Llangwyryfon,-4.055,52.315
24,Salem,-3.959,52.441
28,Penuwch,-4.056,52.243
55,Alltyblaca,-4.16,52.086
160,Aber-banc,-4.401,52.048
33,Trefenter,-4.045,52.296
46,Monachty,-4.191,52.236
55,Cwmbrwyno,-3.899,52.409
66,Eglwys Fach,-3.936,52.545
79,Ponthirwaun,-4.537,52.077
24,Ffostrasol,-4.375,52.103
46,Brongest,-4.45,52.079
55,Dihewyd,-4.216,52.179
39,Capel Tygwydd,-4.524,52.063
24,Pantgwyn,-4.571,52.082
28,Pontrhydfendigaid,-3.86,52.282
28,Pisgah,-3.938,52.381
24,Llangorwen,-4.057,52.437
66,Llanon,-4.178,52.282
55,Llanmihangel,-3.466,51.437
28,St Hilary,-3.414,51.448
24,Peterston-super-Ely,-3.315,51.482
28,Llysworney,-3.492,51.456
46,Penllyn,-3.478,51.476
39,Downs,-3.285,51.462
46,Michaelston-le-Pit,-3.221,51.45
24,Llanmaes,-3.466,51.417
28,Llwyn-y-brain,-4.614,51.804
66,Llangeler,-4.373,52.027
39,Llanddowror,-4.531,51.799
112,Trelech,-4.499,51.945
46,Maesycrugiau,-4.227,52.045
46,Bancyffordd,-4.319,52.015
24,Porthyrhyd,-4.148,51.819
24,Llanfihangel-uwch-Gwili,-4.194,51.882
39,Llanybyther,-4.148,52.071
24,Five Roads,-4.19,51.725
24,Pont Henri,-4.205,51.762
46,Abergorlech,-4.065,51.984
46,Gellywen,-4.506,51.884
46,Llandybie,-4.004,51.817
94,Cwmfelin-boeth,-4.625,51.838
24,Llangain,-4.345,51.816
46,Llanddeusant,-3.779,51.905
39,Meinciau,-4.23,51.772
39,Cilycwm,-3.817,52.045
28,Plas Farm,-4.202,51.92
39,Llanegwad,-4.152,51.871
33,Ffynnon-ddrain,-4.328,51.871
986,Swansea,-3.949,51.643
55,Gowerton,-4.027,51.642
24,Eye Green,-0.185,52.618
33,Upton,-0.367,52.593
24,Maxey,-0.332,52.659
66,Marholm,-0.305,52.605
28,Pilsgate,-0.427,52.638
55,Eye,-0.191,52.608
46,Thornhaugh,-0.424,52.593
33,Partrishow,-3.046,51.892
24,Pont-faen,-3.463,51.996
46,Tal-y-Wern,-3.729,52.589
79,Pant Mawr,-3.693,52.428
39,Llanigon,-3.148,52.05
39,Cilmery,-3.454,52.153
230,Builth Wells,-3.404,52.149
55,Llansantffraed-in-Elwel,-3.317,52.181
66,Llanwyddelan,-3.353,52.601
33,Garthmyl,-3.189,52.585
33,Nantmel,-3.423,52.287
39,Cwmdu,-3.189,51.906
28,Clyro,-3.148,52.081
33,Sarnau,-3.132,52.734
46,Merthyr Cynog,-3.48,52.026
66,Hengoed,-3.13,52.172
28,Llangammarch Wells,-3.55,52.112
39,Rhyd,-3.517,52.594
33,Abermule,-3.234,52.546
66,Llan,-3.649,52.594
33,Gwenddwr,-3.366,52.078
28,Montgomery,-3.146,52.563
230,Hay-on-Wye,-3.125,52.073
46,Hirnant,-3.412,52.792
79,Llawr-y-glyn,-3.575,52.508
39,Forden,-3.13,52.607
66,Tirabad,-3.635,52.059
55,Gwystre,-3.369,52.28
24,Painscastle,-3.214,52.108
24,Llanelwedd,-3.393,52.159
55,Cwmavon,-3.761,51.616
33,Rhos,-3.827,51.712
24,Seven Sisters,-3.704,51.766
66,Resolven,-3.694,51.71
39,Bryn,-3.714,51.617
33,Llandarcy,-3.858,51.641
28,Llangiwg,-3.847,51.733
33,Onllwyn,-3.677,51.779
46,St Donat's,-3.528,51.405
28,Graig Penllyn,-3.473,51.488
66,Llancarfan,-3.363,51.424
79,Lavernock,-3.173,51.407
24,Treoes,-3.522,51.496
24,West Aberthaw,-3.402,51.393
28,Colwinston,-3.521,51.469
46,Wick,-3.55,51.422
28,St Athan,-3.415,51.403
28,Ogmore-by-Sea,-3.632,51.463
397,Rhondda,-3.47,51.645
134,Pontypridd,-3.324,51.594
192,Aberdare,-3.46,51.725
79,Mountain Ash,-3.378,51.682
55,Abercynon,-3.336,51.654
55,Tonyrefail,-3.42,51.586
39,Ferndale,-3.455,51.667
46,Treorchy,-3.511,51.66
46,Llanharan,-3.452,51.533
46,Pontyclun,-3.388,51.523
33,Porth,-3.398,51.611
33,Westoning,-0.498,51.982
24,Salford,-0.637,52.044
33,Brogborough,-0.595,52.034
33,Pegsdon,-0.372,51.959
39,Billington,-0.634,51.894
66,Bainton,-0.385,52.641
94,Sutton,-0.382,52.576
79,Thorney,-0.102,52.622
24,Wansford,-0.415,52.581
39,Ufford,-0.384,52.624
33,Northborough,-0.298,52.659
24,Castor,-0.344,52.574
94,Glinton,-0.295,52.638
39,Kempston,-0.493,52.117
66,Wymington,-0.6,52.268
55,Yelden,-0.516,52.291
39,Keysoe,-0.426,52.252
39,Odell,-0.588,52.21
28,Elstow,-0.464,52.108
79,Chawston,-0.31,52.191
28,Podington,-0.622,52.255
39,Staploe,-0.319,52.231
46,Thurleigh,-0.458,52.214
33,Bolnhurst,-0.408,52.225
33,Upper Dean,-0.467,52.297
39,Box End,-0.525,52.129
55,Bromham,-0.531,52.148
33,Cotton End,-0.416,52.094
28,Eisingrug,-4.059,52.891
66,Capel Uchaf,-4.339,53.022
24,Llanwnda,-4.285,53.095
39,Plas Gwynant,-4.045,53.036
28,Llawr-y-Dref,-4.557,52.829
46,Cymmer,-3.647,51.652
28,Duffryn,-3.68,51.647
39,Tonna,-3.773,51.675
39,Coedhirwaun,-3.699,51.544
33,Ystalyfera,-3.787,51.764
33,Pontrhydyfen,-3.744,51.632
39,Cwmllynfell,-3.821,51.802
66,Tonmawr,-3.735,51.652
55,Crynant,-3.747,51.726
33,Gwaun-Cae-Gurwen,-3.875,51.783
39,Abergwynfi,-3.6,51.654
24,Melincourt,-3.71,51.698
112,Glyncorrwg,-3.626,51.679
160,Maesteg,-3.652,51.604
79,Porthcawl,-3.695,51.484
112,Pyle,-3.688,51.528
55,Pencoed,-3.503,51.521
55,Bettws,-3.586,51.567
28,Nant-y-moel,-3.539,51.626
39,Houghton Regis,-0.513,51.906
134,Biggleswade,-0.256,52.086
134,Flitwick,-0.496,52.004
134,Sandy,-0.291,52.134
46,Ampthill,-0.497,52.024
39,Stotfold,-0.228,52.019
55,Toddington,-0.534,51.948
46,Potton,-0.21,52.129
66,Barton-le-Clay,-0.427,51.968
24,Arlesey,-0.261,52.014
39,Cranfield,-0.603,52.068
55,Haynes Church End,-0.422,52.058
33,Blunham,-0.319,52.145
39,Thorncote Green,-0.318,52.116
46,Upper Stondon,-0.326,52.007
66,Clophill,-0.415,52.031
33,Totternhoe,-0.568,51.884
28,Shefford,-0.33,52.037
33,Flitton,-0.454,52.01
46,Eyeworth,-0.176,52.093
24,Chalton,-0.504,51.926
28,Church End,-0.506,51.859
28,Astwick,-0.228,52.031
28,Harlington,-0.488,51.96
28,Potsgrove,-0.615,51.96
24,Streatley,-0.443,51.944
33,Old Linslade,-0.677,51.933
46,Studham,-0.519,51.832
79,Caddington,-0.457,51.864
24,Ridgmont,-0.58,52.013
24,Portmeirion,-4.096,52.915
66,Pentre Gwynfryn,-4.086,52.823
28,Nefyn,-4.522,52.936
39,Llan Ffestiniog,-3.932,52.96
66,Pant Glas,-4.279,53.004
46,Caerdeon,-4.001,52.744
55,New Mill End,-0.373,51.849
39,Southill,-0.322,52.065
46,Southend-on-Sea,0.718,51.543
55,South Ockendon,0.288,51.512
24,Stanford-le-Hope,0.429,51.515
79,Tilbury,0.361,51.459
39,Chadwell St Mary,0.37,51.485
55,Purfleet,0.243,51.482
33,Aveley,0.252,51.503
39,Orsett,0.368,51.512
24,Orsett Heath,0.361,51.494
33,Mucking,0.424,51.503
33,Low Street,0.401,51.473
66,Bulphan,0.361,51.546
46,Coryton,0.523,51.512
24,West Thurrock,0.282,51.479
66,Gillingham,0.578,51.347
33,Chatham,0.532,51.359
66,Rochester,0.486,51.396
55,Hoo St Werburgh,0.56,51.423
94,Coed Ystumgwern,-4.099,52.794
33,Maentwrog,-3.987,52.946
55,Holiday Park,-4.332,52.907
39,Llangelynin,-4.113,52.641
33,Caethle,-4.061,52.574
24,Rhoshirwaun,-4.681,52.831
397,Blaenau Ffestiniog,-3.937,52.994
39,Nant Peris,-4.084,53.105
55,Abergynolwyn,-3.955,52.645
79,Trefor,-4.425,52.994
33,Llanaelhaearn,-4.404,52.977
66,Minffordd,-3.869,52.688
55,Beddgelert,-4.103,53.014
33,Bethel,-4.211,53.168
33,Penllech,-4.645,52.881
33,Dolgoch,-3.997,52.622
33,Tal-y-bont,-4.091,53.213
79,Llangybi,-4.34,52.945
24,Rhiwbryfdir,-3.942,53.003
24,Aberdaron,-4.712,52.807
79,Rhydymain,-3.774,52.784
28,Trem-y-Garth,-4.049,52.919
39,Llangower,-3.622,52.879
94,Llanddewi Ystradenni,-3.308,52.309
28,Llanfechan,-3.498,52.143
24,Churchstoke,-3.073,52.54
276,Abercynafon,-3.337,51.848
33,Domgay,-3.056,52.763
33,Llanbedr,-3.249,52.11
28,Dolbenmaen,-4.227,52.966
66,Pont Pen-y-benglog,-4.019,53.124
33,Boduan,-4.494,52.913
55,Llanymawddwy,-3.628,52.758
79,Cwrt,-3.938,52.584
24,Pennal,-3.917,52.588
28,Arthog,-4.009,52.711
94,Trawsfynydd,-3.917,52.904
28,Rhyd-y-clafdy,-4.488,52.886
24,Morfa,-4.68,52.873
55,Rhyd,-4.029,52.958
33,Groeslon,-4.276,53.077
276,Penygroes,-4.281,53.056
79,Mallwyd,-3.679,52.699
24,Cutiau,-4.025,52.736
66,Llwyngwril,-4.083,52.667
39,Llanaber,-4.073,52.743
39,Llandanwg,-4.124,52.835
94,Llanberis,-4.126,53.121
33,Llanarmon,-4.346,52.928
28,Vaynol Hall,-4.191,53.197
134,Barmouth,-4.059,52.727
55,Crymlyn,-4.041,53.225
28,Frongoch,-3.632,52.941
46,Pen-sarn,-4.331,52.973
33,Cwm-Llinau,-3.704,52.656
46,Dolfor,-3.316,52.475
28,Norton,-3.021,52.297
79,Llangadwaladr,-3.215,52.864
1183,Aberystwyth,-4.063,52.41
46,Llandinam,-3.432,52.482
33,Ponde,-3.3,52.025
24,Trefecca,-3.245,51.982
33,Aber Village,-3.301,51.885
79,Nant-ddu,-3.447,51.826
24,Crickadarn,-3.326,52.071
55,Pant-y-ffridd,-3.249,52.616
66,Cregrina,-3.281,52.164
24,Crossgates,-3.333,52.274
24,Adfa,-3.386,52.599
28,Pentre-bach,-3.587,51.984
39,Pipton,-3.215,52.034
33,Tafolwern,-3.639,52.61
55,Llaneglwys,-3.37,52.038
192,Presteigne,-3.003,52.272
230,Machynlleth,-3.846,52.591
39,Monaughty,-3.115,52.31
134,Talerddig,-3.581,52.589
39,Llandrinio,-3.059,52.75
28,Trefeglwys,-3.518,52.505
134,Pont Llogel,-3.432,52.731
28,Kerry,-3.257,52.501
28,Tai-bach,-3.261,52.849
66,Y Fan,-3.546,52.475
79,Lower Chapel,-3.413,52.012
39,Aberhafesp,-3.372,52.522
28,Pentre'r beirdd,-3.197,52.717
55,Ystradfellte,-3.552,51.81
28,Trefnanney,-3.18,52.73
24,Dol-for,-3.749,52.643
33,Pontlliw,-4.009,51.685
33,Ilston,-4.083,51.594
46,Felindre,-3.972,51.704
192,Llanddewi,-4.222,51.579
33,Penrice,-4.174,51.569
94,Llanmadoc,-4.249,51.616
571,Cardigan,-4.66,52.085
33,Rhydlewis,-4.414,52.097
28,New Cross,-4.009,52.373
24,Cilcennin,-4.162,52.22
39,Tynygraig,-3.918,52.307
134,Dol-y-Bont,-4.026,52.474
39,Capel Cynon,-4.365,52.118
46,Tremain,-4.578,52.107
66,Gartheli,-4.07,52.186
33,Castell Howell,-4.275,52.111
24,Aber,-4.224,52.111
28,Llanarth,-4.307,52.194
66,Gilfachreda,-4.329,52.206
66,Llwyndafydd,-4.383,52.17
55,Penbryn,-4.491,52.141
33,Henfynyw,-4.272,52.224
112,Caledrhydiau,-4.227,52.156
79,Y Ferwig,-4.652,52.116
24,Pont-rhyd-y-groes,-3.847,52.338
24,Cwmsychbant,-4.226,52.091
55,Llanfair Clydogau,-4.009,52.141
55,Tregaron,-3.936,52.219
24,Aberaeron,-4.26,52.24
39,Bontnewydd,-4.024,52.273
28,Betws Bledrws,-4.053,52.148
33,Capel Betws Lleucu,-4.037,52.205
39,Plas Gogerddan,-4.017,52.432
28,Talgarreg,-4.301,52.133
24,Coity,-3.551,51.521
46,South Cornelly,-3.703,51.509
24,Glynogwr,-3.506,51.575
66,Heol-y-Cyw,-3.522,51.547
39,Pontycymer,-3.585,51.612
55,Merthyr Mawr,-3.608,51.486
28,Mawdlam,-3.722,51.523
33,Pilton Green,-4.242,51.562
33,Llangennith,-4.271,51.6
28,Oxwich,-4.169,51.558
66,Glais,-3.877,51.687
28,Southgate,-4.09,51.567
55,Upper Killay,-4.037,51.613
46,Oldwalls,-4.183,51.605
24,Pentrebach,-4.026,51.728
24,Crofty,-4.125,51.631
24,Three Crosses,-4.063,51.628
46,Rhossili,-4.284,51.57
55,Nicholaston,-4.132,51.575
46,Pen-clawdd,-4.105,51.642
39,Pennard,-4.065,51.581
33,Craig-cefn-parc,-3.914,51.706
94,Overton,-4.218,51.544
94,Neath,-3.82,51.631
55,Port Talbot,-3.799,51.588
79,Pontardawe,-3.846,51.723
28,Baglan,-3.807,51.62
33,Kempston Hardwick,-0.496,52.087
33,Roxton,-0.315,52.177
39,Shortstown,-0.433,52.111
46,Swineshead,-0.45,52.28
28,Bletsoe,-0.504,52.213
24,Shelton,-0.485,52.308
24,Melchbourne,-0.495,52.275
24,Pen-y-fai,-3.591,51.524
33,Tythegston,-3.645,51.496
39,Pont Rhyd-y-cyff,-3.633,51.588
33,Cefn Cribwr,-3.641,51.532
192,Barry,-3.259,51.407
79,Penarth,-3.184,51.436
33,St Lythans,-3.283,51.449
79,Rhoose,-3.35,51.39
24,Llandow,-3.519,51.449
24,St Andrews Major,-3.237,51.434
79,Southerndown,-3.61,51.453
160,Cowbridge,-3.45,51.461
24,Leckwith,-3.213,51.46
55,St Mary Hill,-3.496,51.497
39,Ystradowen,-3.42,51.49
39,Penmark,-3.355,51.409
24,Marcross,-3.548,51.412
66,Pendoylan,-3.354,51.481
55,Bonvilston,-3.346,51.457
24,Porthkerry,-3.322,51.392
28,Fancott,-0.516,51.938
39,Bourne End,-0.596,52.092
33,Old Warden,-0.345,52.08
46,Ickwell,-0.322,52.096
24,Broom,-0.291,52.072
24,Rowen,-3.863,53.232
24,Penmaenmawr,-3.921,53.268
55,Hafod-Dinbych,-3.653,53.067
46,Groes,-3.485,53.174
24,Llangwm,-3.538,52.989
46,Prestatyn,-3.415,53.328
160,Denbigh,-3.413,53.188
39,Graianrhyd,-3.168,53.097
33,Pentredwr,-3.192,53.011
66,Cynwyd,-3.402,52.96
28,Nantglyn,-3.488,53.148
24,Gwyddelwern,-3.376,53.009
79,Bryneglwys,-3.272,53.016
160,St Asaph,-3.446,53.259
66,Peniel,-3.449,53.158
33,Cwm,-3.401,53.286
66,Carrog,-3.325,52.983
33,Maeshafn,-3.192,53.141
160,Melin-y-Wig,-3.43,53.027
39,Rhuallt,-3.385,53.264
39,Rhewl,-3.33,53.135
55,Rhuddlan,-3.467,53.293
46,Llanrhaeadr,-3.375,53.161
55,Nant-y-Patrick,-3.429,53.23
24,Graig-fechan,-3.271,53.08
24,Bont-newydd,-3.476,53.227
46,Clawdd-newydd,-3.368,53.062
112,Ynyslas,-4.053,52.516
28,Glynarthen,-4.469,52.109
192,Pentregat,-4.406,52.139
66,Cribyn,-4.162,52.136
24,Bryngwyn,-4.486,52.079
33,Sarnau,-4.468,52.131
28,Cold Ash,-1.26,51.415
28,Frilsham,-1.215,51.454
33,Hamstead Marshall,-1.408,51.388
39,Greenham,-1.306,51.384
112,Leckhampstead,-1.37,51.484
79,Inkpen,-1.464,51.375
28,Stockcross,-1.377,51.413
39,Tidmarsh,-1.087,51.467
55,Upper Woolhampton,-1.171,51.405
46,Ashampstead,-1.186,51.488
28,Woodlands St Mary,-1.514,51.47
46,Eastbury,-1.5,51.491
28,World's End,-1.299,51.486
66,Chieveley,-1.314,51.462
685,Reading,-0.968,51.451
331,Slough,-0.597,51.515
24,Colnbrook,-0.525,51.484
24,Poyle,-0.512,51.476
79,Maidenhead,-0.729,51.524
94,Windsor,-0.627,51.478
79,Old Windsor,-0.581,51.452
46,Bray,-0.697,51.508
24,Ascot,-0.672,51.409
55,Fifield,-0.693,51.481
79,Flint,-3.133,53.246
276,Holywell,-3.218,53.276
276,Mold,-3.142,53.166
55,Broughton,-2.988,53.164
39,Aston,-3.04,53.199
33,Babell,-3.264,53.255
33,Llangovan,-2.784,51.747
46,Mathern,-2.687,51.617
24,Llanvapley,-2.921,51.821
46,Llanvair-Discoed,-2.796,51.627
24,Govilon,-3.063,51.816
94,Llangwm,-2.829,51.695
39,Croes y pant,-2.996,51.732
33,Greenmeadow,-2.959,51.705
134,Tregare,-2.845,51.788
24,New Inn,-2.751,51.7
55,Mitchel Troy,-2.734,51.789
66,Wernrheolydd,-2.879,51.811
28,Whitebrook,-2.673,51.756
24,Llanarth,-2.906,51.791
24,Tintern,-2.682,51.699
33,Llandogo,-2.688,51.734
28,Pencroesoped,-2.996,51.759
94,Twyn-y-Sheriff,-2.857,51.745
33,Llanfoist,-3.03,51.812
46,Raglan,-2.849,51.765
28,Llanllowell,-2.878,51.683
46,Llandegveth,-2.956,51.656
24,Gwehelog Common,-2.883,51.732
28,Riseley,-0.959,51.364
28,Finchampstead,-0.855,51.363
24,Swallowfield,-0.962,51.377
33,Knowl Hill,-0.817,51.506
46,Milton Keynes,-0.767,52.017
112,Newport Pagnell,-0.724,52.081
160,Olney,-0.704,52.158
24,Middle Mill,-5.188,51.889
28,Cosheston,-4.887,51.695
55,Cheriton,-4.906,51.638
24,Monington,-4.724,52.061
94,Llantood,-4.691,52.044
33,Druidston,-5.092,51.807
39,Llandeloy,-5.113,51.897
230,Merrion,-4.976,51.632
28,Tegryn,-4.578,51.967
28,Maenclochog,-4.79,51.912
94,Llanteg,-4.637,51.76
33,Nevern,-4.795,52.024
55,Letterston,-4.995,51.926
55,Llanwnda,-5.012,52.011
112,Hayscastle,-5.06,51.888
46,Felindre Farchog,-4.77,52.014
33,Maiden Wells,-4.932,51.659
46,Tresinwen,-5.061,52.024
24,Warren,-4.99,51.639
46,Marloes,-5.197,51.73
28,Wallis,-4.89,51.893
46,Jordanston,-5.031,51.951
55,Crymych,-4.646,51.972
24,Castlebythe,-4.879,51.921
46,Lambston,-5.038,51.809
33,Hasguard,-5.109,51.742
39,Capel Dewi,-4.258,52.058
55,Maes llyn,-4.383,52.075
33,Tregroes,-4.324,52.076
33,Cellan,-4.032,52.119
331,Lampeter,-4.081,52.115
46,Llanrhystud,-4.141,52.306
160,Pont Llanio,-3.971,52.194
79,Blaenpennal,-4.007,52.259
24,Furnace,-3.944,52.534
46,Temple Bar,-4.139,52.166
24,Capel Dewi,-4.014,52.422
94,Ffair-Rhos,-3.848,52.296
33,Trefilan,-4.121,52.193
28,Llanafan,-3.927,52.333
24,Llangybi,-4.035,52.159
28,Ystradmeurig,-3.898,52.291
39,Rhodmad,-4.066,52.349
28,Llangeitho,-4.019,52.218
24,New Quay,-4.357,52.212
39,Ysbyty Cynfyn,-3.835,52.394
94,Risca,-3.093,51.607
55,Bargoed,-3.233,51.688
39,Pontllanfraith,-3.182,51.655
28,Bedwas,-3.193,51.595
46,Rhymney,-3.276,51.758
33,Abertridwr,-3.269,51.594
112,Talacre,-3.318,53.352
24,New Brighton,-3.116,53.18
94,Ysceifiog,-3.271,53.234
24,Afon-wen,-3.303,53.236
39,Brynford,-3.228,53.26
28,Llanasa,-3.342,53.323
66,Trelawnyd,-3.366,53.309
28,Sealand,-2.968,53.213
28,Flint Mountain,-3.137,53.226
33,Ffrith,-3.067,53.091
28,Nannerch,-3.248,53.217
66,Pen-y-cefn,-3.331,53.266
79,Rhosesmor,-3.176,53.211
33,Rhes-y-cae,-3.213,53.231
46,Cilcain,-3.231,53.179
33,Llanfynydd,-3.075,53.104
28,Rhydtalog,-3.142,53.089
33,Penyffordd,-3.041,53.148
46,Nercwys,-3.146,53.137
39,Llong,-3.102,53.155
33,Sandycroft,-2.996,53.197
24,Gwaenysgor,-3.388,53.321
24,Star,-4.557,51.984
55,Spittal,-4.941,51.867
24,Hill Mountain,-4.926,51.736
28,Manorbier,-4.793,51.647
46,Tavernspite,-4.64,51.782
24,Long Street,-0.84,52.124
24,Stoke Goldington,-0.779,52.132
28,Bow Brickhill,-0.681,52.002
33,Calverton,-0.849,52.043
24,North Crawley,-0.648,52.093
46,Gayhurst,-0.761,52.111
24,Castlethorpe,-0.835,52.093
66,Hardmead,-0.634,52.118
24,Lathbury,-0.722,52.098
33,Chicheley,-0.682,52.105
39,Warrington,-0.689,52.177
33,Ravenstone,-0.758,52.148
46,Moulsoe,-0.676,52.069
46,Newton Blossomville,-0.652,52.154
24,Upper Weald,-0.836,52.033
33,Filgrave,-0.731,52.126
33,Little Linford,-0.769,52.091
94,Hanslope,-0.828,52.115
24,Haversham,-0.79,52.078
24,Little Brickhill,-0.678,51.982
33,Portslade-by-Sea,-0.222,50.847
66,Woodingdean,-0.075,50.837
24,Halton,-3.038,52.95
39,Craignant,-3.113,52.907
55,Horseman's Green,-2.822,52.965
46,Plas Nantyr,-3.26,52.926
39,Bronington,-2.765,52.95
24,Kingston,-1.323,50.631
24,Bouldnor,-1.478,50.707
192,Yafford,-1.365,50.634
24,Newtown,-1.4,50.714
28,Alverstone,-1.184,50.665
28,Calbourne,-1.398,50.678
28,Thornhill,-3.212,51.553
24,Penybryn,-3.25,51.658
39,Machen,-3.139,51.599
28,Deri,-3.263,51.708
24,Wyllie,-3.193,51.638
39,Rudry,-3.158,51.575
28,Ystrad Mynach,-3.238,51.639
55,New Tredegar,-3.239,51.721
28,Manmoel,-3.182,51.722
79,Ynysddu,-3.182,51.628
33,Argoed,-3.193,51.692
33,Draethen,-3.124,51.58
46,Fochriw,-3.295,51.736
28,Llanbradach,-3.228,51.61
39,Wattsville,-3.147,51.616
28,Markham,-3.206,51.702
28,Llechrhyd,-3.292,51.777
28,Llanfabon,-3.288,51.634
24,Pontlottyn,-3.28,51.748
28,Pontywaun,-3.126,51.629
55,Kintbury,-1.449,51.398
28,Halfway,-1.415,51.413
33,South Fawley,-1.437,51.518
24,Upper Basildon,-1.146,51.485
24,Wickham Heath,-1.399,51.424
39,Great Shefford,-1.448,51.473
24,Hermitage,-1.267,51.456
24,Eglwyswen,-4.695,51.995
33,Cold Blow,-4.723,51.781
28,Manorowen,-5.013,51.985
55,Newgale,-5.124,51.858
39,Saundersfoot,-4.704,51.706
33,Nolton Haven,-5.105,51.825
24,Penffordd,-4.794,51.865
28,Robeston Wathen,-4.775,51.807
112,Narberth,-4.743,51.8
46,Manorbier Newton,-4.828,51.664
94,Pontfaen,-4.874,51.969
66,Angle,-5.092,51.683
24,Dreenhill,-5.013,51.788
55,Carew Cheriton,-4.827,51.69
33,Penally,-4.728,51.659
24,Jeffreyston,-4.768,51.724
24,Bethesda,-4.77,51.827
24,Pen-y-bryn,-4.659,52.053
28,Rosebush,-4.804,51.929
33,Lamphey,-4.872,51.666
24,Amroth,-4.661,51.733
28,Lower Freystrop,-4.961,51.773
46,Trecwn,-4.953,51.954
66,Undy,-2.82,51.583
33,Llanvihangel-Ystern-Llewern,-2.822,51.821
28,Llanhennock,-2.935,51.629
39,Itton Common,-2.742,51.662
46,Llantilio Crossenny,-2.875,51.828
33,Pen-twyn,-2.693,51.779
24,Bettws Newydd,-2.924,51.751
39,Rhostyllen,-3.02,53.029
55,Bettisfield,-2.8,52.912
33,Worthenbury,-2.863,53.01
24,Burton Green,-2.978,53.119
33,Borras Head,-2.95,53.074
24,Glyn Ceiriog,-3.184,52.936
28,Froncysyllte,-3.086,52.963
46,Bwlchgwyn,-3.098,53.074
28,Talwrn,-3.05,53.026
33,Knolton,-2.923,52.943
33,Bowling Bank,-2.897,53.031
33,Marchwiel,-2.959,53.024
33,Higher Wych,-2.747,52.986
66,Erbistock,-2.964,52.972
24,Cross Lanes,-2.93,53.017
39,Penley,-2.868,52.949
55,Tallarn Green,-2.827,52.992
79,Rossett,-2.941,53.11
24,Llechrydau,-3.152,52.899
39,Llan-y-pwll,-2.927,53.061
33,Lightwood Green,-2.916,52.961
94,Reynalton,-4.766,51.742
39,Newchapel,-4.584,52.024
39,Stepaside,-4.698,51.738
24,Treleddyd-fawr,-5.268,51.902
66,Tretio,-5.223,51.913
39,Downend,-1.246,50.687
33,Bowcombe,-1.336,50.679
24,Blackwater,-1.282,50.674
55,Whippingham,-1.271,50.74
28,Brighstone,-1.399,50.641
66,Godshill,-1.255,50.635
28,St Helens,-1.111,50.697
24,Shorwell,-1.355,50.644
24,Yarmouth,-1.514,50.703
24,Chale,-1.316,50.598
46,Wroxall,-1.223,50.616
276,Holyhead,-4.633,53.308
94,Llangefni,-4.31,53.255
94,Rhosneigr,-4.519,53.231
66,Penmon,-4.057,53.307
79,Llanbabo,-4.44,53.356
112,Llanafan-fawr,-3.508,52.187
39,Staylittle,-3.641,52.518
94,Pentre,-3.373,52.465
66,Garth,-3.529,52.134
39,Castle Caereinion,-3.236,52.64
79,Pentre Dolau Honddu,-3.467,52.083
66,Llansilin,-3.172,52.844
39,Kinnerton,-3.107,52.261
55,Geufron,-3.646,52.457
66,Beech Hill,-1,51.371
39,Southend,-1.143,51.431
33,Avington,-1.466,51.411
24,Stanmore,-1.315,51.507
46,Wasing,-1.173,51.374
39,Boxford,-1.385,51.441
66,Brightwalton,-1.384,51.509
24,Downend,-1.315,51.472
24,Upper Bucklebury,-1.226,51.413
24,Aldermaston Soke,-1.118,51.367
66,Welford,-1.412,51.454
33,Chaddleworth,-1.406,51.494
79,Bucklebury,-1.204,51.433
33,West Ilsley,-1.318,51.539
66,Combe,-1.468,51.345
33,Goldfinch Bottom,-1.28,51.373
28,Fawley,-1.435,51.529
39,Padworth,-1.118,51.389
28,Sheffield Bottom,-1.066,51.424
55,Longlane,-1.282,51.444
28,Winterbourne,-1.345,51.447
39,Beedon,-1.3,51.498
24,Wickham,-1.431,51.443
33,Upper Lambourn,-1.544,51.52
33,Ffordd-las,-3.314,53.173
33,Hirwaen,-3.289,53.142
55,Llangollen,-3.166,52.969
39,Dyserth,-3.412,53.299
33,Clawdd Poncen,-3.378,52.991
24,Pentre-celyn,-3.27,53.071
33,Glascoed,-3.507,53.255
39,Gellifor,-3.311,53.153
39,Bettws Gwerfil Goch,-3.442,53.01
28,Prion,-3.414,53.151
39,Newcastle,-2.801,51.853
39,Trellech,-2.721,51.745
33,Llangattock-Vibon-Avel,-2.787,51.838
28,Kemeys Commander,-2.944,51.738
33,Dingestow,-2.786,51.789
24,Llansoy,-2.805,51.719
28,Grosmont,-2.867,51.916
24,St Arvans,-2.696,51.667
39,Llanishen,-2.758,51.726
24,Llanddewi Rhydderch,-2.94,51.81
55,Gilwern,-3.091,51.828
24,Coed Morgan,-2.93,51.797
33,Newbridge on Usk,-2.888,51.648
28,Monkswood,-2.947,51.718
39,Coed-y-paen,-2.962,51.681
24,Great Oak,-2.89,51.784
79,Hoaldalbert,-2.874,51.904
24,Skenfrith,-2.792,51.879
39,Nant-y-derry,-2.971,51.75
24,Blacknest,-0.625,51.409
28,Hurley,-0.81,51.545
24,Horton,-0.542,51.474
39,White Waltham,-0.775,51.486
33,Eton Wick,-0.635,51.498
55,Cookham Rise,-0.726,51.555
24,Eton,-0.609,51.491
46,Shurlock Row,-0.806,51.464
28,Cheapside,-0.645,51.417
28,Burchett's Green,-0.792,51.524
28,Hythe End,-0.538,51.444
112,Talbenny,-5.131,51.763
24,Croes-goch,-5.16,51.927
28,Welsh Hook,-5.003,51.909
160,Dale,-5.172,51.705
55,Tangiers,-4.962,51.823
24,Scleddau,-4.994,51.967
55,Wiston,-4.871,51.824
39,Leweston,-4.993,51.863
33,Rosemarket,-4.965,51.737
28,Goodwick,-4.997,52.002
79,Minwear,-4.844,51.78
55,Bosherston,-4.939,51.613
28,Wolfsdale,-5.004,51.851
39,Llanychaer,-4.933,51.978
24,Boncath,-4.615,52.014
46,Treffynnon,-5.128,51.914
112,Mathry,-5.086,51.944
28,Haroldston West,-5.096,51.795
39,Whitehill,-4.818,51.707
24,Burton,-4.92,51.711
24,Eglwyswrw,-4.709,52.012
112,Usk,-2.902,51.702
79,Cross Ash,-2.862,51.873
134,Forest Coal Pit,-3.035,51.88
28,Bettws,-3.019,51.869
39,Llanellen,-3.013,51.793
46,Gaer-fawr,-2.808,51.679
46,Llangattock Nigh Usk,-2.97,51.782
24,Coelbren,-3.673,51.79
192,Rhayader,-3.509,52.302
79,Crewgreen,-3.002,52.733
24,Manafon,-3.31,52.613
39,Pant-y-Dwr,-3.493,52.364
55,Rhos-y-meirch,-3.058,52.318
46,Glangrwyney,-3.108,51.844
39,Llwynderw,-3.167,52.625
33,Bryngwyn,-3.186,52.139
28,Brooks,-3.265,52.584
55,Llandeilo Graban,-3.322,52.094
79,Felindre,-3.223,52.421
55,Crug,-3.186,52.343
33,Cefn Coch,-3.324,52.828
39,Tredomen,-3.279,51.975
46,Llanbedr,-3.104,51.876
94,Pandy-rhiw-Saeson,-3.619,52.627
79,Dolanog,-3.382,52.705
28,Newchurch,-3.145,52.149
55,Cemmaes,-3.714,52.641
39,Llanfihangel Rhydithon,-3.245,52.292
39,Glascwm,-3.229,52.171
24,Llangedwyn,-3.206,52.811
55,Tai'r Bull,-3.464,51.923
33,Ynyswen,-3.69,51.804
28,Sennybridge,-3.567,51.948
24,Pentre Galar,-4.651,51.947
46,Mynachlog-ddu,-4.7,51.937
33,Walwyn's Castle,-5.084,51.76
230,Carmarthen,-4.313,51.859
39,Ammanford,-3.98,51.791
33,Clocaenog,-3.367,53.076
66,Rhewl,-3.218,52.995
28,Graig,-3.371,53.238
39,Bodfari,-3.356,53.221
39,Glyndyfrdwy,-3.265,52.974
33,Berwyn,-3.194,52.981
39,Eryrys,-3.189,53.114
55,Llanfair Dyffryn Clwyd,-3.292,53.088
28,Rhyd-y-meudwy,-3.298,53.05
39,Bontuchel,-3.367,53.111
55,Saron,-3.449,53.135
79,Llangwyfan,-3.312,53.186
33,Bryn Saith Marchog,-3.376,53.04
33,Nilig,-3.454,53.084
28,Llanbedr-Dyffryn-Clwyd,-3.275,53.127
24,Corwen,-3.376,52.98
24,Tremeirchion,-3.378,53.247
79,Llandegla,-3.197,53.059
39,Llandrillo,-3.437,52.921
39,Henllan,-3.46,53.203
39,Bodelwyddan,-3.504,53.269
79,Rhydroser,-4.107,52.288
66,Bont-goch,-3.938,52.459
192,Milford Haven,-5.035,51.719
685,Haverfordwest,-4.98,51.798
94,Pembroke Dock,-4.941,51.689
39,Pembroke,-4.914,51.676
28,Herbrandston,-5.087,51.724
39,Gelli,-4.786,51.84
28,New Hedges,-4.707,51.693
39,Datchet,-0.576,51.481
28,Bisham,-0.777,51.557
24,Paley Street,-0.741,51.477
55,Wokingham,-0.839,51.408
79,Crowthorne,-0.798,51.374
55,Winnersh,-0.88,51.43
39,Sonning,-0.91,51.473
33,Barkham,-0.875,51.391
46,Hurst,-0.855,51.452
55,Wargrave,-0.863,51.5
24,Farley Hill,-0.917,51.373
24,Spencers Wood,-0.963,51.394
39,Cockpole Green,-0.852,51.518
28,Greenfield,-3.207,53.288
55,Downing,-3.269,53.298
24,Pentre Halkyn,-3.196,53.243
39,Bagillt,-3.171,53.267
46,Ffynnongroyw,-3.3,53.329
24,Gwernaffield-y-Waun,-3.187,53.173
39,Gorsedd,-3.269,53.28
46,Soughton,-3.132,53.19
28,Clydach,-3.123,51.812
46,Llanvetherine,-2.922,51.849
28,Llantillio Pertholey,-3,51.841
79,Newmills,-2.703,51.764
79,Earlswood,-2.805,51.656
33,Pen-clawdd,-2.793,51.767
79,Llanthony,-3.033,51.944
28,Llangua,-2.878,51.927
24,Llanover,-2.996,51.768
28,Penrhos,-2.846,51.802
24,Llangattock Lingoed,-2.927,51.876
39,Llantrisant,-2.879,51.668
46,Gwernesney,-2.843,51.712
33,Highmoor Hill,-2.778,51.602
39,Devauden,-2.745,51.688
160,Newport,-2.99,51.571
46,Caerleon,-2.959,51.614
39,Rogerstone,-3.064,51.595
24,Llanwern,-2.915,51.586
24,Llandevaud,-2.865,51.609
33,Broadstreet Common,-2.927,51.56
33,Parc-Seymour,-2.855,51.621
55,Underwood,-2.885,51.597
46,Whitson,-2.892,51.546
46,Rottingdean,-0.057,50.807
28,Ovingdean,-0.072,50.817
66,Portsmouth,-1.07,50.808
112,Newport,-1.299,50.697
24,Shanklin,-1.181,50.63
112,Ventnor,-1.224,50.591
28,Glyn-teg,-4.387,52.014
33,Llanpumsaint,-4.304,51.936
39,Nantycaws,-4.238,51.841
24,Caio,-3.931,52.04
33,Talog,-4.427,51.902
33,Whitland,-4.608,51.818
33,Dre-fach,-3.957,51.828
33,Llanfallteg,-4.677,51.846
66,Llandyfaelog,-4.298,51.78
66,Cwrt-y-cadno,-3.91,52.079
79,Llandawke,-4.486,51.772
192,Llandeilo,-3.996,51.881
134,St Clears,-4.501,51.818
39,Felingwmuchaf,-4.167,51.901
46,Llanwrda,-3.875,51.966
33,Llanarthne,-4.131,51.86
24,Llanllwch,-4.344,51.845
55,Brechfa,-4.145,51.951
39,Edwinsford,-3.993,51.994
39,Michaelston-y-Fedw,-3.093,51.554
24,Nash,-2.946,51.549
28,Marshfield,-3.066,51.532
24,Began,-3.113,51.547
79,St Brides Wentlooge,-3.018,51.535
39,Redwick,-2.846,51.553
24,Jameston,-4.81,51.656
46,Lampeter Velfrey,-4.676,51.796
66,Moylgrove,-4.748,52.067
46,St Brides,-5.192,51.748
28,Scolton,-4.92,51.859
46,Llanycefn,-4.763,51.876
39,Trevine,-5.146,51.949
46,Neyland,-4.95,51.711
55,New Moat,-4.816,51.893
55,Llangwm,-4.916,51.749
33,Wolf's Castle,-4.973,51.901
39,Hook,-4.93,51.763
66,Lawrenny,-4.871,51.725
28,Houghton,-4.92,51.724
24,Redberth,-4.778,51.702
79,Johnston,-4.996,51.757
39,Roch,-5.084,51.847
33,Robeston West,-5.062,51.744
55,Llawhaden,-4.805,51.817
46,St Nicholas,-5.059,51.979
28,Llanddewi Velfrey,-4.687,51.82
94,Parrog,-4.849,52.019
28,Panteg,-5.023,51.972
28,Tredegar,-3.247,51.778
24,Brynmawr,-3.176,51.8
160,Abertilleryi,-3.137,51.736
28,Nantyglo,-3.17,51.784
66,Blaina,-3.157,51.763
33,Cwm,-3.179,51.74
46,Llanhilleth,-3.13,51.701
66,Trefil,-3.276,51.806
46,Swffryd,-3.131,51.683
24,Hendre,-3.205,53.201
33,Caerwys,-3.305,53.248
33,Rhydymwyn,-3.189,53.193
33,Northop,-3.127,53.21
33,Gronant,-3.357,53.339
24,Treuddyn,-3.119,53.117
28,Trelogan,-3.323,53.31
112,Pontybodkin,-3.088,53.125
192,Wrexham,-2.984,53.053
94,Rhosllannerchrugog,-3.048,53.01
79,Cefn-mawr,-3.075,52.976
39,Gresford,-2.964,53.089
28,Coedpoeth,-3.068,53.054
33,Llay,-2.998,53.096
24,Chirk,-3.056,52.939
55,Pontfadog,-3.139,52.936
39,Crosswell,-4.733,51.994
39,Ludchurch,-4.694,51.763
46,Martletwy,-4.847,51.76
28,Treglemais,-5.173,51.915
33,Dinas Cross,-4.904,52.01
24,Sandown,-1.164,50.652
46,Chillerton,-1.31,50.653
55,Shalcombe,-1.439,50.671
46,Porchfield,-1.364,50.716
33,Wootton Bridge,-1.231,50.726
39,Little Atherfield,-1.348,50.619
46,Hamstead,-1.434,50.721
28,Branstone,-1.214,50.65
39,Luccombe Village,-1.177,50.615
39,Bierley,-1.279,50.6
33,Shalfleet,-1.416,50.699
46,Yarbridge,-1.144,50.674
39,Arreton,-1.235,50.672
24,Havenstreet,-1.205,50.711
55,Seaview,-1.112,50.717
112,Bembridge,-1.081,50.688
24,Norton Green,-1.517,50.693
28,Newbridge,-1.418,50.688
24,Hillway,-1.094,50.677
24,Blackgang,-1.31,50.588
55,Mottistone,-1.428,50.651
33,Hanmer,-2.811,52.952
46,Crabtree Green,-2.988,52.997
39,Llanarmon Dyffryn Ceiriog,-3.253,52.886
55,Pandy,-3.196,52.914
39,Isycoed,-2.891,53.047
24,Llwynmawr,-3.155,52.924
46,Pentre,-3.285,52.906
192,Ystradgynlais,-3.748,51.784
24,Wilcrick,-2.854,51.588
39,Peterstone Wentlooge,-3.055,51.516
33,Castleton,-3.078,51.543
33,Cat's Ash,-2.907,51.611
33,Rhiwderin,-3.066,51.582
24,Cardiff,-3.178,51.501
46,Creigiau,-3.323,51.524
39,Capel Llanilltern,-3.303,51.512
66,Newton,-3.097,51.504
28,Tongwynlais,-3.245,51.534
66,Bronydd,-3.128,52.098
24,Llanfair-yng-Nghornwy,-4.524,53.391
33,Brynsiencyn,-4.274,53.181
94,Newborough,-4.358,53.168
55,Capel Coch,-4.313,53.317
46,Aberffraw,-4.466,53.193
39,Maenaddwyn,-4.315,53.333
33,Backhill,-2.353,57.448
94,Affleck,-2.229,57.302
134,Culdrain,-2.801,57.392
46,Greystone,-2.935,57.053
33,Glenkindie,-2.936,57.212
24,Strichen,-2.089,57.588
24,Whitecairns,-2.132,57.254
24,Lumsden,-2.874,57.284
55,Whiteford,-2.469,57.325
24,Slacks of Cairnbanno,-2.25,57.508
79,Balmedie,-2.056,57.25
46,Whinnyfold,-1.868,57.389
33,Hillhead,-2.706,57.408
33,Redhill,-2.37,57.13
160,Weachyburn,-2.617,57.599
24,Marywell,-2.116,57.083
39,Easter Whyntie,-2.632,57.675
39,Keilhill,-2.482,57.626
79,Bonnyton,-2.539,57.367
24,St Combs,-1.91,57.657
33,Dykeside,-2.462,57.482
39,Inverallochy,-1.932,57.674
66,Longhaven,-1.832,57.445
160,Balgaveny,-2.568,57.457
79,Edzell Woods,-2.621,56.816
55,Gordonstown,-2.732,57.594
28,Achath,-2.445,57.189
55,Kirkton,-2.597,57.316
55,Skelmonae,-2.192,57.442
134,Mondynes,-2.362,56.903
55,Littlemill,-3.116,57.048
28,Tannachie,-2.354,56.945
24,Denend,-2.664,57.431
79,Toll of Birness,-1.994,57.403
66,Mains of Dellavaird,-2.425,56.926
160,Newburgh,-2.057,57.621
24,Little Lynturk,-2.7,57.202
79,Mains of Balnakettle,-2.616,56.862
55,Gateside,-2.633,57.234
39,Allanaquoich,-3.45,57.004
79,Milton of Noth,-2.828,57.342
94,Old Kinnernie,-2.459,57.175
55,Dykelands,-2.487,56.811
24,Blackness,-2.503,57.024
28,Blackhall,-2.544,57.053
55,Dounepark,-2.478,57.651
55,Mains of Kirktonhill,-2.497,56.785
28,Mains of Laithers,-2.541,57.532
276,Laurencekirk,-2.467,56.833
160,Belnacraig,-3.034,57.235
79,Marywell,-2.691,57.049
79,Ironside,-2.199,57.559
39,Craigearn,-2.464,57.217
33,Maud,-2.134,57.52
55,Nethermuir,-2.147,57.485
39,Birkenhills,-2.424,57.498
46,Little Dens,-1.882,57.487
55,Crossroads,-2.411,57.038
33,Balthangie,-2.277,57.554
55,Muirskie,-2.287,57.053
24,Minnonie,-2.375,57.631
33,Abergeldie,-3.172,57.04
66,Milltown of Towie,-2.896,57.202
28,Nether Crimond,-2.294,57.292
94,Inverbervie,-2.281,56.844
39,Tillydrine,-2.654,57.078
24,Rosehearty,-2.116,57.697
55,Folla Rule,-2.449,57.387
28,Tarland,-2.857,57.127
39,Newtonhill,-2.153,57.035
28,Arthrath,-2.058,57.419
28,Easterton of Auchleuchries,-1.975,57.417
112,Lunderton,-1.827,57.538
24,Jackstown,-2.413,57.373
39,Muiryfold,-2.393,57.551
24,Rosehill,-2.758,57.085
94,Milton of Campfield,-2.583,57.095
33,Sauchen,-2.499,57.188
24,Monkshill,-2.342,57.458
24,Port Elphinstone,-2.373,57.271
24,Newseat,-2.491,57.385
66,Muirtack,-2.012,57.428
39,Old Crombie,-2.678,57.547
24,Aucharnie,-2.61,57.458
46,Myrebird,-2.427,57.08
39,Fettercairn,-2.578,56.85
24,Coynachie,-2.847,57.395
39,Tullynessle,-2.735,57.265
55,Bush Crathie,-3.23,57.053
24,Whitewell,-2.089,57.642
94,Howe of Teuchar,-2.346,57.511
66,Cobairdy,-2.709,57.481
39,Dumeath,-2.959,57.422
46,Durno,-2.477,57.344
55,The Birks,-2.426,57.112
33,Woodlands,-2.349,57.054
55,Middlemuir,-2.101,57.277
79,Percie,-2.67,57.017
28,Ardallie,-1.987,57.442
55,Blackdog,-2.071,57.218
28,Denhead,-1.998,57.562
46,Wester Ord,-2.296,57.134
192,Aucholzie,-3.083,57.001
46,Flushing,-1.911,57.512
46,Meikle Wartle,-2.466,57.368
33,Drumligair,-2.164,57.237
66,Comers,-2.543,57.156
112,Muckletown,-2.711,57.285
66,Clatt,-2.766,57.321
28,Coilacriech,-3.116,57.059
160,Burnend,-2.27,57.459
112,Invergelder,-3.249,57.03
79,Memsie,-2.051,57.652
33,The Haughs,-2.822,57.53
39,Cairnbrogie,-2.25,57.332
39,Grantlodge,-2.493,57.246
79,Petty,-2.396,57.417
46,Fedderate,-2.179,57.542
33,Fiddes,-2.31,56.922
33,Muirden,-2.495,57.569
33,Daviot,-2.418,57.343
79,Mergie,-2.336,56.989
24,Mill of Uras,-2.22,56.913
28,Drumlassie,-2.594,57.14
66,Heugh-head,-3.024,57.19
24,Causeyend,-2.091,57.268
46,Scotston,-2.437,56.855
134,Mintlaw,-2.003,57.523
24,Cottown,-2.819,57.327
79,King Edward,-2.479,57.61
28,Potarch,-2.648,57.062
46,East Auchronie,-2.303,57.178
24,Kinharrachie,-2.126,57.373
192,Insch,-2.616,57.342
46,Milton of Coldwells,-2.074,57.44
24,Delfrigs,-2.053,57.28
33,Ardoyne,-2.574,57.336
33,Bainshole,-2.653,57.404
33,Arbuthnott,-2.332,56.871
39,Drumblair,-2.619,57.478
33,Clunie,-2.612,57.54
55,Steinmanhill,-2.39,57.468
276,Huntly,-2.787,57.447
46,Lochside,-2.431,56.774
33,Cornhill,-2.697,57.612
55,Rora,-1.901,57.547
33,Bonnykelly,-2.231,57.571
55,Lauchintilly,-2.421,57.204
33,Inch of Arnhall,-2.618,56.83
46,Cairnpark,-2.27,57.255
160,Glas-allt-Shiel,-3.19,56.929
112,Clova,-2.906,57.29
94,Kintore,-2.346,57.234
55,Glencat,-2.76,57.027
24,Milton of Corsindae,-2.528,57.172
66,New Aberdour,-2.193,57.659
39,Fortrie,-2.066,57.457
28,Tomintoul,-3.403,56.998
24,Kennethmont,-2.768,57.348
24,Broomfield,-2.073,57.38
24,Mains of Thornton,-2.522,56.837
33,Pitmedden,-2.181,57.339
55,East Davoch,-2.883,57.154
33,Bracklamore,-2.26,57.612
33,Hirn,-2.444,57.092
33,Sauchieburn,-2.551,56.819
55,Tewel,-2.285,56.96
28,Percyhorner,-2.068,57.678
39,Ruthven,-2.825,57.508
24,Bridge of Gairn,-3.068,57.058
55,Clatterin' Brig,-2.554,56.894
66,Glenton,-2.591,57.27
66,Strachan,-2.539,57.021
46,Hardgate,-2.347,57.105
66,Auchlossan,-2.71,57.107
24,Carnousie,-2.562,57.54
66,Succoth,-2.956,57.406
39,Kinneff,-2.238,56.867
39,Lochton,-2.405,57.022
79,Kemnay,-2.445,57.235
24,Leys,-2.887,57.114
46,Rothmaise,-2.532,57.386
28,Crimond,-1.915,57.601
28,Gordonstown,-2.478,57.436
55,Inveramsay,-2.431,57.306
24,Wartle,-2.757,57.127
39,Keyhead,-1.882,57.593
24,Bridge of Muick,-3.045,57.04
55,Pennan,-2.26,57.678
24,Skelmuir,-2.035,57.475
39,Montgarrie,-2.703,57.25
28,Auchiries,-1.866,57.431
33,Inverugie,-1.833,57.524
33,Gartly,-2.796,57.378
39,Migvie,-2.931,57.147
24,Dalmadilly,-2.44,57.246
39,Aquhythie,-2.423,57.257
24,Lyne of Skene,-2.391,57.184
55,Bogton,-2.541,57.553
2450,Aberdeen,-2.123,57.16
94,Cults,-2.188,57.118
55,Bucksburn,-2.171,57.179
39,Peterculter,-2.265,57.099
79,Cove Bay,-2.087,57.102
134,Aberdeen Airport,-2.215,57.205
46,Kingswells,-2.218,57.152
24,Westhall,-2.545,57.329
55,Greenspot,-2.333,57.373
39,Drumwhindle,-2.124,57.418
46,Slioch,-2.731,57.434
33,Tillathrowie,-2.882,57.403
55,Fiddler's Green,-1.935,57.627
24,Kirktown of Alvah,-2.54,57.631
24,Cairness,-1.934,57.636
79,Wedderlairs,-2.245,57.386
39,Birse,-2.729,57.061
66,Adziel,-2.089,57.569
39,Tillyfour,-2.671,57.182
33,Drumblade,-2.691,57.45
28,Culsh,-2.191,57.529
28,Carnie,-2.323,57.142
66,Benholm,-2.321,56.815
46,Spittal of Glenmuick,-3.137,56.951
24,Bridgefoot,-2.974,57.121
39,Drums,-2.027,57.295
55,Crathes,-2.411,57.059
55,Drymuir,-2.151,57.505
66,Cothal,-2.21,57.234
33,Boghead,-2.629,57.022
46,Hillockhead,-3.018,57.171
66,Netherbrae,-2.344,57.624
33,New Pitsligo,-2.198,57.593
39,Pittulie,-2.069,57.697
39,Fordyce,-2.745,57.662
55,Bailiesward,-2.884,57.422
24,Banchory-Devenick,-2.155,57.111
46,East Cairnbeg,-2.476,56.881
46,Badentoy Park,-2.155,57.07
28,Backfolds,-1.96,57.564
46,Kirkton of Maryculter,-2.236,57.083
28,Cairnborrow,-2.9,57.453
24,Inverquhomery,-1.967,57.508
24,Coynach,-2.928,57.138
39,Douneside,-2.857,57.141
39,Darra,-2.43,57.514
24,Kincardine O' Neil,-2.672,57.086
33,Thomastown,-2.708,57.421
24,Hatton of Fintray,-2.268,57.239
24,Upper Burnhaugh,-2.283,57.044
55,Ordhead,-2.549,57.187
39,Rothiebrisbane,-2.425,57.43
33,Glenbervie,-2.383,56.916
24,Oldtown,-2.699,57.35
79,Garmond,-2.324,57.557
24,Boultenstone,-2.974,57.185
24,Udny Green,-2.198,57.327
39,Rorandle,-2.572,57.253
55,Easter Culfosie,-2.427,57.154
79,Auchininna,-2.59,57.511
134,Old Rattray,-1.854,57.611
66,Fetterangus,-2.022,57.548
33,Rothienorman,-2.467,57.412
79,Roadside of Catterline,-2.234,56.902
24,Towie,-2.93,57.203
55,Mossat,-2.872,57.26
46,Ythanbank,-2.156,57.396
33,Fordoun,-2.415,56.875
28,Udny Station,-2.154,57.309
39,Auquhorthies,-2.279,57.355
39,Kinknockie,-1.991,57.465
24,Kirkstile,-2.787,57.402
55,Mains of Crichie,-2.044,57.496
24,Torterston,-1.874,57.52
66,Ladysford,-2.161,57.636
46,Bridge of Canny,-2.569,57.065
28,Gourdon,-2.285,56.829
39,Muir,-3.538,56.988
39,Chapel Hill,-1.887,57.412
66,Cushnie,-2.351,57.648
28,Glasslaw,-2.236,57.625
28,Keig,-2.649,57.26
24,Tillygreig,-2.194,57.298
24,Tifty,-2.374,57.455
33,Greenlaw,-2.538,57.612
24,Colp,-2.427,57.524
33,Torphins,-2.625,57.105
66,Ordie,-2.904,57.103
79,Auchallater,-3.387,56.978
39,Tulloch,-2.38,56.836
33,Aulton,-2.662,57.349
39,Rathen,-2,57.637
46,Bridgend,-2.809,57.41
39,Annochie,-2.103,57.473
33,Auchterderran,-3.259,56.142
55,Saline,-3.573,56.114
39,Charlestown,-3.498,56.037
24,Drumeldrie,-2.9,56.218
160,Glasgow,-4.232,55.801
1183,Inverness,-4.231,57.464
1419,Fort William,-5.103,56.819
66,Achreamie,-3.697,58.577
28,Allt nan Sugh,-5.487,57.311
134,Nedd,-5.175,58.236
192,Invershin,-4.409,57.938
33,Uiginish,-6.597,57.442
39,Fisherton,-4.093,57.535
134,Coldbackie,-4.38,58.504
230,Camascross,-5.806,57.136
33,Strathcarron,-5.429,57.423
192,Claonel,-4.438,58.008
55,Balblair,-4.172,57.673
397,Polloch,-5.611,56.757
24,North Watten,-3.312,58.511
331,Tofts,-3.087,58.596
24,Culbokie,-4.337,57.602
28,Contullich,-4.288,57.704
55,Savary,-5.848,56.546
192,Cove,-5.696,57.852
33,Tarbet,-5.138,58.387
33,Dunan,-6.006,57.277
55,Ardvasar,-5.909,57.059
39,Westfield,-3.615,58.555
24,Achaphubuil,-5.14,56.835
112,Kilchoan,-6.103,56.698
160,Croick,-4.599,57.885
33,Cantraydoune,-4.018,57.49
79,Drynoch,-6.311,57.301
33,Pitforthie,-2.313,56.905
79,Gowanhill,-1.951,57.657
46,Clardon,-3.459,58.595
112,Clachan,-5.071,57.815
134,Glasnakille,-6.073,57.141
94,Portclair,-4.625,57.186
134,Orbost,-6.567,57.395
571,Coulags,-5.399,57.45
33,Tomich,-4.181,57.71
28,Harlois,-6.515,57.385
24,Maligar,-6.215,57.602
55,Achiltibuie,-5.342,58.02
160,Blar a' Chaorainn,-5.107,56.753
33,Dalhalvaig,-3.896,58.467
134,Ardross,-4.327,57.738
79,Hunspow,-3.348,58.636
112,Achintraid,-5.598,57.387
79,Golval,-3.892,58.532
79,Nigg,-4.008,57.718
24,Cromdale,-3.538,57.337
28,Little Gruinard,-5.468,57.85
79,Braemore,-3.57,58.251
134,Rhifail,-4.179,58.415
39,Killiemor,-6.082,56.483
24,Ardnacross,-5.996,56.571
33,Friesland,-6.581,56.599
46,North Shian,-5.387,56.535
28,Kellan,-6.029,56.494
28,Garbhallt,-5.185,56.115
276,Baligrundle,-5.516,56.507
66,Beacharr,-5.664,55.629
24,Contin,-4.578,57.568
46,Teangue,-5.86,57.107
33,Reraig,-5.626,57.283
46,Glenmore,-6.263,57.379
79,Culbo,-4.281,57.614
28,Kirk,-3.24,58.518
66,Tore,-4.329,57.541
94,Claigan,-6.618,57.488
476,Kilkenneth,-6.968,56.493
134,Middle Cragabus,-6.248,55.627
94,Arichonan,-5.577,56.058
55,Achnashelloch,-5.457,56.07
28,Kilberry,-5.649,55.817
33,Ardrishaig,-5.45,56.016
28,Kilninian,-6.231,56.532
55,Barnacabber,-4.925,56.057
24,Achnafalnich,-4.896,56.419
66,Killbeg,-5.899,56.505
24,Port Ramsay,-5.445,56.551
33,Port Ann,-5.361,56.028
66,Crinan,-5.56,56.089
79,Erines,-5.427,55.923
24,West Darlochan,-5.695,55.448
24,Rahane,-4.84,56.05
33,Castleton,-5.399,56.009
397,Lagganulva,-6.136,56.493
46,Southend,-5.641,55.315
79,Kilchoman,-6.44,55.782
28,Pennygown,-5.904,56.515
192,Crossaig,-5.453,55.705
192,Ballymeanoch,-5.478,56.108
39,Middle Kames,-5.344,56.05
46,Blarghour,-5.236,56.273
55,Nerabus,-6.416,55.71
94,Tullochgorm,-5.268,56.108
276,Blackrock,-6.299,55.787
28,Sandhole,-5.204,56.147
46,Lee,-6.193,56.311
46,Lossit,-6.485,55.72
33,Lower Killeyan,-6.323,55.606
397,Carsaig,-5.979,56.324
55,Burg,-6.17,56.362
331,Cleongart,-5.695,55.545
24,Dalmally,-4.976,56.4
33,Cornabus,-6.236,55.641
55,West Tarbert,-5.437,55.853
24,Eredine,-5.276,56.233
160,Bunnahabhain,-6.126,55.881
33,Slockavullin,-5.498,56.118
230,Kilfinan,-5.309,55.957
94,Stuckgowan,-4.704,56.191
94,Kintour,-6.046,55.688
46,Machrihanish,-5.733,55.421
28,Claonaig,-5.393,55.757
28,South Shian,-5.401,56.522
79,Cretshengan,-5.654,55.841
112,Eorabus,-6.238,56.332
94,Otter Ferry,-5.32,56.006
28,Bonhill,-4.563,55.979
24,Renton,-4.582,55.967
28,Balloch,-4.574,56.006
112,Gartocharn,-4.523,56.043
33,Blairquhomrie,-4.532,56.007
28,Caldarvan,-4.512,56.032
55,Bowling,-4.478,55.934
46,Ardanaiseig,-5.096,56.378
134,Carradale,-5.468,55.592
33,Musdale,-5.341,56.347
134,Achallader,-4.737,56.565
28,Balliemore,-5.117,56.015
79,Calgary,-6.274,56.584
39,Heylipol,-6.914,56.484
134,Monreith,-4.545,54.737
79,Newtonairds,-3.756,55.105
55,Maryport,-4.882,54.672
79,Parkgate,-3.532,55.179
160,Anwoth,-4.21,54.88
94,Little Duchrae,-4.084,54.997
24,Straith,-3.821,55.176
55,Kirkconnel,-3.994,55.382
33,Milton,-3.803,55.015
24,Applegarthtown,-3.404,55.144
46,Carronbridge,-3.78,55.262
28,Orroland,-3.909,54.799
66,Tynron,-3.875,55.216
24,Crawick,-3.927,55.377
39,Castlefairn,-3.984,55.161
39,Townhead of Greenlaw,-3.969,54.962
33,Sibbaldbie,-3.339,55.176
24,Mossdale,-4.096,55.013
39,Auldgirth,-3.706,55.163
134,Culcronchie,-4.327,54.927
28,Springfield,-3.055,55.007
39,Auchengruith,-3.858,55.364
24,Cleughbrae,-3.461,55.051
33,Cample,-3.729,55.227
55,Barraer,-4.52,54.925
39,Portpatrick,-5.114,54.844
79,Spittal,-4.551,54.889
134,Ericstane,-3.462,55.383
685,Dumfries,-3.608,55.069
685,Stranraer,-5.024,54.899
276,Annan,-3.254,54.987
79,Locharbriggs,-3.58,55.106
24,Heathhall,-3.576,55.097
46,Crocketford,-3.83,55.035
28,Lochans,-5.012,54.869
39,Locherben,-3.642,55.257
55,Innermessan,-4.987,54.927
66,Balmaclellan,-4.11,55.089
24,Borgue,-4.132,54.81
46,Bogue,-4.122,55.108
24,Cumloden,-4.469,54.979
39,Big Balcraig,-4.517,54.764
134,Carrutherstown,-3.401,55.035
230,Cairngarroch,-5.021,54.805
66,Airieland,-3.936,54.892
28,Moniaive,-3.919,55.195
46,Hightae,-3.418,55.096
230,Craigenputtock,-3.927,55.12
55,Bankshill,-3.266,55.126
39,Leswalt,-5.094,54.931
33,Keir Mill,-3.794,55.218
192,Crofts,-3.892,55.047
66,Corsock,-3.946,55.066
160,Glencrosh,-3.95,55.18
46,Creetown,-4.375,54.902
66,Stoneykirk,-4.977,54.837
55,Gordieston,-3.802,55.136
66,Pitkevy,-3.214,56.219
24,Kingseat,-3.406,56.099
55,Letham,-3.119,56.316
