rs,name,lon,lat,r1
60,Ostrava,18.26,49.81,50
435,Liberec,15.063,50.761,435
60,Plzeň-Severní Předměstí,13.37,49.775,50
363,Uherské Hradiště,17.46,49.068,147
176,Praha-Horní Počernice,14.609,50.111,60
103,Kravaře,18.004,49.919,60
103,Úpice,16.038,50.516,72
123,Bystřice pod Hostýnem,17.668,49.402,60
147,Rýmařov,17.261,49.941,103
147,Litovel,17.071,49.697,60
176,Hořovice,13.901,49.841,103
72,Praha-Újezd nad Lesy,14.662,50.075,50
363,Přeštice,13.334,49.575,147
86,Kostelec nad Orlicí,16.201,50.125,50
176,Benátky nad Jizerou,14.836,50.292,50
176,Vimperk,13.781,49.058,123
147,Pečky,15.025,50.086,50
303,Žamberk,16.459,50.082,86
123,Světlá nad Sázavou,15.406,49.671,103
253,Hustopeče,16.722,48.944,123
86,Český Brod,14.864,50.074,86
123,Holice,15.991,50.072,103
123,Horní Slavkov,12.802,50.136,72
123,Dobřany,13.294,49.652,50
176,Slavičín,17.88,49.086,123
86,Sušice-Jalubí-Traplice-Kudlovice-Babice,17.455,49.121,50
103,Kynšperk nad Ohří,12.538,50.122,50
60,Bučovice,17.005,49.144,60
72,Bzenec,17.298,48.978,50
103,Rousínov,16.885,49.206,50
60,Jilemnice,15.506,50.611,50
211,Podbořany,13.409,50.225,86
86,Letovice,16.574,49.546,50
103,Rudná,14.234,50.035,50
60,Brod nad Tichou,12.741,49.835,50
86,Brloh,14.219,48.93,50
86,Brodce,14.869,50.331,50
60,Staré Čívice,15.689,50.015,50
123,Chlum u Třeboně,14.928,48.962,60
103,Nové Hrady,14.778,48.79,72
60,Nové Mitrovice,13.684,49.58,50
103,Nové Město pod Smrkem,15.229,50.925,72
72,Nový Dům,13.831,50.088,50
60,Micmanice,16.183,48.795,50
72,Buštěhrad,14.189,50.156,50
86,Boží Dar,12.924,50.41,50
147,Blovice,13.54,49.582,86
176,Nový Hrozenkov,18.198,49.337,103
60,Nová Včelnice,15.073,49.239,50
86,Bohdalov,15.876,49.479,50
86,Chlum,14.563,50.578,50
86,Bujanov,14.43,48.702,50
86,Lukavec,14.99,49.565,50
72,Kostelec,17.702,49.26,50
72,Bernartice,14.381,49.369,50
72,Křtiny,16.744,49.297,50
86,Budíškovice,15.531,49.076,50
103,Bělá,17.216,50.132,50
103,Rájec,16.639,49.411,50
60,Nemilany,17.249,49.557,50
72,Brodek u Prostějova,17.09,49.37,50
60,Bečov nad Teplou,12.838,50.083,50
72,Bezno,14.796,50.367,50
123,Bezvěrov,13.059,49.995,50
72,Brniště,14.703,50.729,50
103,Bečov,13.718,50.449,50
86,Kasejovice,13.741,49.463,72
123,Bezdružice,12.971,49.907,60
60,Braňany,13.7,50.542,50
86,Lhenice,14.15,48.995,50
103,Slivenec,14.358,50.02,50
123,Vrbno pod Pradědem,17.383,50.121,103
103,Lešná,17.93,49.521,50
86,Děčín XXXII-Boletice nad Labem,14.191,50.74,50
72,Vinoř,14.581,50.146,50
72,Besednice,14.557,48.79,50
86,Katusice,14.777,50.445,50
103,Kaznějov,13.383,49.893,50
60,Kardašova Řečice,14.853,49.185,60
60,Karle,16.365,49.766,50
60,Bezděz,14.722,50.534,50
103,Benešov nad Černou,14.627,48.729,72
86,Náměšť nad Oslavou,16.159,49.207,86
123,Moravský Krumlov,16.312,49.049,50
60,Boleradice,16.814,48.967,50
72,Bílsko,14.059,49.159,50
147,Lidečko,18.051,49.203,50
103,Hradec nad Moravicí,17.876,49.871,60
60,Osvětimany,17.25,49.056,50
72,Křišťanov,14.02,48.909,50
123,Šatov,16.01,48.793,50
60,Vávrovice,17.861,49.977,50
60,Pňovice,17.162,49.721,50
72,Hoštka,14.335,50.489,50
60,Plužná,14.803,50.473,50
60,Hora Svaté Kateřiny,13.437,50.606,60
60,Měnín,16.694,49.082,50
72,Kamýk nad Vltavou,14.253,49.639,50
60,Krásná Lípa,14.51,50.913,50
86,Domamil,15.696,49.083,50
86,Opočnice,15.258,50.172,50
60,Opočno,16.115,50.267,50
72,Chotěšov,14.085,50.44,50
86,Hejnice,15.182,50.877,50
86,Městečko Trnávka,16.727,49.709,50
72,Ratibořské Hory,14.77,49.463,60
86,Razová,17.532,49.931,50
103,Plánice,13.471,49.39,86
72,Lenora,13.793,48.922,50
123,Oslov,14.212,49.399,60
72,Dolní Čermná,16.565,49.98,50
72,Kněžice,15.672,49.271,50
86,Moraveč,15.077,49.409,50
86,Lesná,12.538,49.754,50
86,Křižanov,16.11,49.389,50
60,Mšec,13.898,50.205,50
60,Kojčice,15.256,49.476,50
72,Kokory,17.375,49.495,50
72,Ivanovice na Hané,17.093,49.305,50
60,Hůrky,13.683,49.745,50
60,Ořechov,16.523,49.111,50
72,Hlušice,15.403,50.265,50
60,Hošťka,12.597,49.696,50
60,Plaňany,15.029,50.05,50
147,Mšeno,14.633,50.438,72
60,Citov,17.325,49.468,50
86,Petrovice,14.337,49.554,50
72,Jedomělice,13.972,50.233,50
60,Jehnědí,16.31,49.971,50
123,Jemnice,15.57,49.019,72
72,Domanín,14.74,48.972,50
60,Lišov,14.608,49.016,60
123,Budišov,16.004,49.271,60
60,Lipov,17.464,48.907,50
123,Horažďovice,13.701,49.321,86
86,Lipová,12.449,50.036,50
176,Bor,12.775,49.712,72
123,Nasavrky,15.805,49.845,60
103,Nivnice,17.648,48.975,50
72,Branice,14.34,49.402,50
72,Klíny,13.548,50.638,50
72,Bulovka,15.124,50.971,50
60,Olšovec,17.716,49.591,50
60,Česká Ves,17.228,50.257,50
60,Brantice,17.629,50.064,50
72,Nový Svět,15.421,50.781,50
86,Běleč,13.993,50.056,50
72,Kunčina,16.628,49.795,50
72,Kunžak,15.19,49.121,60
72,Kučeř,14.246,49.434,50
103,Molenburk,16.813,49.433,50
123,Nedvědice,16.334,49.457,50
60,Chyše,13.249,50.105,50
123,Bochov,13.045,50.151,60
72,Buchlovice,17.339,49.086,60
72,Nechanice,15.633,50.237,72
72,Osek,13.591,49.778,50
60,Oselce,13.673,49.437,50
72,Nová Říše,15.564,49.139,60
60,Bohuslavice,16.958,49.621,50
60,Olšany,16.859,49.965,50
211,Nýrsko,13.144,49.294,86
86,Kněževes,13.637,50.147,50
103,Miličín,14.661,49.571,60
103,Bojkovice,17.815,49.039,50
86,Bělotín,17.799,49.585,50
60,Rájec,12.722,50.289,50
103,Protivín,14.217,49.199,50
86,Nové Veselí,15.909,49.52,50
103,Brankovice,17.135,49.156,50
60,Branky,17.893,49.461,50
103,Jílové u Prahy,14.493,49.895,50
60,Jívka,16.109,50.535,50
60,Jívová,17.395,49.709,50
60,Dolní Podluží,14.595,50.88,50
103,Hnojník,18.541,49.682,50
86,Hluk,17.527,48.988,60
176,Hranice,12.176,50.305,60
60,Dolní Libchavy,16.39,50.003,50
123,Kuřívody,14.804,50.586,60
86,Libáň,15.217,50.375,50
86,Chvaletice,15.418,50.034,72
72,Bohdaneč,15.223,49.778,50
176,Kvilda,13.58,49.019,50
72,Rouchovany,16.108,49.07,72
86,Bolatice,18.084,49.952,50
72,Nový Rychnov,15.366,49.384,50
60,Rybníček,17.199,49.769,50
103,Mýto,13.735,49.789,50
103,Měcholupy,13.537,50.267,50
86,Neveklov,14.533,49.754,72
86,Horní Dubenky,15.317,49.26,50
60,Blížejov,12.989,49.5,50
86,Abertamy,12.818,50.369,50
60,Chyňava,14.074,50.027,50
60,Chyšky,14.428,49.523,50
60,Okarec,16.088,49.206,50
72,Bílovice nad Svitavou,16.672,49.247,50
123,Borovany,14.642,48.899,50
60,Albrechtice,18.524,49.786,50
123,Libochovice,14.044,50.406,103
72,Borohrádek,16.093,50.098,50
60,Bílá,18.453,49.442,50
176,Holýšov,13.101,49.594,103
72,Bohušovice nad Ohří,14.15,50.493,50
60,Obora,16.606,49.452,50
86,Brušperk,18.222,49.7,50
60,Nevězice,14.153,49.478,50
60,Nové Hamry,12.719,50.36,50
103,Horní Benešov,17.603,49.966,72
86,Dalov,17.338,49.784,50
72,Brná,14.077,50.622,50
60,Bedřichov,15.598,50.729,60
60,Luhačovice,17.758,49.1,60
86,Luka nad Jihlavou,15.702,49.374,60
103,Nový Knín,14.294,49.788,60
72,Nová Ves u Chotěboře,15.648,49.756,50
147,Luby,12.406,50.252,60
60,Míkovice,17.504,49.038,50
123,Morkovice,17.208,49.248,86
103,Obrataň,14.943,49.425,50
86,Blatno,13.361,50.511,50
123,Netolice,14.197,49.049,86
60,Bílý Kámen,15.509,49.436,50
60,Chlumín,14.449,50.289,50
147,Kašperské Hory,13.556,49.143,72
86,Bošovice,16.837,49.054,50
86,Božejov,15.156,49.362,50
60,Malé Poříčí,16.191,50.443,50
176,Bystré,16.347,49.628,50
103,Bystřice,14.667,49.732,50
72,Bystřička,17.974,49.415,50
60,Obytce,13.379,49.391,50
86,Nížkov,15.806,49.533,50
176,Nepomuk,13.582,49.486,72
60,Nepomyšl,13.313,50.218,50
103,Broumy,13.852,49.955,60
60,Horní Dubňany,16.201,49.063,50
86,Kluky,14.245,49.317,50
211,Božice,16.289,48.837,60
123,Hrubá Voda,17.417,49.668,50
60,Horní Dvořiště,14.406,48.604,50
176,Brtnice,15.676,49.307,60
60,Brumov,16.426,49.462,50
72,Klučenice,14.212,49.553,50
72,Kozlov,17.536,49.604,50
123,Byšice,14.611,50.31,50
103,Klobuky,13.987,50.294,50
103,Všeruby,12.983,49.341,50
72,Batelov,15.395,49.314,50
103,Černovice,14.961,49.373,60
60,Hradištko,14.409,49.868,50
86,Jaroslavice,16.234,48.757,72
123,Březno,13.421,50.402,50
86,Břidličná,17.371,49.912,60
103,Jesenice,14.513,49.968,72
253,Jesenice,13.469,50.097,60
60,Velké Němčice,16.672,48.992,50
60,Hostouň,12.771,49.56,50
72,Hosty,14.393,49.26,50
147,Radnice,13.606,49.857,86
86,Borová,16.162,49.742,50
86,Chožov,13.859,50.399,50
103,Chrast,15.934,49.902,50
103,Lomnice,16.414,49.405,50
72,Meziměstí,16.242,50.625,50
60,Pěnčín,15.076,50.595,50
103,Pěnčín,17.013,49.567,50
72,Prášily,13.378,49.105,50
751,Vyšší Brod,14.312,48.616,103
123,Velká nad Veličkou,17.521,48.883,72
103,Lomnice nad Lužnicí,14.717,49.085,60
60,Velký Beranov,15.667,49.405,50
72,Soběkury,13.239,49.576,50
72,Křečovice,14.476,49.721,50
60,Velké Heraltice,17.729,49.975,60
72,Jenišovice,15.137,50.628,50
86,Mirošov,13.658,49.688,50
103,Opatovice nad Labem,15.79,50.145,50
72,Opařany,14.481,49.397,50
86,Mšené-lázně,14.127,50.362,50
72,Mečeříž,14.737,50.29,50
72,Kostomlaty pod Milešovkou,13.873,50.56,50
60,Chlebičov,17.967,49.959,50
60,Hoštice,13.909,49.194,50
86,Vřesina,18.126,49.824,50
86,Psárov,14.905,49.319,50
176,Miroslav,16.313,48.948,86
123,Mirotice,14.037,49.429,50
72,Horní Jelení,16.084,50.049,50
60,Horní Jiřetín,13.547,50.573,50
72,Hazlov,12.272,50.156,50
60,Široká Niva,17.485,50.067,50
72,Novosedly,13.798,49.263,50
86,Rajhrad,16.604,49.089,50
176,Nová Bystřice,15.103,49.019,103
86,Česká Bělá,15.691,49.643,50
60,Česká Skalice,16.043,50.395,60
147,Opatov,16.505,49.825,60
72,Dětmarovice,18.461,49.894,50
86,Kouty,15.793,49.315,50
60,Starý Maletín,16.78,49.799,50
60,Hřiměždice,14.275,49.687,50
72,Cítov,14.398,50.372,50
86,Velký Osek,15.186,50.099,50
86,Varvažov,13.964,50.723,50
60,Rakvice,16.813,48.858,50
211,Deštná,14.924,49.265,72
86,Rychtářov,16.919,49.328,50
60,Mezilečí,15.983,50.453,50
60,Dolní Dvůr,15.656,50.652,50
72,Milovice u Hořic,15.631,50.33,50
123,Milín,14.046,49.632,50
72,Kácov,15.028,49.778,50
86,Břvany,13.722,50.401,50
60,Dětřichov,15.037,50.893,50
86,Dolní Město,15.382,49.628,50
60,Dolní Nivy,12.637,50.243,50
60,Hrdějovice,14.479,49.019,50
60,Toužetín,13.886,50.315,50
60,Ostravice,18.392,49.535,50
211,Golčův Jeníkov,15.477,49.816,50
103,Liptál,17.922,49.291,50
147,Semtěš,15.514,49.96,50
72,Nová Role,12.784,50.271,50
86,Chvalšiny,14.211,48.854,50
72,Dalečín,16.24,49.591,50
86,Rapotín,17.019,50.001,50
72,Plesná,12.347,50.221,50
60,Okrouhlá,12.488,50.062,50
103,Domašov,17.199,50.18,50
72,Březník,16.194,49.172,50
60,Březová,12.645,50.147,50
60,Hlivice,17.038,49.783,50
211,Pacov,15.002,49.471,123
103,Světlá,17.401,50.045,50
60,Dubeč,14.59,50.062,50
72,Chcebuz,14.424,50.484,50
86,Polešovice,17.341,49.034,50
72,Temelín,14.349,49.193,50
72,Halže,12.579,49.831,50
86,Moravská Nová Ves,17.014,48.803,60
60,Lukov,17.73,49.29,50
86,Lysice,16.537,49.452,60
60,Bosonohy,16.525,49.176,50
60,Žebětín,16.487,49.207,50
72,Česká Kubice,12.859,49.369,50
176,Opatov,15.662,49.224,50
72,Borová,16.253,50.386,50
86,Pňovany,13.122,49.779,50
60,Hartmanice,13.455,49.169,50
72,Dírná,14.845,49.243,50
176,Horní Bříza,13.356,49.84,50
60,Přebuz,12.62,50.366,50
86,Dašice,15.912,50.028,50
60,Březnice,14.514,49.252,50
147,Radonice,13.285,50.298,60
86,Medlov,16.522,49.035,50
211,Habartice,15.065,51.019,50
60,Květná,16.346,49.736,50
72,Měřín,15.884,49.393,72
123,Šebetov,16.712,49.549,50
60,Rosovice,14.109,49.757,50
86,Křenice,14.669,50.031,50
103,Dešov,15.701,48.986,50
86,Roseč,14.911,49.128,50
72,Litultovice,17.751,49.904,50
72,Lišany,13.742,50.147,50
72,Břežany,16.342,48.87,50
60,Ostroměř,15.549,50.372,50
72,Deštné v Orlických horách,16.351,50.305,72
147,Divišov,14.877,49.788,60
72,Krásná Hora nad Vltavou,14.277,49.605,72
60,Horní Štěpánov,16.791,49.549,50
147,Křemže,14.306,48.905,72
72,Nosálov,14.671,50.473,50
147,Petrovice,13.976,50.789,72
103,Chřibská,14.483,50.863,50
60,Borová Lada,13.66,48.99,50
72,Česká Kamenice,14.418,50.798,72
86,Šitbořice,16.78,49.014,60
72,Dobré,16.264,50.27,50
86,Libčice nad Vltavou,14.363,50.199,50
72,Bojanov,15.705,49.841,50
72,Okříšky,15.77,49.245,50
60,Březová nad Svitavou,16.518,49.644,60
72,Dolní Teplice,16.173,50.584,50
86,Olešnice,16.422,49.558,50
72,Bouzov,16.893,49.704,60
60,Petřkovice,18.256,49.873,50
72,Raškovice,18.473,49.62,60
123,Habry,15.485,49.756,50
60,Citonice,15.964,48.884,50
103,Řevničov,13.808,50.185,72
60,Polanka nad Odrou,18.165,49.788,50
60,Rataje,17.336,49.271,50
60,Hostim,15.895,49.019,50
72,Lipová,14.36,51.011,50
72,Kunštát,16.517,49.506,50
103,Liteň,14.149,49.904,50
123,Hanušovice,16.936,50.08,60
72,Rokytnice nad Rokytnou,15.773,49.184,50
60,Libá,12.231,50.128,50
86,Šardice,17.028,48.964,50
72,Lestkov,12.871,49.883,50
60,Krásný Dvůr,13.368,50.254,50
60,Hřensko,14.243,50.874,50
86,Jedovnice,16.756,49.345,50
103,Město Albrechtice,17.575,50.163,72
60,Město Touškov,13.251,49.776,50
103,Měčín,13.403,49.48,50
60,Rataje nad Sázavou,14.957,49.842,50
86,Hradec nad Svitavou,16.481,49.711,50
72,Deblín,16.346,49.32,50
60,Chvojenec,15.937,50.11,50
60,Řípec,14.737,49.214,50
60,Vysoká,17.882,49.554,50
103,Ševětín,14.572,49.1,72
72,Šafov,15.735,48.867,50
60,Šanov,16.379,48.801,50
86,Ktiš,14.133,48.917,50
72,Roudno,17.514,49.896,50
72,Rokytnice v Orlických horách,16.466,50.165,72
72,Otročín,12.892,50.032,50
123,Řepín,14.635,50.367,50
60,Kubova Huť,13.772,48.983,50
72,Šebířov,14.826,49.566,50
72,Kunvald,16.5,50.129,50
123,Černošín,12.884,49.816,60
103,Šakvice,16.714,48.897,50
72,Osíčko,17.752,49.431,50
123,Dolní Újezd,16.255,49.826,50
86,Ruda,13.876,50.141,50
147,Moravský Beroun,17.442,49.794,72
86,Lichnov,17.626,50.008,50
60,Štětovice,17.209,49.496,50
86,Koloveč,13.109,49.487,50
60,Mířkov,12.881,49.589,50
60,Černá v Pošumaví,14.111,48.738,50
60,Černé Voděrady,14.807,49.942,50
86,Úněšov,13.149,49.883,50
86,Černíkov,13.13,49.423,50
86,Kolinec,13.439,49.299,50
72,Bavorov,14.079,49.122,50
103,Libčeves,13.838,50.452,60
60,Biskupice,16.011,49.038,50
103,Jablonné v Podještědí,14.761,50.765,50
86,Jablůnka,17.95,49.384,50
86,Březnice,17.663,49.186,50
60,Skoky,17.525,49.551,50
86,Liběšice,14.289,50.569,72
86,Polnička,15.916,49.607,50
103,Křinec,15.138,50.264,60
86,Červená Řečice,15.178,49.511,60
363,Osoblaha,17.714,50.274,103
72,Osová Bítýška,16.168,49.325,50
72,Pilníkov,15.82,50.532,50
60,Dešná,15.543,48.958,50
72,Pavlínov,15.878,49.348,50
72,Vykáň,14.817,50.12,50
103,Čkyně,13.829,49.115,50
72,Krchleby,15.023,50.239,50
86,Vyskytná,15.366,49.428,50
103,Jáchymov,12.935,50.358,50
60,Veselá,15.227,49.319,50
123,Jistebnice,14.528,49.486,72
60,Jílovice,14.727,48.889,50
60,Větřkovice,17.82,49.781,50
86,Věšín,13.824,49.615,50
72,Záboří,14.267,48.99,50
86,Větřní,14.286,48.774,50
60,Svémyslice,14.648,50.146,50
123,Valašské Klobouky,18.008,49.141,50
253,Zdobnice,16.409,50.238,50
86,Žirovnice,15.188,49.253,60
60,Záchlumí,12.965,49.8,50
60,Fryčovice,18.225,49.666,50
60,Koštov,13.993,50.632,50
72,Luže,16.029,49.893,50
60,Vílanec,15.577,49.335,50
72,Vír,16.324,49.557,50
72,Svratka,16.032,49.711,72
86,Dolany,13.248,49.443,50
60,Polkovice,17.259,49.392,50
60,Rynárec,15.235,49.39,50
72,Záříčí,17.353,49.383,50
60,Vodice,14.909,49.464,50
60,Dolní Bělá,13.273,49.896,50
103,Dubné,14.36,48.976,60
72,Rušinov,15.683,49.792,50
72,Koštice,13.942,50.403,50
72,Košík,15.134,50.318,50
60,Dolní Bousov,15.128,50.438,50
60,Košťálov,15.404,50.572,50
176,Skuteč,15.997,49.844,72
60,Radslavice,17.517,49.478,50
72,Dolní Cerekev,15.457,49.344,50
72,Žinkovy,13.489,49.483,50
72,Věž,15.459,49.564,50
60,Kondrac,14.885,49.667,50
103,Kamenný Újezd,14.446,48.898,50
60,Svídnice,16.223,50.086,50
72,Žeravice,17.237,49.023,50
147,Roztoky,13.868,50.027,60
86,Snět,15.227,49.626,50
72,Dolní Dunajovice,16.593,48.854,50
103,Sněžné,16.122,49.646,50
60,Lužec nad Vltavou,14.4,50.321,50
86,Roudné,14.487,48.935,50
60,Vlksice,14.441,49.481,50
86,Vrbovec,16.101,48.8,50
86,Kladruby,12.98,49.715,50
123,Fulnek,17.903,49.712,50
60,Slatiňany,15.814,49.921,50
72,Ledce,14.005,50.196,50
72,Čižice,13.398,49.648,50
72,Jindřichovice pod Smrkem,15.25,50.961,50
60,Hlohovec,16.762,48.774,50
435,Železná Ruda,13.235,49.137,123
72,Jasenná,15.991,50.318,50
86,Želetice,17.008,49.014,50
72,Železnice,15.385,50.473,50
72,Komárov,13.856,49.806,50
103,Starý Plzenec,13.474,49.698,50
60,Staré Sedliště,12.694,49.744,50
123,Tísek,18.015,49.793,50
60,Zákupy,14.645,50.685,50
60,Rybníček,17.074,49.274,50
72,Popovice,14.752,49.695,50
123,Smiřice,15.865,50.3,50
86,Senohraby,14.718,49.895,50
86,Cholina,17.054,49.656,50
211,Žacléř,15.911,50.663,86
60,Dolní Lukavice,13.344,49.602,50
103,Ždánice,17.028,49.067,60
60,Smědčice,13.512,49.799,50
60,Zámrsk,16.129,49.986,50
86,Roštín,17.286,49.189,50
103,Vysoká Pec,13.47,50.52,50
303,Javorník,17.003,50.391,123
86,Domašov nad Bystřicí,17.445,49.742,50
103,Únanov,16.064,48.901,50
103,Újezd,17.906,49.168,50
72,Val,14.756,49.146,50
60,Valašská Senice,18.116,49.225,50
86,Vysoké Veselí,15.436,50.331,50
72,Mašťov,13.28,50.262,50
60,Radošovice,13.899,49.234,50
211,Vizovice,17.855,49.223,103
60,Tetětice,17.249,49.272,50
60,Dolní Kounice,16.465,49.07,50
123,Slavonice,15.352,48.998,72
72,Tasov,16.095,49.288,50
123,Vlachovo Březí,13.958,49.081,50
72,Vladislav,15.988,49.21,50
103,Podmokly,13.704,49.943,50
147,Melč,17.758,49.85,50
60,Pavlov,15.914,49.451,50
103,Ždírec,14.624,50.515,50
103,Ždírec nad Doubravou,15.814,49.696,60
60,Tuhaň,14.467,50.536,50
72,Vrdy,15.472,49.922,50
60,Nouzov,13.645,50.109,50
60,Žalany,13.906,50.59,50
86,Výrava,15.979,50.27,50
123,Růžová,14.294,50.842,50
147,Peruc,13.96,50.343,50
72,Velvary,14.236,50.282,50
72,Zdíkov,13.697,49.085,50
123,Zděchov,18.077,49.257,50
60,Vrábče,14.376,48.917,50
103,Dubenec,15.795,50.378,50
103,Dubicko,16.963,49.828,50
103,Týnec nad Sázavou,14.59,49.834,50
60,Jedlová,16.306,49.661,50
72,Vlastec,14.212,49.366,50
60,Sány,15.248,50.125,50
211,Sázava,14.897,49.872,103
86,Zálší,14.599,49.218,50
72,Pavlov,16.879,49.743,50
72,Starý Kolín,15.294,50.01,50
60,Rozvadov,12.552,49.668,60
86,Ročov,13.774,50.253,50
72,Větrný Jeníkov,15.479,49.476,50
103,Mosty u Jablunkova,18.754,49.527,50
123,Hluboká nad Vltavou,14.434,49.052,60
123,Luká,16.947,49.649,50
103,Láz,13.917,49.652,50
86,Višňová,15.025,50.967,50
60,Luleč,16.929,49.253,50
86,Hostomice,14.046,49.825,50
123,Radomyšl,13.93,49.316,50
72,Dobřichovice,14.275,49.927,50
86,Chodov,12.83,49.418,50
60,Ptice,14.166,50.053,50
103,Janovice nad Úhlavou,13.218,49.345,50
72,Hořovičky,13.531,50.156,50
60,Rádlo,15.116,50.698,50
123,Bělá nad Radbuzou,12.718,49.591,103
103,Lípa,15.545,49.554,50
86,Březina,16.961,49.368,50
147,Trhové Sviny,14.639,48.842,86
60,Trnava,15.924,49.255,50
211,Králíky,16.761,50.084,123
72,Zásmuky,15.031,49.955,60
303,Březnice,13.951,49.558,103
72,Trhový Štěpánov,15.014,49.711,50
123,Slabce,13.715,50,60
86,Slabčice,14.338,49.327,50
60,Jasenice,16.164,49.258,50
103,Újezd u Brna,16.757,49.104,50
60,Hlavňovice,13.395,49.238,50
60,Vitějovice,14.073,49.046,50
103,Višňová,14.145,49.706,50
60,Píšť,18.193,49.979,50
72,Velké Pavlovice,16.816,48.905,50
72,Mladotice,13.364,49.985,50
60,Mladošovice,14.699,48.94,50
86,Vitiněves,15.378,50.393,50
60,Skřivany,15.499,50.269,50
60,Choltice,15.619,49.988,50
72,Liberk,16.343,50.199,50
103,Mladá Vožice,14.809,49.533,103
123,Manětín,13.233,49.992,72
103,Kryry,13.427,50.174,50
103,Velké Bílovice,16.892,48.849,72
60,Mikuleč,16.422,49.806,50
86,Hlavečník,15.427,50.075,50
103,Kdyně,13.04,49.391,60
60,Dobřív,13.687,49.716,50
103,Litice,13.353,49.697,50
176,Želetava,15.673,49.142,72
60,Mikulovice,16.095,48.957,50
60,Mikulovice,17.322,50.299,50
86,Mikulášovice,14.364,50.965,50
103,Kelč,17.815,49.478,50
72,Ledce,15.083,50.354,60
72,Ledenice,14.619,48.933,50
72,Lednice,16.803,48.8,50
72,Horní Kruty,14.96,49.919,50
103,Mostek,15.696,50.486,50
72,Lužec nad Cidlinou,15.412,50.214,50
86,Kámen,15.52,49.713,50
123,Kovářov,14.278,49.518,50
86,Kovářská,13.054,50.438,50
60,Velká Lhota,18.036,49.438,50
72,Písečné,15.462,48.965,50
103,Pasohlávky,16.544,48.903,50
72,Teplá,12.863,49.982,72
86,Chroustovice,15.991,49.956,50
103,Hať,18.239,49.946,50
60,Dolní Moravice,17.322,49.977,50
72,Hošťálková,17.869,49.355,72
86,Bělčice,13.876,49.502,50
72,Terešov,13.7,49.897,50
123,Malšín,14.287,48.678,50
60,Lužany,13.316,49.547,50
86,Sedlejov,15.496,49.228,50
72,Bělá pod Bezdězem,14.804,50.501,72
123,Planá nad Lužnicí,14.701,49.354,50
176,Polná,15.719,49.487,72
60,Horní Lomná,18.637,49.528,60
147,Moldava,13.657,50.721,72
60,Vinařice,14.091,50.176,50
60,Kočov,12.737,49.809,50
86,Konice,16.889,49.59,86
60,Lomnice,12.633,50.212,50
147,Brumovice,17.75,50.015,50
72,Břest,17.441,49.351,50
60,Luštěnice,14.937,50.323,50
60,Pohorská Ves,14.648,48.67,50
123,Pohořelice,16.524,48.981,86
103,Vápenná,17.098,50.283,60
72,Radvanice,16.062,50.567,50
72,Sudoměřice,17.257,48.867,50
72,Patokryje,13.705,50.5,50
72,Chlum,14.38,49.699,50
86,Loket,12.754,50.186,50
60,Ostrov nad Oslavou,15.99,49.487,50
72,Chocenice,13.52,49.548,50
60,Lázně Bohdaneč,15.68,50.076,50
72,Hostinné,15.723,50.541,60
60,Maršovice,14.565,49.714,50
60,Maršovice,15.198,50.696,50
60,Herálec,15.457,49.531,50
72,Hlubočky,17.403,49.628,50
103,Lázně Bělohrad,15.583,50.429,50
86,Lázně Kynžvart,12.625,50.011,50
72,Horní Lipka,16.77,50.117,50
103,Městys Bílá Voda,16.916,50.442,50
72,Podolí,17.531,49.445,50
60,Lužany,15.789,50.338,50
123,Jiříkov,17.278,49.854,50
86,Mirovice,14.036,49.516,50
86,Cehnice,14.029,49.215,50
86,Chbany,13.43,50.333,50
86,Mařenice,14.679,50.807,50
72,Slezské Pavlovice,17.701,50.31,50
86,Dobrovice,14.962,50.369,50
86,Plasy,13.39,49.934,50
103,Kounov,13.675,50.213,50
60,Janov,16.385,49.841,50
60,Krupá,13.732,50.175,50
86,Rovensko pod Troskami,15.259,50.535,60
72,Slezské Rudoltice,17.681,50.207,50
60,Vážany,17.05,49.244,50
211,Sudice,18.068,50.032,50
211,Toužim,12.985,50.06,103
86,Horní Stakory,14.965,50.449,50
103,Sedlice,13.939,49.377,50
60,Ostružná,17.052,50.185,50
60,Žírovice,12.356,50.139,50
60,Rybníky,14.206,49.753,50
60,Merklín,12.863,50.328,50
72,Vápno,15.533,50.104,50
176,Moravec,16.143,49.44,50
72,Chroboly,14.067,48.957,50
72,Radkov,15.475,49.145,50
176,Hevlín,16.381,48.752,50
60,Heřmaničky,14.582,49.605,50
147,Heřmanovice,17.398,50.193,60
123,Višňové,16.15,48.982,72
103,Lodhéřov,14.96,49.215,50
72,Lodín,15.61,50.271,50
72,Loděnice,14.158,49.995,50
60,Stratov,14.908,50.193,50
60,Hrušovany,13.498,50.387,50
72,Hrušovany nad Jevišovkou,16.403,48.83,72
103,Dříteň,14.346,49.143,60
60,Třebihošť,15.71,50.433,50
60,Stupava,17.249,49.117,50
60,Staré Hobzí,15.453,49.01,50
86,Horní Pěna,15.042,49.104,50
211,Kalek,13.322,50.578,50
60,Doubrava,15.068,50.553,50
60,Huzová,17.298,49.82,60
60,Byňov,14.799,48.816,50
72,Novosedly,13.204,50.039,50
72,Velešín,14.463,48.829,72
86,Přimda,12.674,49.675,50
72,Strupčice,13.531,50.471,50
103,Hvozd,13.263,49.94,50
86,Řečice,15.368,49.138,50
72,Přibyslav,15.739,49.577,72
60,Zhoř,16.383,49.903,50
60,Jítrava,14.856,50.792,50
123,Vidnava,17.186,50.372,72
60,Číměř,15.074,49.061,50
60,Lipolec,15.358,49.087,50
103,Strašice,13.758,49.736,86
60,Lubná,13.701,50.077,50
147,Hory,12.561,50.255,50
147,Mořkov,18.06,49.537,60
60,Mošnov,18.132,49.689,50
60,Močerady,13.074,49.517,50
60,Střeň,17.154,49.692,50
86,Loučná nad Desnou,17.091,50.072,60
72,Stříbrná,12.526,50.357,50
86,Stráž,12.775,49.669,50
72,Velim,15.107,50.06,50
103,Proseč,16.116,49.806,60
86,Jimlín,13.747,50.319,50
60,Dvorce,15.49,49.375,50
103,Dvorce,17.548,49.833,50
72,Všeteč,14.328,49.227,50
103,Mnichovice,14.709,49.936,50
86,Mníšek,15.056,50.832,50
60,Dnešice,13.265,49.605,50
147,Čechtice,15.048,49.624,86
86,Dvory nad Lužnicí,14.901,48.853,50
60,Stonařov,15.586,49.282,50
72,Stráž nad Nežárkou,14.906,49.07,60
72,Spálené Poříčí,13.606,49.614,50
103,Prosiměřice,16.192,48.903,60
103,Spálov,17.722,49.704,60
60,Stráž nad Nisou,15.027,50.791,50
72,Čížkov,15.118,49.44,50
60,Strmilov,15.199,49.158,50
86,Prameny,12.733,50.05,50
72,Horní Vltavice,13.759,48.957,50
86,Jince,13.979,49.786,50
176,Mníšek pod Brdy,14.262,49.866,72
60,Stěbořice,17.805,49.937,50
123,Přepychy,16.107,50.236,50
147,Valeč,13.255,50.174,50
147,Valeč,16.036,49.144,50
103,Valtice,16.755,48.741,72
86,Kamenice nad Lipou,15.075,49.303,86
60,Modrava,13.499,49.024,50
72,Suchdol,15.167,49.952,50
86,Starý Jiříkov,14.569,50.995,50
60,Pávov,15.604,49.443,50
60,Hvozdec,16.425,49.247,50
72,Horní Poříčí,16.477,49.588,50
72,Strání,17.707,48.902,60
86,Malonty,14.577,48.686,50
60,Činěves,15.214,50.23,50
60,Třebonín,15.313,49.87,50
103,Zbiroh,13.773,49.86,72
72,Stanoviště,16.253,49.239,50
72,Stará Říše,15.595,49.18,50
211,Vejprty,13.032,50.492,123
60,Strážný,13.72,48.909,50
103,Modřice,16.614,49.128,50
72,Dlouhá Ves,13.509,49.196,50
60,Louňovice pod Blaníkem,14.847,49.637,60
60,Horní Stropnice,14.735,48.761,50
60,Stanovice,12.874,50.165,50
86,Velká Bystřice,17.364,49.594,60
72,Velká Bíteš,16.226,49.289,72
60,Petrovice,14.767,50.809,50
72,Třebovice,16.502,49.859,50
86,Mezholezy,12.905,49.625,50
60,Korolupy,15.646,48.93,50
60,Čermákovice,16.195,49.032,50
72,Džbánov,16.16,49.916,50
60,Strašín,13.64,49.179,50
60,Voznice,14.217,49.817,50
60,Lubenec,13.315,50.132,60
86,Šluknov,14.453,51.004,60
86,Strážov,13.246,49.303,50
103,Stožec,13.821,48.859,50
72,Loučeň,15.02,50.285,50
103,Studená,15.287,49.185,60
86,Čížová,14.093,49.357,50
60,Čejkovice,16.942,48.906,50
60,Žerotín,13.912,50.286,50
123,Zdice,13.977,49.912,50
60,Staňkov I,13.07,49.553,50
60,Koryta,13.475,49.901,50
72,Třebenice,13.99,50.476,60
72,Hudlice,13.971,49.961,50
103,Kostelec nad Černými lesy,14.859,49.994,60
60,Palič,12.482,50.009,50
103,Javorník,15.774,50.584,50
103,Poniklá,15.463,50.662,50
147,Kožlí,15.253,49.67,72
103,Mokrovousy,15.686,50.275,50
60,Těchobuz,14.931,49.51,50
72,Kostelany,17.383,49.203,50
86,Kostelec,13.026,49.674,50
60,Dvorska,16.701,49.141,50
176,Skalná,12.361,50.17,50
123,Potštát,17.652,49.637,60
60,Valteřice,14.407,50.677,50
72,Hřibsko,15.735,50.197,50
86,Rokytno,16.071,49.6,50
86,Kozlov,13.027,50.108,50
72,Tučapy,14.803,49.291,50
103,Stod,13.165,49.639,50
86,Krouna,16.027,49.772,50
86,Zavlekov,13.49,49.337,50
123,Zruč nad Sázavou,15.106,49.74,103
72,Lanžhot,16.967,48.724,50
60,Třanovice,18.529,49.712,50
123,Třebařov,16.703,49.83,50
60,Staré Těchanovice,17.692,49.818,50
60,Kostelec na Hané,17.058,49.514,50
60,Kostelec nad Labem,14.586,50.227,50
60,Poříčany,14.918,50.108,50
60,Prachovice,15.629,49.894,50
123,Žihle,13.375,50.045,50
72,Třebechovice pod Orebem,15.992,50.201,72
72,Třebelovice,15.666,49.022,50
60,Vrážné,16.778,49.678,50
72,Želízy,14.465,50.424,50
86,Žichovice,13.628,49.267,50
123,Židlochovice,16.619,49.04,50
72,Tuchořice,13.663,50.285,60
103,Tupadly,15.403,49.869,50
60,Jedlí,16.798,49.931,50
72,Krajková,12.534,50.216,50
72,Pustá Rybná,16.137,49.71,50
60,Habartov,12.551,50.183,50
72,Těchonín,16.618,50.065,50
60,Soběšín,14.956,49.791,50
60,Dolní Branná,15.594,50.593,50
123,Doksy,14.656,50.565,86
72,Zbytiny,13.978,48.943,50
60,Těchlovice,14.205,50.696,50
86,Čučice,16.278,49.137,50
60,Čáslavsko,15.003,49.592,50
86,Sadská,14.986,50.136,50
60,Číchov,15.762,49.285,50
72,Tlumačov,17.496,49.254,50
72,Svojšín,12.911,49.766,50
147,Horní Planá,14.033,48.767,103
60,Tašov,14.136,50.615,50
211,Potůčky,12.736,50.428,50
86,Dubá,14.54,50.54,60
60,Sosnová,14.532,50.655,50
60,Čachotín,15.609,49.695,50
60,Zalužany,14.086,49.542,50
147,Soběšice,13.684,49.208,50
147,Uhlířské Janovice,15.065,49.88,86
147,Zlaté Hory,17.396,50.264,103
72,Zliv,14.366,49.066,50
60,Zlobice,17.313,49.302,50
72,Horní Město,17.211,49.908,50
60,Určice,17.075,49.431,50
72,Tvrdonice,16.994,48.76,50
60,Tuchoměřice,14.282,50.135,50
72,Tavíkovice,16.103,49.034,50
147,Kopidlno,15.27,50.331,86
60,Zvíkov,14.617,48.981,50
60,Zvíkov,14.449,48.803,50
72,Čachrov,13.303,49.265,50
72,Solnice,16.238,50.204,50
103,Unhošť,14.13,50.085,50
60,Zhoř,12.97,49.66,50
86,Zhoř,15.77,49.442,50
72,Podbořánky,13.45,50.052,50
60,Uzenice,13.96,49.473,50
60,Veverská Bítýška,16.437,49.276,50
60,Těmice,15.06,49.352,50
103,Prunéřov,13.259,50.43,50
86,Rovnáčov,15.544,50.567,50
72,Potštejn,16.309,50.082,60
72,Mrákov,12.951,49.403,50
72,Postupice,14.777,49.728,50
86,Postřekov,12.807,49.458,50
60,Tušimice,13.336,50.388,50
176,Staré Město,16.947,50.162,72
60,Pouzdřany,16.625,48.934,50
60,Hrušovany,14.28,50.52,50
363,Kralovice,13.487,49.982,123
60,Benešov,16.348,50.614,50
103,Senožaty,15.198,49.569,50
60,Sezemice,15.853,50.067,50
103,Sobotka,15.176,50.467,86
72,Libčice,14.309,49.755,50
176,Švihov,13.284,49.481,72
72,Vlkonice,13.73,49.13,50
103,Vranov nad Dyjí,15.813,48.895,103
60,Vranovice,13.899,49.623,50
86,Svoboda nad Úpou,15.816,50.626,50
123,Dolní Malá Úpa,15.814,50.724,50
86,Purkarec,14.452,49.129,50
60,Ústí,15.415,49.474,50
72,Bystřec,16.619,50.012,50
72,Žár,14.708,48.807,50
60,Študlov,18.083,49.162,50
72,Chabičov,18.095,49.899,50
72,Šumice,16.437,48.992,50
103,Žďárec,16.266,49.38,50
72,Hradčany,14.706,50.618,50
72,Český Dub IV,14.993,50.659,72
60,Jablonná,14.451,49.78,50
147,Sedlec,14.533,49.572,60
60,Loukov,15.407,50.614,50
60,Rácov,15.39,49.285,50
123,Suchdol nad Lužnicí,14.877,48.893,86
147,Malé Předměstí,12.933,49.529,72
103,Perštejn,13.11,50.382,50
86,Třemešná,17.575,50.205,50
123,Pernarec,13.103,49.84,72
60,Makov,16.191,49.855,50
60,Dobrá Voda,12.963,49.988,50
60,Žižkovo Pole,15.735,49.611,50
123,Štoky,15.589,49.502,72
72,Srní,13.48,49.087,50
176,Horní Rokytnice,15.464,50.727,86
147,Stráž pod Ralskem,14.801,50.703,50
60,Brenná,14.639,50.657,50
72,Třemešné,12.696,49.625,50
123,Třemošnice,15.58,49.869,103
147,Žlutice,13.163,50.092,86
86,Malšice,14.579,49.364,50
123,Zbraslavice,15.183,49.812,60
72,Velhartice,13.39,49.265,50
60,Příšov,13.304,49.812,50
60,Petrohrad,13.446,50.128,50
72,Javorná,13.305,49.219,50
103,Štěpánov,17.22,49.684,50
72,Prakšice,17.633,49.069,50
72,Pec pod Sněžkou,15.733,50.693,50
60,Pecka,15.608,50.48,50
86,Cínovec,13.769,50.732,50
72,Žíteč,14.916,49.001,50
123,Verneřice,14.301,50.661,60
211,Staré Hamry,18.446,49.473,50
72,Srnín,14.344,48.845,50
72,Verušičky,13.174,50.142,50
147,Votice,14.639,49.64,103
60,Žďárná,16.759,49.469,50
103,Lutín,17.136,49.559,50
72,Straškov,14.25,50.364,50
60,Čejč,16.965,48.946,50
123,Adamov,16.658,49.3,50
103,Zelená Lhota,13.173,49.242,50
72,Vracov,17.211,48.975,50
72,Poběžovice,12.803,49.51,60
72,Vlkýš,13.087,49.713,50
60,Zamachy,14.718,50.385,50
60,Kamenná,14.11,50.769,50
72,Čimelice,14.069,49.466,50
72,Žďár,14.228,49.233,50
60,Hraničná,15.155,50.756,50
72,Radošov,12.995,50.273,50
72,Bor,12.936,50.265,50
60,Vranovská Ves,15.918,48.951,50
86,Kloužovice,14.801,49.421,50
72,Krásné,12.615,49.957,50
60,Černochov,14.029,50.353,50
86,Štítary,15.844,48.935,50
72,Pihel,14.566,50.725,50
176,Štíty,16.766,49.961,60
72,Štědrá,13.114,50.058,50
60,Štěkeň,14.006,49.267,50
103,Pačejov-nádraží,13.625,49.388,50
60,Vražné,17.867,49.629,50
60,Arnoltice,17.355,49.845,50
60,Vodná,15.069,49.276,50
60,Studánka,12.186,50.276,50
86,Velký Dřevíč,16.184,50.498,50
303,Vratěnín,15.595,48.904,72
72,Údraž,14.309,49.282,50
60,Oldřišov,17.961,49.991,50
60,Čestice,13.804,49.168,50
60,Bludov,16.928,49.941,50
60,Hůrky,15.137,49.051,50
60,Útěchov,16.645,49.728,50
60,Vojkovice,13.016,50.303,50
303,České Velenice,14.964,48.769,176
103,Jaroměřice nad Rokytnou,15.893,49.094,50
72,Horní Moštěnice,17.459,49.412,50
60,Hovězí,18.061,49.304,50
147,Chlumec nad Cidlinou IV,15.459,50.162,60
72,Dlouhá Třebová,16.425,49.939,50
72,Velký Týnec,17.338,49.552,50
103,Velká Ledhuje,16.239,50.539,50
72,Desná II,15.32,50.755,72
103,Koryčany,17.164,49.106,72
147,Libina,17.083,49.876,72
123,Velké Opatovice,16.679,49.612,60
60,Pozlovice,17.769,49.129,50
72,Vacenovice,17.174,48.945,50
60,Velké Karlovice,18.284,49.36,50
60,Protivanov,16.836,49.484,60
211,Volary,13.887,48.909,86
72,Tovačov I-Město,17.288,49.431,60
72,Plumlov,17.015,49.466,50
147,Volyně,13.886,49.166,72
72,Smilov,15.623,49.535,50
86,Dlouhá Loučka,17.18,49.816,50
72,Bystřice,18.72,49.637,50
103,Milovice,14.889,50.226,86
211,Černošice,14.32,49.96,103
103,Hostivice,14.259,50.082,72
626,Znojmo,16.049,48.856,303
60,Červený Kostelec,16.093,50.476,50
86,Příbor,18.145,49.641,50
72,Štětí,14.374,50.453,60
123,Bystřice nad Pernštejnem,16.262,49.523,103
176,Přelouč,15.559,50.037,103
123,Vítkov,17.749,49.775,86
176,Rosice,16.388,49.182,72
86,Česká Lípa,14.538,50.686,86
751,Jihlava,15.591,49.396,522
103,Třinec,18.67,49.678,103
86,Veselí nad Lužnicí,14.697,49.185,60
253,Veselí nad Moravou,17.383,48.952,103
147,Sušice,13.52,49.232,123
123,Strážnice,17.317,48.901,50
522,Cheb,12.374,50.08,253
363,Český Krumlov,14.315,48.812,147
901,České Budějovice,14.474,48.975,626
2240,Brno,16.61,49.193,1297
123,Chodov,12.746,50.239,50
303,Broumov,16.332,50.586,123
103,Rokycany,13.594,49.744,103
147,Uničov,17.122,49.771,103
123,Zábřeh,16.872,49.883,72
60,Nové Město na Moravě,16.074,49.561,60
86,Nový Bor,14.556,50.758,60
363,Hranice,17.734,49.549,123
303,Dvůr Králové nad Labem,15.814,50.432,103
60,Bílovec,18.016,49.756,50
147,Semily,15.336,50.602,86
211,Kopřivnice,18.145,49.6,103
751,Olomouc,17.251,49.594,363
123,Brandýs nad Labem-Stará Boleslav,14.663,50.188,123
626,Vlašim,14.899,49.706,123
103,Slavkov u Brna,16.877,49.153,86
751,Karlovy Vary,12.886,50.221,253
363,Žatec,13.546,50.327,103
147,Napajedla,17.512,49.172,50
211,Louny,13.797,50.357,123
176,Dobříš,14.167,49.781,72
435,Hlinsko,15.908,49.762,147
72,Ústí nad Orlicí,16.394,49.974,60
103,Mohelnice,16.92,49.777,86
211,Jičín,15.351,50.438,211
86,Lanškroun,16.611,49.913,86
86,Letohrad,16.499,50.036,50
123,Chotěboř,15.67,49.721,103
303,Šternberk,17.299,49.73,123
147,Moravská Třebová,16.664,49.759,103
147,Česká Třebová,16.447,49.902,123
522,Svitavy,16.468,49.757,253
147,Polička,16.265,49.715,103
253,Vysoké Mýto,16.161,49.954,147
176,Chrudim,15.795,49.952,72
103,Choceň,16.223,50.002,50
176,Nový Bydžov,15.491,50.242,103
435,Písek,14.147,49.31,253
147,Hořice,15.632,50.366,86
363,Mariánské Lázně,12.701,49.965,176
147,Roudnice nad Labem,14.262,50.425,86
303,Stříbro,13.004,49.753,176
123,Nýřany,13.212,49.711,86
86,Krupka,13.858,50.684,50
86,Litomyšl,16.31,49.873,72
86,Duchcov,13.746,50.604,50
253,Boskovice,16.66,49.488,103
123,Třeboň,14.77,49.004,123
901,Plzeň,13.377,49.748,522
86,Otrokovice,17.531,49.21,72
211,Kroměříž,17.393,49.298,123
176,Vodňany,14.175,49.149,123
86,Vratimov,18.31,49.77,50
751,Zlín,17.666,49.227,253
103,Brumov-Bylnice,18.022,49.092,72
176,Studénka,18.079,49.723,86
147,Kraslice,12.518,50.324,103
211,Nejdek,12.729,50.322,72
103,Kojetín,17.301,49.353,50
211,Říčany,14.654,49.992,103
123,Šlapanice,16.727,49.169,60
123,Planá,12.744,49.868,60
147,Dubňany,17.09,48.917,50
72,Chomutov,13.418,50.46,72
303,Tachov,12.634,49.795,147
303,Sedlčany,14.427,49.661,123
147,Strakonice,13.902,49.262,123
303,Aš,12.195,50.224,123
147,Teplice,13.825,50.64,103
253,Prostějov,17.112,49.472,103
72,Rožnov pod Radhoštěm,18.143,49.459,72
176,Český Těšín,18.626,49.746,50
363,Turnov,15.157,50.587,103
86,Tišnov,16.424,49.349,60
363,Frýdlant,15.08,50.921,123
123,Rychnov nad Kněžnou,16.275,50.163,123
901,Tábor,14.658,49.414,363
103,Frenštát pod Radhoštěm,18.211,49.548,50
253,Děčín,14.214,50.783,103
86,Nymburk,15.042,50.186,86
363,Most,13.636,50.503,211
253,Kadaň,13.271,50.376,72
253,Domažlice,12.929,49.441,211
72,Bílina,13.775,50.549,72
103,Poděbrady,15.118,50.143,50
147,Krnov,17.704,50.089,123
176,Třešť,15.482,49.291,86
176,Dačice,15.437,49.082,176
253,Pelhřimov,15.223,49.431,176
211,Kralupy nad Vltavou,14.312,50.241,86
147,Hrádek nad Nisou,14.845,50.853,123
176,Ivančice,16.378,49.101,123
147,Valašské Meziříčí,17.971,49.472,103
176,Telč,15.452,49.185,86
176,Havlíčkův Brod,15.581,49.608,176
176,Benešov,14.687,49.782,176
72,Neratovice,14.518,50.259,72
1556,Ostrava,18.281,49.835,901
147,Nové Město nad Metují,16.151,50.345,60
123,Frýdlant nad Ostravicí,18.359,49.594,72
303,Moravské Budějovice,15.809,49.052,147
72,Bohumín,18.357,49.905,50
147,Humpolec,15.359,49.542,103
211,Vrchlabí,15.609,50.627,147
147,Kutná Hora,15.268,49.949,60
123,Holešov,17.578,49.333,86
363,Žďár nad Sázavou,15.939,49.563,176
253,Litoměřice,14.131,50.534,103
86,Litvínov,13.61,50.601,86
522,Šumperk,16.971,49.965,303
103,Náchod,16.163,50.417,103
303,Prachatice,13.997,49.014,176
522,Příbram,14.01,49.691,363
86,Orlová,18.429,49.846,50
123,Sokolov,12.64,50.181,123
1081,Ústí nad Labem,14.04,50.661,435
123,Hlučín,18.192,49.898,50
72,Čáslav,15.389,49.912,72
86,Rumburk,14.556,50.952,50
176,Třebíč,15.881,49.216,176
86,Jablonec nad Nisou,15.171,50.724,60
176,Ostrov,12.939,50.306,72
253,Kyjov,17.123,49.01,123
363,Vyškov,16.998,49.278,176
253,Týn nad Vltavou,14.421,49.223,147
147,Rakovník,13.733,50.105,147
123,Soběslav,14.718,49.261,123
303,Vsetín,17.996,49.339,176
363,Klatovy,13.294,49.396,303
626,Hodonín,17.132,48.849,303
211,Blatná,13.882,49.425,123
253,Beroun,14.071,49.965,147
176,Slaný,14.087,50.23,72
211,Milevsko,14.36,49.451,123
72,Bechyně,14.468,49.295,60
60,Lipník nad Bečvou,17.586,49.528,60
253,Kladno,14.103,50.147,176
522,Kolín,15.2,50.029,303
100000,Praha,14.417,50.085,100000
72,Dubí,13.789,50.681,50
303,Varnsdorf,14.618,50.912,176
901,Hradec Králové,15.833,50.209,435
176,Karviná,18.542,49.855,72
751,Trutnov,15.912,50.562,303
363,Pardubice,15.78,50.039,147
626,Jeseník,17.205,50.229,176
303,Velké Meziříčí,16.012,49.355,123
211,Jablunkov,18.765,49.577,72
303,Bruntál,17.465,49.988,123
303,Frýdek-Místek,18.348,49.686,86
123,Havířov,18.436,49.781,86
253,Odry,17.831,49.663,86
103,Stochov,13.964,50.146,72
72,Železný Brod,15.254,50.643,50
60,Šenov,18.376,49.793,50
147,Mnichovo Hradiště,14.971,50.527,86
86,Uherský Brod,17.647,49.025,86
103,Dobruška,16.16,50.292,50
147,Nová Paka,15.515,50.495,86
86,Roztoky,14.398,50.158,60
253,Blansko,16.643,49.363,147
211,Břeclav,16.882,48.759,123
363,Mělník,14.474,50.351,176
435,Mladá Boleslav,14.903,50.412,253
123,Kuřim,16.531,49.299,60
60,Mimoň,14.724,50.66,60
435,Jindřichův Hradec,15.002,49.145,211
176,Mikulov,16.638,48.806,123
147,Kaplice,14.496,48.739,103
211,Přerov,17.45,49.454,123
147,Jaroměř,15.921,50.356,60
363,Opava,17.902,49.939,211
