rs,name,lon,lat,r1
86,Boží Dar,12.924,50.41,50
72,Mnichov,12.787,50.037,50
60,Staré Sedliště,12.694,49.744,50
147,Planá,12.744,49.868,60
86,Přimda,12.674,49.675,50
103,Jáchymov,12.935,50.358,50
751,Karlovy Vary,12.886,50.221,253
60,Bečov nad Teplou,12.838,50.083,50
176,Ostrov,12.939,50.306,72
72,Třemešné,12.696,49.625,50
522,Vejprty,13.032,50.492,123
72,Rybník,12.677,49.513,50
72,Teplá,12.863,49.982,72
176,Bor,12.775,49.712,72
86,Kovářská,13.054,50.438,50
72,Radošov,12.995,50.273,50
60,Vojkovice,13.016,50.303,50
86,Stráž,12.775,49.669,50
72,Lestkov,12.871,49.883,50
72,Mutěnín,12.745,49.545,50
86,Stráž nad Ohří,13.051,50.337,50
123,Černošín,12.884,49.816,60
211,Toužim,12.985,50.06,103
72,Holostřevy,12.859,49.721,50
60,Dobrá Voda,12.963,49.988,50
86,Kozlov,13.027,50.108,50
123,Bochov,13.045,50.151,60
72,Poběžovice,12.803,49.51,60
60,Staré Sedlo,12.864,49.666,50
72,Svojšín,12.911,49.766,50
123,Bezdružice,12.971,49.907,60
60,Domašín,13.172,50.421,50
60,Záchlumí,12.965,49.8,50
60,Srby,12.868,49.537,50
123,Bezvěrov,13.059,49.995,50
86,Kladruby,12.98,49.715,50
72,Štědrá,13.114,50.058,50
103,Prunéřov,13.259,50.43,50
303,Stříbro,13.004,49.753,176
60,Zhoř,12.97,49.66,50
72,Česká Kubice,12.859,49.369,60
211,Kalek,13.322,50.578,72
147,Malé Předměstí,12.933,49.529,72
72,Verušičky,13.174,50.142,50
123,Žlutice,13.163,50.092,86
103,Kadaň,13.271,50.376,72
253,Domažlice,12.929,49.441,211
86,Kostelec,13.026,49.674,50
86,Bukovec,12.995,49.586,50
86,Pernarec,13.103,49.84,72
123,Radonice,13.285,50.298,60
60,Blížejov,12.989,49.5,50
72,Mašťov,13.28,50.262,50
86,Valeč,13.255,50.174,50
72,Novosedly,13.204,50.039,50
60,Tušimice,13.336,50.388,50
86,Úněšov,13.149,49.883,50
72,Vlkýš,13.087,49.713,50
86,Pňovany,13.122,49.779,50
60,Chyše,13.249,50.105,50
123,Všeruby,12.983,49.341,50
60,Staňkov I,13.07,49.553,50
147,Chomutov,13.418,50.46,103
176,Holýšov,13.101,49.594,103
103,Lubenec,13.315,50.132,60
103,Kdyně,13.04,49.391,60
103,Vysoká Pec,13.47,50.52,50
103,Hvozd,13.263,49.94,50
103,Všeruby,13.229,49.842,50
86,Koloveč,13.109,49.487,50
86,Chbany,13.43,50.333,60
72,Černice,13.524,50.567,50
60,Dolní Bělá,13.273,49.896,50
211,Podbořany,13.412,50.229,86
60,Město Touškov,13.251,49.776,50
86,Černíkov,13.13,49.423,50
60,Blatno,13.39,50.097,50
72,Strupčice,13.531,50.471,50
123,Žihle,13.375,50.045,50
123,Kryry,13.427,50.174,50
147,Litvínov,13.61,50.601,86
147,Moldava,13.657,50.721,72
60,Petrohrad,13.446,50.128,50
86,Žiželice,13.54,50.367,50
211,Nýrsko,13.144,49.294,86
86,Plasy,13.39,49.934,50
176,Horní Bříza,13.356,49.84,72
363,Žatec,13.546,50.327,103
103,Kaznějov,13.383,49.893,50
72,Podbořánky,13.45,50.052,50
123,Jesenice,13.469,50.097,60
86,Měcholupy,13.537,50.267,50
363,Most,13.636,50.503,211
86,Dolany,13.248,49.443,50
72,Zelená Lhota,13.173,49.242,50
86,Litice,13.353,49.697,50
103,Janovice nad Úhlavou,13.218,49.345,50
901,Plzeň,13.377,49.748,522
176,Švihov,13.284,49.481,72
253,Kralovice,13.487,49.982,123
60,Dolní Lukavice,13.344,49.602,50
363,Přeštice,13.334,49.573,147
86,Cínovec,13.769,50.732,50
60,Braňany,13.7,50.542,50
60,Zruč,13.426,49.808,50
60,Dobříč,13.468,49.885,50
86,Strážov,13.246,49.303,50
72,Patokryje,13.705,50.5,50
60,Žichlice,13.458,49.84,50
86,Duchcov,13.746,50.604,50
751,Klatovy,13.294,49.396,303
72,Dubí,13.789,50.681,50
103,Bečov,13.718,50.449,50
72,Tuchořice,13.663,50.285,60
103,Čistá,13.57,50.028,50
123,Bílina,13.775,50.549,72
86,Břvany,13.722,50.401,50
86,Chrást,13.494,49.793,50
86,Kněževes,13.637,50.147,50
72,Čachrov,13.303,49.265,50
147,Teplice,13.825,50.64,103
103,Měčín,13.403,49.48,60
86,Krupka,13.858,50.684,50
72,Javorná,13.305,49.219,50
60,Ejpovice,13.514,49.746,50
60,Obytce,13.379,49.391,50
60,Mutějovice,13.71,50.194,50
60,Velhartice,13.39,49.265,50
72,Kostomlaty pod Milešovkou,13.873,50.56,50
60,Číhaň,13.426,49.342,50
211,Ročov,13.774,50.253,50
103,Višňová,14.145,49.706,50
60,Staré Sedlo,14.167,49.505,50
60,Březí,13.465,49.502,50
60,Chříč,13.646,49.972,50
60,Hartmanice,13.455,49.169,50
147,Radnice,13.606,49.857,60
211,Louny,13.797,50.357,123
60,Kladruby,13.632,49.913,50
147,Broumy,13.852,49.955,60
60,Malečov,14.119,50.632,50
103,Libčeves,13.838,50.452,60
86,Žichovice,13.628,49.267,50
60,Nezdice na Šumavě,13.612,49.173,50
72,Osek,13.591,49.778,50
86,Bohušovice nad Ohří,14.15,50.493,50
123,Zlonice,14.092,50.288,50
60,Chlumec,13.939,50.699,50
86,Rožmitál pod Třemšínem,13.864,49.602,50
60,Vinařice,14.091,50.176,50
147,Petrovice,13.976,50.789,72
60,Telnice,13.958,50.733,50
103,Unhošť,14.13,50.085,50
72,Straškov,14.25,50.364,50
176,Rokycany,13.594,49.744,123
303,Březnice,13.951,49.558,103
72,Chocenice,13.52,49.548,50
522,Příbram,14.01,49.691,363
72,Stehelčeves,14.191,50.172,50
253,Rakovník,13.733,50.105,176
60,Uzenice,13.96,49.473,50
147,Blovice,13.54,49.582,86
60,Rosovice,14.109,49.757,50
86,Rumburk,14.556,50.952,50
123,Plánice,13.471,49.39,86
86,Vraňany,14.362,50.317,50
123,Mirotice,14.037,49.429,72
60,Dolní Podluží,14.595,50.88,50
86,Kolinec,13.439,49.299,50
147,Nový Bor,14.556,50.758,60
72,Dobřichovice,14.275,49.927,50
72,Chožov,13.859,50.399,50
72,Svor,14.597,50.792,50
176,Mníšek pod Brdy,14.262,49.866,72
123,Slabce,13.715,50,50
86,Pavlíkov,13.736,50.056,50
103,Nový Knín,14.294,49.788,60
72,Libčice,14.309,49.755,50
72,Prášily,13.378,49.105,50
72,Brniště,14.703,50.729,50
60,Hovorčovice,14.518,50.179,50
60,Podmokly,13.704,49.943,50
103,Neurazy,13.516,49.441,50
60,Černá v Pošumaví,14.111,48.738,50
103,Řevničov,13.808,50.185,72
86,Katusice,14.777,50.445,50
72,Bělá pod Bezdězem,14.804,50.501,72
103,Zavlekov,13.49,49.337,50
72,Temelín,14.349,49.193,50
72,Velké Chvojno,14.037,50.732,50
86,Mirošov,13.658,49.688,50
176,Nepomuk,13.582,49.486,72
60,Hůrky,13.683,49.745,50
60,Hrádek,13.499,49.261,50
72,Koštice,13.942,50.403,50
435,Ústí nad Labem,14.04,50.661,435
72,Nový Dům,13.831,50.088,50
86,Panenský Týnec,13.917,50.295,50
123,Třebenice,13.99,50.476,60
303,Sušice,13.52,49.232,123
103,Mýto,13.735,49.789,50
60,Vísky,13.683,49.651,50
123,Dolní Zálezly,14.043,50.597,50
86,Ruda,13.876,50.141,50
103,Zbiroh,13.773,49.86,72
72,Srní,13.48,49.087,50
86,Nové Mitrovice,13.684,49.58,72
86,Chlumy,13.639,49.438,50
123,Pozdeň,13.944,50.242,50
123,Strašice,13.758,49.736,86
147,Roztoky,13.868,50.027,72
103,Pačejov-nádraží,13.625,49.388,50
211,Míšov,13.727,49.621,50
60,Modrava,13.499,49.024,50
147,Kašperské Hory,13.556,49.143,72
123,Libochovice,14.044,50.406,103
72,Vraný,14.017,50.327,50
86,Bzová,13.862,49.898,50
103,Stochov,13.964,50.146,72
86,Děčín XXXII-Boletice nad Labem,14.191,50.74,50
176,Hřensko,14.243,50.874,72
253,Děčín,14.214,50.783,103
60,Komárov,13.856,49.806,50
253,Litoměřice,14.131,50.534,103
86,Lobendava,14.314,51.019,72
86,Kasejovice,13.741,49.463,72
72,Rochov,14.117,50.459,50
147,Kvilda,13.58,49.019,50
123,Horažďovice,13.701,49.321,86
60,Pohořany,14.17,50.561,50
253,Hořovice,13.903,49.836,103
60,Třebušín,14.205,50.6,50
86,Svatá,13.962,49.939,50
147,Soběšice,13.684,49.208,50
72,Bratronice,14.014,50.068,50
86,Mšené-lázně,14.127,50.362,50
176,Slaný,14.087,50.23,72
72,Volenice,13.748,49.252,50
60,Borová Lada,13.66,48.99,50
72,Zdíkov,13.697,49.085,50
253,Kladno,14.103,50.147,176
103,Láz,13.917,49.652,50
123,Verneřice,14.301,50.661,60
103,Jince,13.979,49.786,50
60,Mečichov,13.812,49.348,50
72,Vlkonice,13.73,49.13,50
86,Záboří,13.827,49.379,50
123,Chyňava,14.074,50.027,50
86,Bělčice,13.876,49.502,50
86,Drahlín,13.969,49.732,50
86,Liběšice,14.289,50.569,72
176,Šluknov,14.453,51.004,60
253,Beroun,14.071,49.965,147
60,Hrušovany,14.28,50.52,50
60,Vysoká Pec,13.965,49.665,50
60,Hudčice,13.923,49.532,50
211,Blatná,13.882,49.425,123
147,Roudnice nad Labem,14.262,50.425,86
60,Čestice,13.804,49.168,50
72,Česká Kamenice,14.418,50.798,72
72,Velvary,14.236,50.282,50
176,Vimperk,13.775,49.052,123
60,Strážný,13.72,48.909,50
123,Osov,14.084,49.844,50
60,Heřmanice,14.391,50.666,50
72,Hoštka,14.335,50.489,50
72,Horní Vltavice,13.759,48.957,50
60,Kravaře,14.392,50.632,50
60,Kubova Huť,13.772,48.983,50
103,Čkyně,13.829,49.115,50
60,Krásná Lípa,14.51,50.913,50
147,Strakonice,13.902,49.262,123
72,Milín,14.046,49.632,50
103,Liteň,14.149,49.904,50
60,Němětice,13.879,49.195,50
123,Radomyšl,13.93,49.316,50
60,Radošovice,13.899,49.234,50
60,Stružnice,14.45,50.697,50
303,Volyně,13.886,49.166,72
86,Starý Jiříkov,14.569,50.995,50
72,Lenora,13.793,48.922,50
72,Štětí,14.374,50.453,60
86,Mirovice,14.036,49.516,50
103,Rudná,14.234,50.035,50
211,Kralupy nad Vltavou,14.312,50.241,86
60,Mořina,14.209,49.953,50
103,Hostivice,14.259,50.082,72
176,Dobříš,14.167,49.781,72
103,Stožec,13.821,48.859,50
72,Cítov,14.398,50.372,50
72,Holany,14.493,50.618,50
86,Zlosyň,14.369,50.278,50
60,Tuhaň,14.467,50.536,50
86,Kozárovice,14.106,49.556,50
303,Varnsdorf,14.618,50.912,176
60,Štěkeň,14.006,49.267,50
211,Česká Lípa,14.538,50.686,176
86,Libčice nad Vltavou,14.363,50.199,50
60,Horoměřice,14.339,50.132,50
60,Sosnová,14.532,50.655,50
72,Liběchov,14.447,50.408,50
60,Rybníky,14.206,49.753,50
86,Tvrzice,13.967,49.122,50
211,Volary,13.887,48.909,86
123,Vlachovo Březí,13.958,49.081,50
86,Cehnice,14.029,49.215,50
211,Černošice,14.32,49.96,103
86,Čížová,14.093,49.357,50
147,Roztoky,14.398,50.158,60
60,Řitka,14.299,49.895,50
123,Dubá,14.54,50.54,60
363,Mělník,14.474,50.351,176
72,Nečín,14.234,49.698,50
60,Nevězice,14.153,49.478,50
103,Slivenec,14.358,50.02,50
103,Vidim,14.526,50.468,50
86,Jestřebí,14.585,50.609,50
60,Drnovec,14.657,50.777,50
303,Prachatice,13.997,49.014,176
72,Bílsko,14.059,49.159,50
60,Klučenice,14.212,49.553,50
72,Zbytiny,13.978,48.943,50
86,Mařenice,14.679,50.807,50
60,Vysoká,14.538,50.413,50
100000,Praha,14.417,50.085,100000
72,Kamýk nad Vltavou,14.253,49.639,50
60,Zákupy,14.645,50.685,50
103,Putim,14.119,49.265,50
435,Písek,14.147,49.31,253
72,Bavorov,14.079,49.122,50
60,Skočice,14.104,49.186,50
72,Neratovice,14.518,50.259,72
72,Krásná Hora nad Vltavou,14.277,49.605,72
72,Křišťanov,14.02,48.909,50
60,Vitějovice,14.073,49.046,50
123,Oslov,14.212,49.399,60
60,Sázava,14.397,49.886,50
303,Doksy,14.656,50.565,86
72,Kučeř,14.246,49.434,50
123,Kovářov,14.278,49.518,50
60,Štěchovice,14.405,49.851,50
72,Chroboly,14.067,48.957,50
60,Slapy,14.396,49.815,50
147,Mšeno,14.633,50.438,72
60,Přívory,14.581,50.288,50
72,Okna,14.671,50.527,50
60,Velký Újezd,14.631,50.41,50
103,Jablonné v Podještědí,14.761,50.765,50
103,Mimoň,14.724,50.66,86
72,Chlum,14.38,49.699,50
72,Nosálov,14.671,50.473,50
176,Vodňany,14.175,49.149,123
60,Kostelec nad Labem,14.586,50.227,50
147,Horní Planá,14.033,48.767,103
86,Petrovice,14.337,49.554,50
86,Temešvár,14.264,49.356,50
86,Šeberov,14.514,50.013,50
103,Protivín,14.217,49.199,50
103,Satalice,14.571,50.125,50
103,Jesenice,14.513,49.968,72
86,Lhenice,14.15,48.995,50
147,Hrádek nad Nisou,14.845,50.853,123
103,Jílové u Prahy,14.493,49.895,50
147,Stráž pod Ralskem,14.801,50.703,50
86,Ktiš,14.133,48.917,50
303,Sedlčany,14.427,49.661,123
123,Netolice,14.197,49.049,86
123,Dubeč,14.586,50.06,50
72,Branice,14.34,49.402,50
211,Milevsko,14.36,49.451,123
147,Krpy,14.689,50.329,50
72,Křečovice,14.476,49.721,50
103,Údraž,14.309,49.282,60
123,Kuřívody,14.804,50.586,60
123,Brandýs nad Labem-Stará Boleslav,14.663,50.188,123
60,Chyšky,14.428,49.523,50
72,Bernartice,14.381,49.369,50
86,Neveklov,14.533,49.754,72
60,Jesenice,14.478,49.608,50
86,Brloh,14.219,48.93,50
86,Chvalšiny,14.211,48.854,50
60,Božetice,14.444,49.451,50
103,Týnec nad Sázavou,14.59,49.834,50
211,Říčany,14.654,49.992,123
72,Bezno,14.796,50.367,50
123,Dříteň,14.346,49.143,60
86,Višňová,15.025,50.967,50
103,Frymburk,14.166,48.661,86
176,Sedlec,14.533,49.572,60
211,Habartice,15.065,51.019,50
176,Úvaly,14.731,50.074,72
72,Opařany,14.481,49.397,50
253,Týn nad Vltavou,14.421,49.223,147
86,Nymburk,15.042,50.186,86
176,Benátky nad Jizerou,14.824,50.29,50
363,Český Krumlov,14.315,48.812,147
147,Hořice,15.632,50.366,86
72,Zliv,14.366,49.066,50
123,Jistebnice,14.528,49.486,72
147,Křemže,14.306,48.905,72
103,Miličín,14.661,49.571,60
60,Petroupim,14.753,49.808,50
60,Sudoměřice u Tábora,14.658,49.51,50
901,České Budějovice,14.474,48.975,626
60,Heřmaničky,14.582,49.605,50
103,Ševětín,14.572,49.1,72
103,Mnichovice,14.709,49.936,50
147,Bechyně,14.468,49.295,60
60,Horní Dvořiště,14.406,48.604,50
60,Veliš,14.823,49.669,50
176,Košice,14.751,49.325,50
72,Starý Dub,14.989,50.674,72
86,Mochov,14.795,50.142,50
303,Frýdlant,15.08,50.921,123
123,Křinec,15.138,50.264,50
60,Chlumec,14.411,49.117,50
72,Mukařov,14.742,49.991,50
86,Brodce,14.869,50.331,50
435,Mladá Boleslav,14.903,50.412,253
86,Mníšek,15.056,50.832,50
86,Větřní,14.286,48.774,50
60,Pohorská Ves,14.648,48.67,50
60,Čejkovice,14.383,49.014,50
86,Senohraby,14.718,49.895,50
72,Opočnice,15.258,50.172,50
60,Košťálov,15.404,50.572,50
103,Bystřice,14.667,49.732,50
176,Benešov,14.687,49.782,176
60,Těmice,15.06,49.352,50
72,Hlušice,15.403,50.265,50
363,Jindřichův Hradec,15.002,49.145,211
147,Votice,14.639,49.64,103
86,Dvory nad Lužnicí,14.901,48.853,50
147,Nová Paka,15.515,50.495,86
1556,Liberec,15.058,50.771,626
147,Mnichovo Hradiště,14.971,50.527,86
86,Nová Ves nad Lužnicí,14.926,48.811,50
86,Chvaletice,15.418,50.034,72
86,Tomice II,14.668,49.688,50
103,Tupadly,15.403,49.869,50
60,Liberec XVII-Kateřinky,15.078,50.799,50
86,Žirovnice,15.188,49.253,60
72,Strašov,15.523,50.087,50
103,Mostek,15.696,50.486,50
86,Dolní Město,15.382,49.628,50
147,Hluboká nad Vltavou,14.434,49.052,60
72,Mrzky,14.81,50.045,50
86,Horní Stakory,14.965,50.449,50
103,Studená,15.287,49.185,60
103,Milovice,14.889,50.226,86
60,Lázně Bohdaneč,15.68,50.076,50
103,Pořežany,14.494,49.172,50
103,Dubenec,15.795,50.378,50
86,Řečice,15.368,49.138,50
60,Luštěnice,14.937,50.323,50
103,Malšice,14.579,49.364,50
86,Dobrovice,14.962,50.369,50
123,Český Brod,14.861,50.074,72
751,Vyšší Brod,14.312,48.616,103
60,Hrdějovice,14.479,49.019,50
72,Kněžmost,15.038,50.489,50
103,Kostelec nad Černými lesy,14.859,49.994,60
86,Hejnice,15.182,50.877,50
103,Kamenný Újezd,14.446,48.898,50
60,Chotoviny,14.677,49.478,50
901,Tábor,14.658,49.414,363
60,Poříčany,14.918,50.108,50
72,Postupice,14.777,49.728,50
60,Ratměřice,14.756,49.643,50
103,Nové Město pod Smrkem,15.229,50.925,72
86,Želeč,14.647,49.318,50
86,Jablonec nad Nisou,15.171,50.724,60
72,Velešín,14.463,48.829,72
72,Loučeň,15.02,50.285,50
86,Bujanov,14.43,48.702,50
60,Neplachov,14.601,49.13,50
72,Krchleby,15.023,50.239,50
86,Sadská,14.986,50.136,50
147,Turnov,15.157,50.587,103
363,Sázava,14.897,49.872,103
72,Ledce,15.082,50.355,50
147,Divišov,14.877,49.788,60
72,Dolní Dvořiště,14.452,48.656,60
147,Kaplice,14.496,48.739,103
60,Lišov,14.608,49.016,60
60,Louňovice pod Blaníkem,14.847,49.637,60
103,Mladá Vožice,14.809,49.533,103
72,Šebířov,14.826,49.566,50
72,Horní Kruty,14.96,49.919,50
123,Soběslav,14.718,49.261,123
103,Pečky,15.03,50.09,50
72,Dráchov,14.707,49.226,50
60,Zvíkov,14.617,48.981,50
123,Veselí nad Lužnicí,14.697,49.185,60
103,Sobotka,15.176,50.467,86
363,Vlašim,14.899,49.706,123
60,Kondrac,14.885,49.667,50
86,Plaňany,15.029,50.05,50
60,Rataje nad Sázavou,14.957,49.842,50
103,Besednice,14.557,48.79,50
72,Železný Brod,15.254,50.643,50
72,Ledenice,14.619,48.933,50
72,Markvartice,15.196,50.431,50
60,Rožďalovice,15.17,50.305,50
103,Borovany,14.642,48.899,50
60,Dunajovice,14.695,49.035,50
103,Lomnice nad Lužnicí,14.717,49.085,60
72,Tatobity,15.273,50.571,50
103,Poděbrady,15.118,50.143,50
72,Tučapy,14.803,49.291,50
86,Malonty,14.577,48.686,50
72,Val,14.756,49.146,50
147,Trhové Sviny,14.639,48.842,86
72,Kouty,15.149,50.193,50
86,Libáň,15.217,50.375,50
72,Choustník,14.838,49.333,50
60,Mladošovice,14.699,48.94,50
60,Miřetice,14.977,49.659,50
103,Benešov nad Černou,14.627,48.729,72
72,Vodice,14.909,49.464,50
147,Uhlířské Janovice,15.065,49.88,86
72,Kácov,15.028,49.778,50
211,Semily,15.336,50.602,86
72,Trhový Štěpánov,15.014,49.711,50
72,Domanín,14.74,48.972,50
60,Činěves,15.214,50.23,50
103,Nový Svět,15.421,50.781,50
123,Třeboň,14.77,49.004,123
60,Jílovice,14.727,48.889,50
147,Kopidlno,15.27,50.331,86
86,Velký Osek,15.186,50.099,50
86,Lukavec,14.99,49.565,50
60,Čáslavsko,15.003,49.592,50
72,Obrataň,14.943,49.425,50
60,Kardašova Řečice,14.853,49.185,60
60,Čestín,15.104,49.808,50
60,Lomnice nad Popelkou,15.373,50.531,60
72,Suchdol,15.167,49.952,50
60,Jiřice,15.102,49.771,50
147,Čechtice,15.048,49.624,86
522,Kolín,15.2,50.028,303
60,Petříkov,14.755,48.847,50
211,Jičín,15.351,50.438,211
123,Černovice,14.961,49.373,60
211,Pacov,15.002,49.471,123
123,Deštná,14.924,49.265,72
176,Horní Rokytnice,15.464,50.727,86
72,Záhornice,15.291,50.248,50
60,Sány,15.248,50.125,50
176,Zruč nad Sázavou,15.106,49.74,103
60,Horní Stropnice,14.735,48.761,50
86,Cep,14.807,48.92,50
72,Ovčáry,15.24,50.063,50
72,Městec Králové,15.298,50.207,72
103,Poniklá,15.463,50.662,50
103,Nové Hrady,14.778,48.79,72
72,Ratiboř,14.915,49.144,50
86,Stříbřec,14.878,49.03,50
60,Syřenov,15.428,50.499,50
60,Byňov,14.799,48.816,50
123,Zbraslavice,15.183,49.812,60
103,Lodhéřov,14.96,49.215,50
72,Stráž nad Nežárkou,14.906,49.07,60
86,Košetice,15.116,49.558,50
60,Jilemnice,15.507,50.609,50
147,Kutná Hora,15.268,49.949,60
72,Tomice,15.157,49.645,60
72,Starý Kolín,15.294,50.01,50
123,Suchdol nad Lužnicí,14.877,48.893,86
72,Bohdaneč,15.223,49.778,50
60,Benecko,15.548,50.666,50
72,Útěchovice,15.116,49.478,50
86,Vysoké Veselí,15.436,50.331,50
123,Chlum u Třeboně,14.928,48.962,60
60,Lžovice,15.341,50.038,50
60,Bedřichov,15.598,50.729,60
60,Nová Cerekev,15.117,49.417,60
86,Hořice,15.185,49.599,50
147,Kamenice nad Lipou,15.075,49.303,103
60,Krakovany,15.369,50.066,50
123,Studenec,15.549,50.553,50
60,Nová Včelnice,15.073,49.239,50
60,Senožaty,15.198,49.569,50
86,Červená Řečice,15.178,49.511,60
72,Paběnice,15.302,49.842,50
60,Valdov,15.533,50.466,50
72,Jarošov nad Nežárkou,15.067,49.19,50
60,Dolní Branná,15.594,50.593,50
211,Vrchlabí,15.609,50.627,147
60,Nepolisy,15.463,50.192,50
123,Božejov,15.156,49.362,50
147,Chlumec nad Cidlinou IV,15.459,50.162,60
60,Skřivany,15.499,50.269,50
176,Nový Bydžov,15.491,50.242,103
60,Ostroměř,15.549,50.372,50
60,Dolní Dvůr,15.656,50.652,50
72,Čáslav,15.389,49.912,72
103,Lázně Bělohrad,15.583,50.429,50
60,Číměř,15.074,49.061,50
303,České Velenice,14.964,48.769,176
60,Pecka,15.608,50.48,50
253,Pelhřimov,15.223,49.431,176
86,Kaliště,15.304,49.593,50
253,Nová Bystřice,15.103,49.019,103
60,Veselá,15.227,49.319,50
72,Pec pod Sněžkou,15.733,50.693,50
72,Zajíčkov,15.258,49.378,50
72,Hůrky,15.137,49.051,50
123,Vrdy,15.472,49.922,50
72,Bílé Podolí,15.491,49.956,50
60,Milovice u Hořic,15.631,50.33,50
72,Kunžak,15.19,49.121,60
123,Hostinné,15.723,50.541,60
103,Světlá nad Sázavou,15.404,49.668,103
147,Humpolec,15.359,49.542,103
86,Voleč,15.573,50.117,60
60,Okřesaneč,15.476,49.852,50
123,Golčův Jeníkov,15.477,49.816,50
176,Přelouč,15.56,50.039,103
72,Nechanice,15.633,50.237,72
72,Dolní Malá Úpa,15.814,50.724,50
60,Zboží,15.456,49.719,50
60,Boháňka,15.708,50.366,50
123,Habry,15.485,49.756,50
86,Vyskytná,15.366,49.428,50
60,Zábřezí,15.736,50.411,50
86,Svoboda nad Úpou,15.816,50.626,50
86,Horní Dubenky,15.317,49.26,50
72,Nový Rychnov,15.366,49.384,50
60,Heřmaneč,15.285,49.13,50
72,Věž,15.459,49.564,50
72,Kocléřov,15.8,50.488,50
86,Kámen,15.52,49.713,50
211,Třemošnice,15.58,49.869,72
60,Herálec,15.457,49.531,50
60,Bezděkov,15.645,50.009,50
72,Batelov,15.395,49.314,50
60,Hořiněves,15.767,50.31,50
303,Dvůr Králové nad Labem,15.814,50.432,103
60,Lužany,15.789,50.338,50
211,Žacléř,15.911,50.663,86
60,Český Rudolec,15.324,49.068,60
72,Větrný Jeníkov,15.479,49.476,50
72,Řásná,15.391,49.221,50
60,Heřmanův Městec,15.665,49.947,60
72,Dolní Cerekev,15.457,49.344,50
626,Trutnov,15.912,50.562,303
103,Lípa,15.545,49.554,50
60,Dvorce,15.49,49.375,50
176,Havlíčkův Brod,15.581,49.608,176
123,Slavonice,15.352,48.998,72
103,Opatovice nad Labem,15.79,50.145,50
103,Hajnice,15.912,50.475,50
60,Janovice,15.712,49.916,50
211,Třešť,15.482,49.291,86
72,Cizkrajov,15.39,49.031,50
60,Rozsochatec,15.634,49.673,50
123,Smiřice,15.865,50.3,50
176,Telč,15.452,49.185,86
363,Hradec Králové,15.833,50.209,147
72,Bojanov,15.705,49.841,50
1297,Pardubice,15.78,50.039,522
123,Štoky,15.589,49.502,72
147,Chotěboř,15.67,49.721,103
176,Dačice,15.437,49.082,176
60,Vílanec,15.577,49.335,50
86,Šlapanov,15.658,49.542,50
123,Dolní Újezd,16.255,49.826,50
72,Písečné,15.462,48.965,50
103,Hodonice,16.163,48.837,60
72,Jasenná,15.991,50.318,50
86,Velká Morava,16.803,50.13,50
60,Bělečko,15.953,50.154,50
86,Dašice,15.912,50.028,50
147,Jaroměř,15.921,50.356,60
86,Radkov,15.475,49.145,50
72,Kněžice,15.672,49.271,50
86,Lány,15.713,49.759,50
103,Velká Ledhuje,16.239,50.539,50
86,Polnička,15.916,49.607,50
86,Horní Jelení,16.084,50.049,50
72,Ostřešany,15.805,49.993,50
72,Čáslavice,15.772,49.152,50
60,Pávov,15.604,49.443,50
176,Chrudim,15.795,49.952,72
751,Jihlava,15.591,49.396,522
86,Horní Bradlo,15.744,49.802,50
103,Choceň,16.223,50.002,50
86,Česká Bělá,15.691,49.643,50
60,Chvaleč,16.039,50.596,50
72,Deštné v Orlických horách,16.351,50.305,72
72,Černilov,15.923,50.263,50
60,Sezemice,15.853,50.067,50
72,Dalečín,16.24,49.591,50
60,Slatiňany,15.814,49.921,50
72,Rouchovany,16.108,49.07,50
253,Česká Třebová,16.447,49.902,123
86,Olší,16.29,49.421,50
60,Stonařov,15.586,49.282,50
123,Nedvědice,16.334,49.457,50
103,Radvanice,16.062,50.567,50
72,Malé Svatoňovice,16.05,50.534,50
86,Nasavrky,15.805,49.845,60
123,Moravský Krumlov,16.312,49.049,50
211,Ivančice,16.378,49.101,123
123,Třebařov,16.703,49.83,50
72,Říkov,16.017,50.384,50
60,Dolní Kounice,16.465,49.07,50
72,Kníničky,16.528,49.237,50
60,Jedlí,16.795,49.931,50
60,Šanov,16.379,48.801,50
72,Přibyslav,15.739,49.577,72
60,Chvojenec,15.937,50.11,50
176,Polná,15.719,49.487,72
72,Třebechovice pod Orebem,15.992,50.201,72
123,Červený Kostelec,16.093,50.476,50
86,Hrochův Týnec,15.911,49.959,50
103,Ždírec nad Doubravou,15.814,49.696,60
123,Budeč,15.59,49.087,50
176,Brtnice,15.676,49.307,60
86,Luka nad Jihlavou,15.702,49.374,60
103,Jamné,15.724,49.431,50
123,Jemnice,15.57,49.019,72
176,Opatov,15.662,49.224,50
86,Holice,15.986,50.066,86
72,Slepotice,15.961,49.992,50
103,Chrast,15.934,49.902,50
86,Nížkov,15.806,49.533,50
176,Želetava,15.673,49.142,72
435,Hlinsko,15.908,49.762,147
60,Velký Dřevíč,16.184,50.498,50
103,Náchod,16.163,50.417,103
103,Police,15.63,48.966,50
72,Meziměstí,16.242,50.625,50
60,Opočno,16.115,50.267,50
86,Přepychy,16.107,50.236,50
60,Pěkov,16.229,50.567,50
147,Nové Město nad Metují,16.151,50.345,60
72,Třebelovice,15.666,49.022,50
303,Uherčice,15.63,48.913,86
86,Domamil,15.696,49.083,50
72,Chlístov,15.744,49.202,50
72,Okříšky,15.77,49.245,50
103,Dobruška,16.16,50.292,50
176,Skuteč,15.997,49.844,72
72,Borohrádek,16.093,50.098,50
60,Škrdlovice,15.926,49.635,50
72,Luže,16.029,49.893,50
60,Vinary,16.06,49.959,50
147,Černá,15.864,49.426,50
60,Česká Čermná,16.229,50.401,50
86,Nové Veselí,15.909,49.52,50
363,Žďár nad Sázavou,15.939,49.563,176
60,Svatoslav,15.848,49.319,50
60,Lično,16.172,50.178,50
72,Měřín,15.884,49.393,72
86,Krouna,16.027,49.772,50
72,Pavlínov,15.878,49.348,50
303,Broumov,16.332,50.586,123
72,Svratka,16.032,49.711,72
72,Šafov,15.735,48.867,50
176,Moravské Budějovice,15.809,49.052,147
86,Solnice,16.238,50.204,50
72,Dobré,16.264,50.27,50
60,Netín,15.951,49.413,50
86,Kostelec nad Orlicí,16.213,50.123,50
363,Třebíč,15.881,49.216,176
60,Kochánov,15.947,49.386,50
60,Božanov,16.365,50.526,50
147,Vysoké Mýto,16.161,49.954,147
103,Proseč,16.116,49.806,60
72,Džbánov,16.16,49.916,50
60,Javorník,16.156,49.889,50
60,Trnava,15.924,49.255,50
103,Blížkovice,15.835,49,50
86,Chleny,16.244,50.078,50
211,Rychnov nad Kněžnou,16.275,50.163,176
103,Vranov nad Dyjí,15.813,48.895,86
103,Jaroměřice nad Rokytnou,15.893,49.094,50
86,Štítary,15.844,48.935,50
303,Velké Meziříčí,16.012,49.355,123
86,Sněžné,16.122,49.646,50
72,Pohledec,16.1,49.579,50
86,Borová,16.162,49.742,50
60,Horky,16.243,49.921,50
123,Budišov,16.004,49.271,60
103,Smrk,16.002,49.226,50
60,Olešná,16.126,49.547,50
72,Zárubice,15.981,49.124,50
123,Bobrová,16.119,49.475,72
176,Zdobnice,16.409,50.238,50
72,Sopotnice,16.345,50.059,60
60,Borovnice,16.203,49.667,50
123,Třebenice,16.016,49.164,50
86,Křižanov,16.11,49.389,50
72,Moravec,16.143,49.44,50
86,Litomyšl,16.31,49.873,72
86,Lezník,16.266,49.754,50
86,Jimramov,16.226,49.637,60
60,Studenec,16.065,49.2,50
86,Jevišovice,15.99,48.987,86
72,Podmolí,15.94,48.851,50
147,Polička,16.265,49.715,103
72,Slatina,16.018,49.02,50
60,Dolní Rožínka,16.21,49.477,50
123,Ústí nad Orlicí,16.394,49.974,60
72,Rokytnice v Orlických horách,16.466,50.165,60
72,Čikov,16.141,49.27,50
72,Osová Bítýška,16.168,49.325,50
86,Žamberk,16.467,50.086,50
123,Bystřice nad Pernštejnem,16.262,49.523,123
60,Janov,16.385,49.841,50
60,Přímětice,16.035,48.884,50
86,Náměšť nad Oslavou,16.159,49.207,86
72,Rudlice,16.066,48.948,50
123,Šatov,16.01,48.793,50
626,Znojmo,16.049,48.856,303
176,Bystré,16.347,49.628,50
303,Letohrad,16.499,50.036,60
72,Vír,16.324,49.557,50
123,Velká Bíteš,16.226,49.289,72
72,Březník,16.194,49.172,50
86,Mohelno,16.19,49.114,72
60,Ujčov,16.331,49.488,50
123,Višňové,16.15,48.982,86
60,Skryje,16.311,49.394,50
60,Rohozná,16.408,49.654,50
123,Radiměř,16.431,49.699,50
86,Vrbovec,16.101,48.8,50
60,Trpín,16.402,49.595,50
72,Třebovice,16.502,49.859,50
522,Svitavy,16.468,49.757,253
60,Ostrov,16.541,49.93,50
147,Opatov,16.505,49.825,60
72,Dolní Čermná,16.565,49.98,50
86,Olešnice,16.422,49.558,50
103,Prosiměřice,16.192,48.903,50
60,Černovice,16.423,49.484,50
60,Vémyslice,16.257,49.022,50
103,Lomnice,16.414,49.405,50
72,Sklené,16.53,49.707,50
86,Lanškroun,16.611,49.913,86
60,Březová nad Svitavou,16.518,49.644,60
60,Kozárov,16.459,49.444,50
86,Tišnov,16.424,49.349,60
72,Říčany,16.394,49.215,50
176,Rosice,16.388,49.182,72
86,Jaroslavice,16.234,48.757,60
72,Kunštát,16.517,49.506,50
211,Miroslav,16.313,48.948,86
60,Hvozdec,16.425,49.247,50
72,Kunčina,16.628,49.795,50
60,Veverská Bítýška,16.437,49.276,50
60,Deštná,16.564,49.613,50
86,Božice,16.289,48.837,60
86,Červená Voda,16.743,50.04,50
176,Králíky,16.761,50.084,123
86,Lysice,16.537,49.452,60
86,Letovice,16.574,49.547,50
60,Strážná,16.711,49.911,50
60,Útěchov,16.645,49.728,50
147,Moravská Třebová,16.664,49.759,103
72,Žebětín,16.487,49.207,50
147,Štíty,16.766,49.961,60
147,Kuřim,16.531,49.299,60
60,Lipůvka,16.553,49.34,50
60,Silůvky,16.468,49.106,50
86,Střelice,16.504,49.152,50
253,Velké Opatovice,16.679,49.612,60
60,Městečko Trnávka,16.727,49.709,50
72,Hrušovany nad Jevišovkou,16.403,48.83,72
72,Plumlov,17.015,49.466,50
253,Boskovice,16.66,49.488,103
86,Ostrov u Macochy,16.763,49.382,50
303,Hevlín,16.381,48.752,50
60,Popice,16.667,48.927,50
2240,Brno,16.61,49.193,1297
72,Velký Týnec,17.338,49.552,50
103,Rájec,16.639,49.411,50
303,Javorník,17.003,50.391,123
123,Chornice,16.743,49.667,50
253,Hustopeče,16.738,48.941,123
103,Domašov,17.199,50.18,50
60,Česká Ves,17.228,50.257,50
147,Litovel,17.076,49.701,60
123,Šebetov,16.712,49.549,50
253,Blansko,16.643,49.363,147
86,Medlov,16.522,49.035,50
60,Velké Pavlovice,16.816,48.905,50
72,Nížkovice,16.902,49.11,50
86,Kostelec na Hané,17.058,49.514,50
60,Určice,17.075,49.431,50
86,Staré Město,16.947,50.162,72
103,Heřmanovice,17.398,50.193,60
211,Břeclav,16.882,48.759,123
123,Pohořelice,16.524,48.981,86
103,Brankovice,17.135,49.156,50
123,Hanušovice,16.936,50.08,60
60,Jívová,17.395,49.709,50
123,Adamov,16.658,49.3,50
176,Zábřeh,16.872,49.883,72
72,Slezské Pavlovice,17.701,50.31,50
72,Slezské Rudoltice,17.681,50.207,50
103,Dvorce,17.548,49.833,50
86,Vlčice,17.046,50.345,50
72,Buchlovice,17.339,49.086,60
60,Kopřivná,16.948,50.047,50
72,Brumovice,17.75,50.015,50
103,Modřice,16.614,49.128,50
72,Vávrovice,17.861,49.977,50
60,Postřelmov,16.912,49.908,50
103,Bílovice nad Svitavou,16.672,49.247,50
123,Pasohlávky,16.544,48.903,50
60,Žďárná,16.759,49.469,50
60,Žabčice,16.603,49.012,50
72,Kladky,16.841,49.65,50
60,Ivaň,16.576,48.93,50
123,Židlochovice,16.619,49.04,50
72,Opatovice,16.641,49.075,50
751,Šumperk,16.971,49.965,303
60,Ostružná,17.052,50.185,50
60,Dolní Studénky,16.971,49.935,50
86,Jedovnice,16.756,49.345,50
103,Vápenná,17.098,50.283,60
60,Brodek u Konice,16.833,49.549,50
103,Bouzov,16.893,49.704,50
103,Mohelnice,16.92,49.777,86
72,Křtiny,16.744,49.297,50
72,Dolní Dunajovice,16.593,48.854,50
86,Rapotín,17.019,50.001,50
103,Molenburk,16.813,49.433,50
60,Loštice,16.929,49.745,50
103,Protivanov,16.836,49.484,86
103,Dubicko,16.963,49.828,50
72,Velké Losiny,17.041,50.032,50
123,Šlapanice,16.727,49.169,60
86,Konice,16.889,49.59,86
123,Vidnava,17.186,50.372,72
86,Loučná nad Desnou,17.091,50.072,50
123,Luká,16.947,49.649,50
176,Mikulov,16.638,48.806,123
60,Bílá Lhota,16.975,49.71,50
72,Kamenná,17.031,49.859,50
103,Újezd u Brna,16.757,49.104,50
60,Ruprechtov,16.851,49.329,50
60,Pískov,17.049,49.821,50
60,Šakvice,16.714,48.897,50
626,Jeseník,17.205,50.229,176
72,Ptení,16.961,49.512,50
103,Bělá,17.216,50.132,50
103,Oskava,17.132,49.895,60
103,Slavkov u Brna,16.877,49.153,86
147,Senička,17.056,49.632,50
72,Březina,16.961,49.368,50
147,Uničov,17.122,49.771,103
60,Hlohovec,16.762,48.774,50
60,Mikulovice,17.322,50.299,50
103,Valtice,16.755,48.741,72
72,Klobouky u Brna,16.86,48.995,60
60,Rakvice,16.813,48.858,50
60,Horní Město,17.211,49.908,50
72,Lednice,16.803,48.8,50
103,Dlouhá Loučka,17.18,49.816,50
363,Vyškov,16.998,49.278,176
60,Střeň,17.154,49.692,50
72,Dambořice,16.918,49.038,50
103,Lutín,17.136,49.559,50
147,Rýmařov,17.272,49.932,103
72,Drysice,17.058,49.335,50
147,Zlaté Hory,17.396,50.264,103
253,Prostějov,17.112,49.472,103
60,Malá Morávka,17.312,50.021,50
60,Bučovice,17.002,49.149,60
103,Velké Bílovice,16.892,48.849,72
72,Brodek u Prostějova,17.09,49.37,72
86,Jiříkov,17.278,49.854,50
103,Štěpánov,17.22,49.684,50
123,Vrbno pod Pradědem,17.383,50.121,103
72,Řídeč,17.259,49.766,50
86,Čejkovice,16.942,48.906,50
60,Huzová,17.298,49.82,60
103,Ždánice,17.028,49.067,60
72,Nové Hvězdlice,17.084,49.193,50
103,Světlá,17.401,50.045,50
123,Skalka,17.169,49.404,50
303,Šternberk,17.299,49.73,123
751,Olomouc,17.251,49.594,363
72,Břidličná,17.371,49.912,50
86,Šardice,17.028,48.964,50
72,Lanžhot,16.967,48.724,50
86,Tvrdonice,16.994,48.76,50
86,Moravská Nová Ves,17.014,48.803,60
60,Široká Niva,17.485,50.067,50
253,Bruntál,17.465,49.988,123
123,Morkovice,17.208,49.248,86
253,Kyjov,17.123,49.01,123
147,Dubňany,17.09,48.917,50
103,Koryčany,17.164,49.106,72
72,Tovačov I-Město,17.288,49.431,60
86,Třemešná,17.575,50.205,50
147,Moravský Beroun,17.442,49.794,72
103,Město Albrechtice,17.575,50.163,72
103,Kojetín,17.301,49.353,50
86,Hrubá Voda,17.417,49.668,50
103,Hlubočky,17.403,49.628,72
86,Domašov nad Bystřicí,17.445,49.742,50
72,Dívčí Hrad,17.634,50.244,50
626,Hodonín,17.132,48.849,303
86,Razová,17.532,49.931,50
60,Hošťálkovy,17.6,50.112,50
60,Ratíškovice,17.166,48.92,50
86,Vracov,17.211,48.975,50
72,Rohatec,17.183,48.88,50
103,Žeravice,17.237,49.023,50
72,Zdounky,17.319,49.228,60
60,Brantice,17.629,50.064,50
72,Bílčice,17.566,49.87,50
103,Horní Benešov,17.603,49.966,72
363,Osoblaha,17.714,50.274,103
72,Velký Újezd,17.483,49.579,50
211,Přerov,17.45,49.454,123
211,Kroměříž,17.393,49.298,123
72,Horní Moštěnice,17.459,49.412,50
303,Krnov,17.704,50.089,123
103,Břest,17.441,49.351,50
60,Kozlov,17.536,49.604,50
60,Radslavice,17.517,49.478,50
86,Deštné,17.677,49.895,50
123,Strážnice,17.317,48.901,50
60,Velké Heraltice,17.729,49.975,60
60,Lipník nad Bečvou,17.586,49.528,60
253,Veselí nad Moravou,17.381,48.952,103
72,Tlumačov,17.496,49.254,50
123,Potštát,17.652,49.637,60
363,Uherské Hradiště,17.46,49.07,147
147,Melč,17.758,49.85,60
86,Napajedla,17.512,49.172,50
86,Otrokovice,17.531,49.21,72
123,Holešov,17.578,49.333,86
103,Spálov,17.722,49.704,60
211,Vítkov,17.749,49.775,86
60,Klokočov,17.741,49.748,50
60,Lipov,17.464,48.907,50
103,Bystřice pod Hostýnem,17.674,49.399,60
103,Hluk,17.527,48.988,60
176,Hranice,17.734,49.549,123
103,Hradec nad Moravicí,17.876,49.871,60
72,Luhačovice,17.758,49.1,60
363,Opava,17.902,49.939,211
60,Bílovec,18.016,49.756,50
86,Rusava,17.689,49.348,50
60,Pustějov,18.004,49.701,50
123,Velká nad Veličkou,17.521,48.883,86
103,Újezd,17.906,49.168,50
303,Vsetín,17.996,49.339,176
176,Starý Hrozenkov,17.863,48.966,60
60,Březová,17.866,49.792,50
751,Zlín,17.666,49.227,253
60,Fryčovice,18.225,49.666,50
435,Odry,17.831,49.663,86
103,Bělotín,17.807,49.591,50
60,Kozlovice,18.257,49.59,50
303,Frýdek-Místek,18.348,49.686,86
86,Orlová,18.429,49.846,50
72,Kostelec,17.702,49.26,50
86,Skřipov,17.91,49.819,50
72,Pašovice,17.644,49.08,50
86,Uherský Brod,17.647,49.025,86
123,Kelč,17.815,49.478,50
123,Fulnek,17.903,49.712,50
60,Vlčková,17.763,49.311,50
103,Nivnice,17.648,48.975,50
86,Kravaře,18.005,49.932,50
103,Sudice,18.068,50.032,50
123,Kobeřice,18.052,49.985,50
60,Pozlovice,17.769,49.129,50
60,Branky,17.893,49.461,50
123,Tísek,18.015,49.793,50
72,Trnava,17.842,49.296,50
60,Bolatice,18.084,49.952,50
72,Hošťálková,17.869,49.355,72
72,Strání,17.707,48.902,60
60,Horní Lhota,17.804,49.154,50
72,Kunín,17.99,49.634,50
211,Vizovice,17.855,49.223,103
72,Nový Jičín,18.01,49.594,72
253,Valašské Meziříčí,17.971,49.472,103
103,Bojkovice,17.815,49.039,50
72,Jasenná,17.894,49.253,50
86,Jablůnka,17.95,49.384,50
176,Studénka,18.079,49.723,103
103,Liptál,17.922,49.291,50
86,Vřesina,18.126,49.824,50
60,Píšť,18.193,49.979,50
176,Slavičín,17.874,49.088,123
147,Mořkov,18.06,49.537,50
123,Hlučín,18.192,49.898,50
60,Vyškovec,17.851,48.94,50
60,Polanka nad Odrou,18.161,49.788,60
103,Hať,18.239,49.946,50
60,Valašská Polanka,17.997,49.262,50
60,Tichov,17.983,49.177,50
211,Kopřivnice,18.145,49.6,103
60,Petřkovice,18.256,49.873,50
86,Brušperk,18.222,49.7,60
72,Rožnov pod Radhoštěm,18.143,49.459,72
147,Lidečko,18.051,49.203,86
1556,Ostrava,18.281,49.835,901
103,Brumov-Bylnice,18.022,49.092,72
103,Frenštát pod Radhoštěm,18.211,49.548,50
123,Bohumín,18.357,49.905,50
86,Vratimov,18.31,49.77,50
60,Valašská Senice,18.116,49.225,50
176,Nový Hrozenkov,18.198,49.337,103
72,Palkovice,18.315,49.635,50
60,Šenov,18.376,49.793,50
72,Dětmarovice,18.461,49.894,50
123,Frýdlant nad Ostravicí,18.359,49.594,72
60,Velké Karlovice,18.284,49.36,50
123,Havířov,18.436,49.781,86
60,Ostravice,18.392,49.535,50
176,Karviná,18.542,49.855,72
60,Dolní Marklovice,18.568,49.893,50
72,Raškovice,18.473,49.62,60
176,Staré Hamry,18.446,49.473,50
60,Bílá,18.453,49.442,50
103,Hnojník,18.541,49.682,50
123,Český Těšín,18.626,49.746,50
60,Guty,18.596,49.649,50
147,Třinec,18.67,49.678,123
72,Bystřice,18.72,49.637,50
211,Jablunkov,18.765,49.577,72
103,Mosty u Jablunkova,18.754,49.527,50
86,Františkovy Lázně,12.352,50.12,50
72,Stříbrná,12.526,50.357,50
147,Hory,12.561,50.255,50
176,Hranice,12.176,50.305,60
60,Studánka,12.186,50.276,50
303,Aš,12.195,50.224,123
123,Libá,12.231,50.128,60
72,Plesná,12.347,50.221,50
176,Skalná,12.361,50.17,50
147,Luby,12.406,50.252,60
522,Cheb,12.374,50.08,253
72,Nový Kostel,12.445,50.217,50
147,Kraslice,12.518,50.324,103
86,Lipová,12.449,50.036,50
60,Okrouhlá,12.488,50.062,50
60,Palič,12.482,50.009,50
60,Habartov,12.551,50.183,50
60,Šindelová,12.603,50.319,50
72,Kynšperk nad Ohří,12.53,50.119,60
60,Jindřichovice,12.602,50.283,50
176,Sokolov,12.64,50.181,123
211,Potůčky,12.736,50.428,50
211,Nejdek,12.729,50.322,72
86,Lázně Kynžvart,12.625,50.011,50
86,Abertamy,12.818,50.369,50
60,Drmoul,12.666,49.939,50
303,Tachov,12.634,49.795,147
363,Mariánské Lázně,12.701,49.965,176
60,Merklín,12.863,50.328,50
123,Horní Slavkov,12.808,50.139,72
123,Bělá nad Radbuzou,12.718,49.591,103
72,Otročín,12.892,50.032,50
60,Olbramov,12.867,49.843,50
72,Rájec,12.722,50.289,50
72,Úterý,13.004,49.94,50
60,Cebiv,12.979,49.829,50
60,Rovná,12.669,50.104,60
86,Lesná,12.538,49.754,50
103,Manětín,13.233,49.992,72
103,Březno,13.421,50.402,50
72,Halže,12.579,49.831,50
103,Stod,13.165,49.639,50
123,Nýřany,13.212,49.711,86
103,Broumov,12.607,49.889,50
72,Merklín,13.198,49.56,50
123,Chodov,12.746,50.239,50
103,Dobřany,13.293,49.655,50
72,Předslav,13.354,49.447,50
211,Železná Ruda,13.235,49.137,123
103,Kozojedy,13.542,49.931,50
103,Starý Plzenec,13.474,49.698,50
86,Rozvadov,12.552,49.668,60
86,Loket,12.754,50.186,50
60,Hošťka,12.597,49.696,50
