rs,name,lon,lat,r1
176,Dragør,12.637,55.597,86
147,Borre,12.456,54.992,86
86,Klintholm Havn,12.467,54.952,50
60,Sømarken,14.964,55.004,50
176,Hasle,14.703,55.184,72
1297,Rønne,14.709,55.093,1081
60,Rutsker,14.748,55.212,50
435,Allinge-Sandvig,14.79,55.286,86
86,Nyker,14.758,55.137,50
72,Tejn,14.825,55.249,50
86,Klemensker,14.813,55.175,50
60,Vestermarie,14.824,55.108,50
60,Lobbæk,14.837,55.077,50
103,Rø,14.894,55.213,50
123,Aakirkeby,14.922,55.075,103
123,Gudhjem,14.976,55.21,72
72,Østermarie,15.007,55.14,60
72,Pedersker,14.994,55.033,50
147,Svaneke,15.144,55.139,60
86,Snogebæk,15.122,55.026,50
72,Årsdale,15.148,55.107,50
363,Nexø,15.137,55.068,211
100000,København,12.492,55.701,100000
626,Helsingor,12.59,56.026,253
253,Hørsholm-Rungsted,12.501,55.897,103
123,Hillerød,12.313,55.934,86
86,Vinderød Enghave-Karlsgave,12.009,55.982,86
72,Sædding,8.422,55.506,50
86,Smørumnedre,12.316,55.747,60
123,Sorø,11.559,55.437,86
60,Birkerød-Bistrup,12.424,55.847,50
86,Fredensborg,12.392,55.976,50
253,Vejen,9.129,55.474,147
363,Morsø,8.86,56.782,147
211,Sæby,10.51,57.334,86
522,Lynæs,11.864,55.958,60
522,Skagen-Vesterby,10.578,57.727,253
60,Tibberup-Espergærde,12.546,55.987,50
60,Værløse,12.366,55.784,50
435,Lemvig,8.312,56.552,123
123,Faaborg-Kukkenbjerg,10.243,55.097,123
253,Hirtshals,9.969,57.577,103
211,Nordborg,9.764,55.049,123
253,Maribo,11.511,54.774,176
123,Gråsten,9.595,54.914,86
253,Hadsund-Hadsund Huse,10.117,56.718,147
60,Næsby,10.36,55.425,50
72,Agger,8.236,56.782,50
60,Vedersø,8.205,56.234,50
147,Ørum,8.332,56.816,60
176,Tim,8.314,56.192,72
303,Hanstholm,8.624,57.107,123
147,Harboøre,8.176,56.621,60
123,Thyborøn,8.201,56.697,86
86,Thorsminde,8.13,56.375,86
123,Ramme,8.219,56.49,50
123,Nørre Vorupør,8.367,56.957,72
72,Stenbjerg,8.358,56.922,50
60,Sønder Nissum,8.185,56.308,60
60,Svankær,8.36,56.847,50
60,Gjellerodde,8.283,56.578,50
147,Hvide Sande,8.126,56.016,60
72,Kloster,8.177,56.119,50
60,Bedsted,8.399,56.81,50
72,Stadil,8.215,56.199,50
123,Klitmøller,8.482,57.043,60
60,Staby,8.243,56.264,50
363,Hurup,8.408,56.748,123
72,Ydby,8.397,56.713,50
147,Bækmarksbro,8.31,56.415,50
60,Vang,8.512,56.986,50
176,Bjerregård,8.163,55.865,50
363,Ringkøbing,8.245,56.087,211
147,Vemb,8.334,56.348,60
103,Villerslev,8.487,56.819,50
176,Ulfborg,8.322,56.278,123
72,Hee,8.281,56.147,50
72,Nørre Nissum,8.415,56.545,50
60,Vejers Strand,8.123,55.631,60
86,Snedsted,8.531,56.895,60
86,Nymindegab,8.197,55.816,50
60,Henne Strand,8.175,55.742,50
86,Boddum,8.483,56.707,50
72,Sjørring,8.578,56.947,50
253,Oksby,8.137,55.544,72
72,Bur,8.428,56.366,50
211,Hvidbjerg,8.522,56.65,86
123,Karby,8.561,56.756,72
103,Østerild,8.84,57.029,50
60,Hover,8.432,56.143,50
86,Hejnsvig,8.992,55.69,50
147,Struer,8.595,56.492,103
147,Nørre Nebel,8.291,55.773,103
123,Rækker Mølle,8.55,56.021,50
103,Sejerslev,8.866,56.925,50
103,Torsted,8.415,56.2,50
253,Varde,8.464,55.627,103
86,Uglev,8.545,56.611,50
86,Tved,8.683,57.057,50
103,Nors,8.673,57.018,50
60,Vesterballe,8.216,55.556,50
72,Skads,8.561,55.507,50
72,Troldhede,8.747,55.996,50
72,Krusbjerg,8.705,55.778,50
123,Årre,8.66,55.573,50
72,Tæbring,8.622,56.789,50
86,Vridsted,9.014,56.447,50
86,Gøttrup,9.208,57.05,50
123,Lem,8.392,56.031,60
86,Stauning,8.37,55.961,60
103,Idom,8.488,56.331,50
60,Ølstrup,8.425,56.115,50
60,Høgild,8.988,56.062,50
72,Brøns,8.722,55.196,50
147,Oksbøl,8.273,55.635,86
751,Thisted,8.691,56.953,303
103,Humlum,8.564,56.539,50
72,Brund,8.707,56.985,50
86,Faurholt,9.132,56.181,50
86,Blåhøj,9.039,55.876,50
176,Sundby,8.676,56.875,60
86,Fasterholt,9.104,56.007,50
86,Tranum,9.465,57.133,50
86,Bredebro,8.818,55.062,72
103,Ulbjerg,9.343,56.628,50
60,Nørre Rind,9.341,56.582,50
72,Lindknud,9.022,55.566,50
86,Isenvad,9.201,56.1,50
72,Brørup,9.03,55.488,50
86,Hemmet,8.368,55.85,60
72,Krunderup,8.542,56.396,50
211,Løgumkloster,8.961,55.062,103
72,Dejbjerg,8.419,56,50
60,Jegind,8.624,56.647,50
72,Skodborg,9.14,55.418,50
86,Jegum Ferieland,8.322,55.675,50
103,Outrup,8.341,55.719,50
72,Øster Jølby,8.721,56.838,50
60,Lønborg,8.44,55.903,50
86,Spjald,8.513,56.128,50
86,Vind,8.561,56.256,50
60,Hjardemål,8.81,57.057,50
72,Frøslev,8.738,56.802,50
103,Hjerm,8.629,56.44,50
123,Vils,8.727,56.756,60
72,Hov,8.802,56.995,50
60,Sennels,8.794,56.961,50
123,Ørnhøj,8.565,56.203,50
435,Holstebro,8.616,56.36,176
72,Kvong,8.43,55.761,50
72,Flade,8.79,56.889,50
253,Skjern,8.503,55.961,123
72,Ørding,8.761,56.72,50
60,Guldager,8.399,55.535,50
86,Alslev,8.419,55.584,50
103,Lyne,8.492,55.801,50
123,Tarm,8.534,55.906,50
103,Sørvad,8.663,56.261,50
176,Videbæk,8.617,56.087,103
103,Lem,8.778,56.593,50
147,Lild Strand,8.963,57.152,60
86,Tvis,8.707,56.317,50
60,Rødding,8.815,56.64,50
103,Ejsing,8.78,56.523,50
60,Horne,8.535,55.729,50
1297,Esbjerg,8.453,55.472,751
72,Ådum,8.593,55.872,50
72,Ryde,8.776,56.437,50
211,Vinderup,8.792,56.471,86
72,Glyngøre,8.883,56.748,50
86,Vesløs,8.976,57.037,50
72,Borris,8.64,55.961,50
147,Frøstrup,8.99,57.082,103
253,Ølgod,8.608,55.803,86
86,Sig,8.573,55.665,50
103,Skave,8.808,56.39,60
176,Sønderho,8.474,55.349,86
72,Gårde,8.614,55.764,50
103,Balling,8.885,56.614,60
123,Vildbjerg,8.754,56.191,86
147,Tistrup,8.613,55.719,72
72,Nørre Vium,8.717,56.035,50
211,Aulum,8.803,56.261,60
72,Djeld,8.858,56.437,50
103,Næsbjerg,8.6,55.624,60
60,Grønfelt,8.683,55.819,50
147,Roslev,8.983,56.708,50
72,Rønbjerg,8.934,56.534,50
60,Havnstrup,8.806,56.12,50
123,Nederby,9.022,56.808,60
60,Tjæreborg,8.597,55.457,50
147,Mandø,8.538,55.273,60
147,Sønder Felding,8.78,55.933,72
72,Grimstrup,8.651,55.531,50
60,Selde,9.05,56.779,50
86,Jebjerg,9.017,56.665,50
103,Hoven,8.768,55.852,50
72,Thorum,9.057,56.745,50
72,Toftum,8.555,55.166,50
103,Feldborg,8.933,56.336,50
72,Klim,9.171,57.1,50
72,Kongsmark,8.551,55.129,50
86,Ansager,8.743,55.713,60
303,Skive,9.03,56.567,147
147,Kibæk,8.863,56.029,86
123,Havneby,8.558,55.093,50
86,Fly,9.011,56.49,50
147,Haderup,8.991,56.386,86
176,Bramming,8.708,55.478,123
86,Studsgård,8.908,56.092,50
86,Stakroge,8.852,55.891,50
72,Skarrild,8.897,55.979,50
72,Simmelkær,8.995,56.271,50
60,Nørre Thise,9.136,56.723,50
60,Sønder Farup,8.691,55.304,50
211,Fjerritslev,9.254,57.09,103
253,Agerbæk,8.79,55.604,86
72,Gullestrup,8.971,56.169,50
86,Vejrup,8.775,55.52,50
626,Herning,8.974,56.137,363
72,Sunds,8.998,56.206,60
103,Tofterup,8.824,55.652,50
72,Nollund,8.869,55.79,50
123,Gredstedbro,8.745,55.403,50
123,Ranum,9.217,56.896,50
72,Stenderup,8.845,55.699,50
86,Søby,9.11,56.529,50
176,Sønder Omme,8.892,55.834,72
147,Koldby,8.639,55.039,60
123,Egebæk,8.721,55.277,50
60,Karstoft,8.936,55.938,50
86,Rejsby,8.713,55.234,50
72,Strandby,9.216,56.79,60
363,Løgstør,9.269,56.959,123
86,Glejbjerg,8.829,55.559,50
303,Ribe,8.762,55.339,147
86,Arnborg,8.981,56.013,50
86,Aggersund,9.291,57.006,50
147,Stoholm,9.133,56.488,60
60,Nørre Kollund,9.028,56.092,50
60,Hjortdal,9.355,57.135,50
123,Hald,9.192,56.598,72
522,Grindsted,8.927,55.753,211
147,Ilskov,9.083,56.238,50
211,Skærbæk,8.756,55.16,103
147,Højer,8.699,54.97,72
60,Bonderup,9.369,57.06,50
86,Mønsted,9.181,56.447,50
86,Fovlum,9.269,56.731,50
60,Kølvrå,9.145,56.288,50
72,Roager,8.818,55.254,50
86,Kølkær,9.082,56.065,50
72,Tranum Strand,9.424,57.17,50
72,Donslund,8.952,55.648,50
86,Hovborg,8.939,55.605,50
72,Uhre,9.048,55.932,50
211,Karup,9.169,56.315,86
123,Holsted,8.914,55.498,50
86,Knudby,9.25,56.556,50
60,Tobøl,8.891,55.417,50
60,Sparkær,9.233,56.478,50
86,Døstrup,8.806,55.117,50
103,Obbekær,8.878,55.333,50
72,Filskov,9.035,55.815,50
86,Frifelt,8.841,55.216,50
72,Visby,8.783,55.01,50
147,Farsø,9.347,56.773,86
86,Rudbøl,8.752,54.902,60
123,Ikast,9.156,56.139,86
72,Munklinde,9.184,56.226,50
176,Gatten,9.402,56.88,50
86,Gedsted,9.345,56.685,60
60,Ravnstrup,9.282,56.448,50
60,Frederiks,9.249,56.337,50
363,Brande,9.124,55.934,147
60,Lintrup,8.965,55.412,50
103,Farstrup,9.467,56.985,86
72,Hornum,9.43,56.837,50
72,Foldingbro,9.001,55.441,50
123,Løgstrup,9.342,56.511,50
60,Grønbjerg,9.123,55.811,50
123,Brovst,9.525,57.091,86
147,Vorbasse,9.075,55.632,72
60,Fole,8.985,55.317,50
72,Tyvse,8.886,55.01,50
86,Arnum,8.965,55.246,50
103,Abild,8.877,54.978,50
435,Hald Ege,9.344,56.414,211
626,Tønder,8.869,54.932,253
86,Skals,9.396,56.55,50
123,Billund,9.137,55.717,103
60,Fjelsø,9.437,56.662,50
103,Østrup,9.474,56.749,50
60,Thorning,9.334,56.283,50
86,Viborg,9.399,56.459,86
253,Rødding,9.051,55.36,86
176,Aalestrup,9.472,56.689,72
147,Gram,9.035,55.29,60
72,Skørbæk,9.55,56.919,50
72,Læborg,9.117,55.523,50
123,Bække,9.132,55.569,50
86,Vium,9.375,56.328,50
253,Aars,9.523,56.802,123
72,Arentsminde,9.622,57.126,50
72,Østerby,9.606,57.057,50
176,Løkken,9.708,57.371,103
123,Engesvang,9.342,56.171,86
123,Pandrup,9.667,57.222,50
103,Thyregod,9.266,55.906,50
86,Vegger,9.57,56.883,60
176,Give,9.25,55.844,72
72,Pårup,9.346,56.139,50
60,Dørken,9.266,55.879,50
60,Løvel,9.47,56.53,50
147,Møldrup,9.497,56.613,50
60,Bruunshåb,9.441,56.421,50
60,Hvam Stationsby,9.516,56.662,50
86,Farre,9.248,55.806,50
103,Saltum,9.705,57.275,50
60,Kastrup,9.078,55.262,50
72,Ingstrup,9.719,57.311,50
60,Bjerregrav,9.499,56.58,50
147,Toftlund,9.069,55.185,103
103,Lønstrup,9.792,57.471,72
176,Hampen,9.354,56.013,50
72,Rødding,9.507,56.494,50
211,Kjellerup,9.444,56.29,103
72,Sønder Rind,9.476,56.39,50
211,Nibe,9.658,56.983,86
60,Alslev,9.045,55.033,50
86,Gesten,9.215,55.531,50
103,Åbøl,9.124,55.234,50
72,Øster Lindet,9.146,55.303,50
60,Vrensted,9.783,57.339,50
123,Søvang,9.041,54.977,72
103,Jels,9.219,55.351,50
103,Vammen,9.573,56.529,50
123,Bindslev,10.205,57.541,50
86,Givskud,9.356,55.817,50
147,Lendum,10.287,57.409,50
86,Klejtrup,9.623,56.589,60
60,Mellerup,9.161,55.107,50
103,Lunderskov,9.284,55.478,50
103,Sejling,9.523,56.219,50
72,Bevtoft,9.206,55.197,50
72,Thorsager,10.452,56.343,50
72,Ans,9.572,56.307,60
211,Aabybro,9.742,57.16,86
103,Tornby,9.948,57.526,50
363,Silkeborg,9.549,56.171,253
147,Vojens,9.272,55.262,103
60,Sahl,9.633,56.336,50
176,Vrå,9.95,57.352,72
86,Harken,9.987,57.392,50
72,Sejs-Svejbæk,9.605,56.136,50
86,Ødis,9.388,55.408,50
176,Tinglev,9.263,54.939,72
86,Rødkærsbro,9.506,56.345,50
103,Agerskov,9.12,55.136,50
60,Uldum,9.585,55.852,50
60,Byrsted,9.683,56.91,50
72,Lindved,9.578,55.784,50
60,Fårvang,9.734,56.269,50
176,Gjøl,9.732,57.068,72
60,Gadbjerg,9.331,55.775,50
147,Fårup,9.839,56.547,72
103,Nørre Snede,9.391,55.958,86
72,Bedsted,9.105,55.065,50
86,Hundelev,9.847,57.425,50
103,Kliplev,9.407,54.94,72
86,Nørager,9.637,56.71,72
60,Stevnstrup,9.931,56.43,50
60,Vive,10.04,56.706,50
60,Alken,9.846,56.054,50
60,Manna,9.814,57.284,50
60,Nustrup,9.186,55.267,50
72,Galten,9.926,56.161,50
86,Øsby,9.643,55.25,60
211,Egtved,9.306,55.61,86
253,Ålbæk,10.424,57.595,86
86,Suldrup,9.694,56.845,60
103,Haverslev,9.678,56.791,50
86,Gærum,10.434,57.398,50
60,Vejlby Fed,9.86,55.516,50
60,Vork,9.331,55.659,50
72,Nørre Aaby,9.873,55.467,60
72,Torrild,10.043,55.979,50
60,Vejby,9.873,57.38,50
147,Rens,9.093,54.895,72
72,Lyngså,10.519,57.243,50
60,Jordrup,9.309,55.554,50
123,Vamdrup,9.267,55.418,60
72,Øster Hornum,9.745,56.94,50
60,Vonge,9.413,55.861,50
60,Saksild,10.227,55.979,50
72,Farris,9.268,55.385,50
72,Snave,10.037,55.211,50
72,Følle,10.444,56.31,50
86,Bredsten,9.381,55.706,50
176,Ørum,9.633,56.48,72
60,Mammen,9.613,56.412,50
60,Vidstrup,9.943,57.5,50
103,Ødsted,9.394,55.658,50
60,Brøndum,9.7,56.623,50
103,Bryrup,9.518,56.029,50
60,Lindum,9.684,56.562,50
86,Jelling,9.433,55.753,50
176,Them,9.54,56.091,50
60,Hellevad,9.216,55.074,50
60,Ravnkilde,9.75,56.754,50
72,Sommersted,9.302,55.322,50
72,Højrup,9.366,55.513,50
60,Brakker,9.395,55.6,50
86,Nørhalne,9.878,57.155,60
72,Sandvad,9.462,55.803,50
60,Grønbæk,9.619,56.276,50
86,Vester Nebel,9.399,55.568,50
176,Bjerringbro,9.657,56.384,123
60,Hjarup,9.361,55.443,50
211,Tørring,9.496,55.857,86
60,Døstrup,9.755,56.688,50
901,Hjørring,9.986,57.46,363
147,Svenstrup,9.848,56.978,60
363,Brønderslev,9.947,57.271,147
303,Støvring,9.837,56.889,123
60,Vorning,9.728,56.527,50
60,Stepping,9.36,55.35,50
60,Serritslev,9.971,57.314,50
123,Over Jerstal,9.31,55.195,60
60,Maugstrup,9.343,55.29,50
72,Hjorthede,9.707,56.418,50
72,Løvskal,9.722,56.451,50
72,Sønder Onsild,9.765,56.584,50
72,Bjergby,10.047,57.517,50
60,Vebbestrup,9.815,56.724,50
103,Tylstrup,9.961,57.196,50
2688,Aalborg,9.919,57.046,751
103,Hammershøj,9.755,56.497,50
60,Poulstrup,10.012,57.352,50
363,Hobro,9.799,56.639,147
72,Åle,9.567,55.89,50
60,Gammel Højen,9.503,55.674,50
103,Rødekro,9.313,55.077,50
72,Mjels,9.9,56.928,50
72,Hjordkær,9.301,55.026,50
72,Bolderslev,9.291,54.987,50
72,Hammelev,9.376,55.245,50
303,Vejle,9.528,55.711,147
60,Nørresundby,9.958,57.077,50
176,Brædstrup,9.624,55.979,86
176,Arden,9.87,56.769,60
522,Kolding,9.473,55.49,303
60,Vester Ørum,9.58,55.824,50
86,Voel,9.697,56.19,50
103,Skørping,9.898,56.839,50
60,Lørslev,10.081,57.429,50
60,Valsgård,9.856,56.668,50
123,Vodskov,10.015,57.105,50
60,Gistrup,9.983,56.991,50
86,Ålum,9.827,56.454,50
147,Tårs,10.118,57.391,60
86,Thorsø,9.787,56.296,50
60,Marstrup,9.443,55.212,50
211,Christiansfeld,9.499,55.364,86
103,Tversted,10.185,57.588,50
60,Sterup,10.105,57.312,50
72,Jerslev,10.099,57.285,60
86,Vellev,9.824,56.371,50
60,Sorring,9.766,56.178,50
72,Genner,9.428,55.12,50
103,Nim,9.69,55.926,50
72,Hallund,10.094,57.245,50
303,Padborg,9.336,54.832,123
86,Voerladegård,9.728,56.024,50
86,Sjølund,9.533,55.403,50
522,Haderslev,9.488,55.253,211
72,Fjellerad,10.013,56.922,50
72,Sønder Bjert,9.56,55.454,50
86,Klarup,10.049,57.018,50
253,Aabenraa,9.422,55.024,176
60,Linderum,10.178,57.427,50
123,Sindal,10.2,57.48,86
147,Børkop,9.637,55.644,60
60,Vrå,9.978,56.728,50
86,Korning,9.708,55.855,50
86,Taulov,9.609,55.533,60
176,Ry,9.786,56.089,60
103,Løjt Kirkeby,9.464,55.085,50
103,Oue,9.976,56.695,50
60,Langå,9.887,56.401,60
72,Asferg,9.936,56.549,50
72,Østbirk,9.758,55.972,50
123,Hedensted,9.697,55.768,72
72,Farre,9.841,56.217,50
123,Låsby,9.824,56.151,50
60,Tånum,9.921,56.459,50
211,Hjallerup,10.135,57.167,50
86,Fjelstrup,9.563,55.319,50
60,Pjedsted,9.657,55.601,50
147,Mariager,9.985,56.644,60
60,Brejning,9.687,55.67,50
72,Råsted,9.951,56.511,50
60,Daugård,9.709,55.738,50
176,Hammel,9.876,56.253,72
86,Vester Hassing,10.126,57.061,50
103,Holbøl,9.443,54.891,50
72,Lund,9.77,55.897,50
60,Tuen,10.288,57.588,50
86,Ølsted,9.756,55.812,50
60,Allerup,10.192,57.23,50
147,Terndrup,10.068,56.81,72
103,Østervrå,10.229,57.344,50
60,Gassum,10.001,56.578,50
60,Mosbjerg,10.282,57.507,50
147,Kongerslev,10.102,56.888,60
72,Vonsbæk,9.601,55.286,50
103,Skjød,9.923,56.3,50
60,Kværs,9.499,54.932,50
60,Hem,10.035,56.612,50
86,Felsted,9.518,54.979,50
72,Hvidbjerg,9.745,55.641,50
60,Assens,10.068,56.671,50
60,Sjelle,9.93,56.19,50
72,Egebjerg,9.844,55.907,50
60,Egeskov,9.75,55.61,50
176,Spentrup,10.046,56.543,72
60,Hårby,9.906,56.085,50
72,Varnæs,9.568,55.018,50
60,Try,10.287,57.312,50
123,Stouby,9.795,55.702,50
60,Tebstrup,9.881,55.974,50
60,Holtet,10.208,57.034,50
626,Randers,10.036,56.458,253
626,Horsens,9.849,55.86,253
176,Fredericia,9.756,55.566,123
123,Middelfart,9.738,55.504,50
147,Flauenskjold,10.28,57.249,72
60,Vitten,9.994,56.293,50
86,Lem,10.068,56.505,50
103,Mou,10.211,56.97,50
72,Bjerre,9.849,55.792,50
60,Strib,9.769,55.534,50
253,Skanderborg,9.934,56.032,123
86,Hornsyld,9.85,55.752,72
60,Rørholt,10.277,57.128,50
86,Dronninglund,10.295,57.155,72
60,Årøsund,9.707,55.262,50
176,Hadsten,10.052,56.337,60
86,Jerup,10.414,57.532,50
123,Tåstrup,9.995,56.129,86
60,Skelund,10.197,56.757,50
147,Hulsig,10.466,57.661,50
72,Hovedgård,9.952,55.946,50
103,Sabro,10.039,56.216,50
60,Harridslev,10.129,56.499,50
103,Hinnerup,10.058,56.262,86
86,Hørby,10.387,57.323,50
123,Blans,9.662,54.992,50
123,Havndal,10.195,56.656,50
60,Holm,9.7,55.055,50
86,Øster Tørslev,10.189,56.588,60
72,Tvede,10.179,56.544,50
103,Agersted,10.376,57.196,50
147,Føns,9.83,55.426,50
72,Assentoft,10.155,56.447,50
253,Hals,10.323,56.995,86
103,Hørning,10.046,56.08,50
86,Bågø By,9.808,55.314,50
103,Søvind,9.995,55.891,50
123,Øster Hurup,10.281,56.805,50
72,Vester Sottrup,9.695,54.943,50
123,Hou,10.363,57.059,50
103,Strandby,10.503,57.49,50
60,Hvilsted,10.056,56.008,50
72,Voldum,10.17,56.369,50
60,Store Ørtoft,10.452,57.293,50
60,Lemming,10.097,56.12,50
86,Als,10.293,56.758,72
60,Ølsted,10.139,56.232,50
103,Glud,10.006,55.807,72
60,Bjerre,10.285,56.659,50
60,Haldbjerg,10.507,57.393,50
60,Sønderby Strand,10.018,55.778,50
103,Skelde,9.723,54.859,50
103,Hosby,10.013,55.745,50
303,Frederikshavn,10.533,57.441,253
72,Brendstrup,10.158,56.19,50
60,Udbyhøj Vasehuse,10.294,56.618,50
103,Håre,9.908,55.372,50
72,Alrø By,10.063,55.857,50
72,Ejby,9.942,55.43,50
211,Assens,9.89,55.27,176
253,Juelsminde,10.029,55.698,103
72,Voerså,10.493,57.209,50
72,Holbæk,10.297,56.554,50
72,Hårup,10.215,56.286,50
1081,Sønderborg,9.789,54.908,363
72,Sandager,9.93,55.328,50
60,Aborg,9.927,55.298,50
1556,Aarhus,10.203,56.152,1081
211,Lystrup,10.233,56.248,72
123,Odder,10.149,55.974,103
86,Skørring,10.275,56.365,50
72,Skåstrup,10.014,55.53,50
72,Storhøj,10.191,56.09,50
72,Ørting,10.15,55.929,50
86,Ørsted,10.336,56.507,50
123,Guderup,9.859,54.993,50
72,Harndrup,10.013,55.463,50
123,Beder-Malling,10.211,56.053,60
86,Augustenborg,9.869,54.952,50
86,Allingåbro,10.351,56.465,50
72,Ebberup,9.987,55.246,50
147,Hornslet,10.328,56.32,60
363,Bogense,10.093,55.567,123
211,Auning,10.367,56.426,86
60,Aarup,10.038,55.377,50
72,Sønderby,9.895,54.868,50
103,Ørsted,10.051,55.332,50
72,Studstrup,10.346,56.256,50
60,Majbøl,9.924,54.925,50
253,Hou,10.253,55.915,50
60,Pindstrup,10.413,56.386,50
72,Helnæs By,10.026,55.135,60
103,Vissenbjerg,10.112,55.385,86
72,Fynshav,9.986,54.988,50
123,Glamsbjerg,10.096,55.278,86
60,Særslev,10.177,55.515,50
123,Endelave By,10.272,55.758,103
123,Lysabild,10.01,54.902,72
176,Haarby,10.123,55.21,60
103,Ryomgård,10.515,56.386,60
147,Knebel,10.476,56.214,60
60,Tommerup,10.196,55.319,50
60,Vrinners,10.492,56.245,50
123,Faldsled,10.147,55.151,50
72,Søndersø,10.263,55.493,60
103,Voldby,10.86,56.464,50
72,Sivested,10.628,56.387,50
60,Verninge,10.212,55.288,50
60,Pederstrup,10.672,56.336,50
363,Ebeltoft,10.696,56.194,176
60,Horne,10.163,55.103,50
72,Begtrup,10.51,56.18,50
72,Glatved,10.83,56.315,50
60,Blommenslyst,10.263,55.392,50
60,Ærøskøbing,10.406,54.89,50
72,Nørre Broby,10.223,55.253,50
103,Lyø By,10.156,55.044,50
72,Tunø By,10.447,55.949,50
60,Revninge,10.645,55.422,50
211,Kerteminde,10.66,55.451,103
86,Agernæs,10.342,55.591,60
103,Kongsgårde,10.518,56.145,60
60,Troense,10.655,55.03,50
123,Feldballe,10.581,56.286,60
72,Brokkebjerg,11.107,55.716,50
72,Vester Hæsinge,10.248,55.195,50
123,Bellinge,10.299,55.336,50
72,Vesterø Havn,10.921,57.29,50
176,Otterup,10.389,55.516,72
60,Lumby,10.373,55.456,50
176,Ørum,10.683,56.446,72
60,Bjørnø By,10.25,55.065,50
176,Bønnerup Strand,10.717,56.53,86
303,Nordby,10.55,55.965,103
72,Avernak By,10.256,55.032,50
1297,Odense,10.389,55.396,626
103,Korinth,10.32,55.143,50
60,Tirstrup,10.687,56.3,50
253,Søby,10.261,54.934,72
86,Hasmark Strand,10.475,55.558,50
626,Byrum,11,57.256,211
60,Ølund,10.476,55.506,50
72,Øerne,10.691,56.156,50
303,Tranebjerg,10.59,55.831,147
72,Espe,10.41,55.2,50
103,Holme,10.746,56.24,50
147,Trustrup,10.78,56.349,50
103,Årslev,10.479,55.303,60
72,Fraugde,10.501,55.355,50
86,Marslev,10.515,55.393,50
60,Gabet,10.571,55.517,50
253,Ringe,10.482,55.235,103
123,Østerby Havn,11.125,57.319,50
60,Munkebo,10.557,55.45,50
147,Drejø By,10.42,54.969,60
522,Grenaa,10.876,56.414,303
60,Store Rise,10.398,54.85,50
86,Stenstrup,10.506,55.125,50
123,Kværndrup,10.525,55.173,50
72,Ollerup,10.498,55.066,50
103,Mesinge,10.646,55.499,50
103,Langeskov,10.601,55.354,72
72,Gislev,10.596,55.21,50
176,Marstal,10.521,54.858,86
123,Ørbæk,10.663,55.259,60
435,Svendborg,10.608,55.06,253
72,Bjerreby,10.607,54.972,50
72,Strynø By,10.613,54.904,50
103,Nordenhuse,10.77,55.374,50
60,Kogsbølle,10.741,55.279,50
103,Gudme,10.7,55.148,50
60,Skårup,10.694,55.09,50
303,Nyborg,10.791,55.313,176
60,Hesselager,10.749,55.178,50
86,Tårup,10.772,55.234,50
103,Ulstrup,10.965,55.736,60
253,Rudkøbing,10.711,54.936,103
72,Lundeborg,10.784,55.144,50
435,Bagenkop,10.67,54.75,60
123,Humble,10.702,54.827,86
72,Lindelse,10.726,54.866,50
86,Nordenbro,10.714,54.789,50
123,Tranekær,10.851,54.997,60
176,Lohals,10.903,55.137,72
176,Sejerby,11.141,55.884,103
303,Kalundborg,11.085,55.681,211
103,Snøde,10.908,55.087,50
72,Rørby,11.171,55.644,50
1081,Anholt,11.543,56.704,303
176,Korsør,11.132,55.326,103
86,Ubby,11.226,55.61,50
72,Kaldred,11.263,55.695,50
72,Gørlev,11.23,55.548,50
253,Havnebyen,11.364,55.968,103
86,Svebølle,11.276,55.654,72
103,Tårs,11.036,54.88,60
103,Langø,11.02,54.816,50
60,Kirke Stillinge,11.237,55.435,60
303,Kirkehavn,11.157,55.169,50
72,Havnsø,11.342,55.749,50
72,Agersø,11.19,55.212,50
211,Høng,11.306,55.509,86
123,Buerup,11.34,55.593,50
435,Køge,12.184,55.455,103
103,Boeslunde,11.264,55.309,50
103,Svinninge,11.472,55.717,50
60,Vestenskov,11.099,54.793,50
123,Dannemare,11.189,54.765,50
60,Krårup,11.551,54.802,50
60,Kulhuse,11.908,55.928,50
60,Ejby,11.839,55.693,50
86,Kyndby Huse,11.888,55.81,50
72,Hørve,11.443,55.752,50
253,Nakskov,11.157,54.848,253
72,Udstolpe,11.611,54.76,50
147,Skælskør,11.29,55.248,72
176,Jyderup,11.427,55.669,123
211,Køng,11.809,55.114,60
60,Osted,11.953,55.553,50
60,Sønderup,11.372,55.461,50
363,Slagelse,11.355,55.405,176
103,Skævinge,12.152,55.902,50
211,Nørre Alslev,11.889,54.904,86
60,Nagelsti,11.841,54.743,50
86,Tune,12.189,55.592,50
123,Horslunde,11.222,54.911,50
176,Asnæs,11.509,55.811,86
60,Ore,11.21,54.803,50
60,Skellingsted,11.464,55.59,50
72,Klint,11.594,55.956,50
72,Høve,11.389,55.283,50
60,Lundby,11.383,55.248,50
86,Vig,11.573,55.849,50
60,Højby,11.596,55.907,50
103,Hummingen,11.222,54.712,50
86,Sørbymagle,11.435,55.363,50
72,Søllested,11.267,54.81,50
147,Dianalund,11.509,55.527,72
60,Birket,11.328,54.9,50
103,Nykøbing S,11.675,55.92,86
147,Undløse,11.586,55.599,60
86,Tuse,11.623,55.707,50
86,Vesterby,11.385,54.941,72
147,Egebjerg,11.685,55.842,50
60,Frederiksberg,11.56,55.407,50
86,Bisserup,11.498,55.208,50
86,Sandved,11.521,55.266,50
60,Stenmagle,11.623,55.555,50
147,Fuglebjerg,11.552,55.308,86
86,Rødbyhavn,11.347,54.661,50
60,Sørup,11.409,54.813,50
72,Udby,11.709,55.758,50
147,Rødby,11.389,54.7,60
522,Holbæk,11.714,55.72,176
72,Fjenneslev,11.654,55.438,50
103,Vipperød,11.73,55.669,50
176,Askø By,11.493,54.898,50
86,Gyrstinge,11.684,55.489,50
123,Bandholm,11.481,54.839,50
253,Nørreby,11.531,54.982,72
60,Tølløse,11.757,55.617,50
103,Glumsø,11.676,55.356,50
60,Vallensved,11.652,55.263,50
72,Holeby,11.481,54.714,50
103,Udstrup,11.748,55.551,50
86,Karrebæksminde,11.64,55.178,50
86,Errindlev,11.5,54.669,50
60,Liseleje,11.958,56.012,50
72,Vetterslev,11.765,55.388,50
253,Ringsted,11.788,55.446,147
60,Herlufmagle,11.758,55.316,50
103,Kirke Hvalsø,11.849,55.6,86
86,Kirke Såby,11.878,55.638,50
1081,Næstved,11.754,55.233,303
60,Kirke Hyllinge,11.906,55.702,50
86,Sakskøbing,11.626,54.804,50
60,Vigsnæs,11.656,54.89,50
60,Tårs,11.637,54.831,50
72,Jystrup,11.868,55.515,50
123,Skibby,11.954,55.755,72
86,Fensmark,11.816,55.284,50
86,Tisvilde,12.076,56.063,50
60,Tørslev,12.022,55.81,50
86,Guldborg,11.738,54.864,50
60,Ølsted,12.074,55.925,50
147,Frederikssund,12.06,55.84,123
60,Græse Bakkeby,12.068,55.867,50
72,Toksværd,11.879,55.249,50
60,Østby,12.038,55.757,50
103,Mogenstrup,11.867,55.183,50
123,Borup,11.973,55.498,86
72,Rågeleje,12.158,56.097,50
72,Øm,12.008,55.597,50
72,Kettinge,11.739,54.696,50
103,Terslev,11.962,55.375,50
147,Nysted,11.739,54.662,86
72,Lundby,11.884,55.107,50
103,Viby,12.029,55.542,50
211,Haslev,11.962,55.325,103
72,Valby,12.206,56.057,50
60,Meløse,12.17,55.932,50
253,Helsinge,12.197,56.02,72
147,Jyllinge,12.118,55.752,72
60,Risby,11.926,55.134,50
253,Roskilde,12.085,55.634,176
72,Bjæverskov,12.041,55.45,50
435,Vordingborg,11.909,55.011,176
60,Gadstrup,12.09,55.568,50
86,Ejby,12.075,55.496,50
60,Tappernøje,11.983,55.164,50
901,Nykøbing F,11.865,54.784,363
211,Gilleleje,12.291,56.129,86
123,Ågerup,12.166,55.694,50
72,Algestrup,12.075,55.382,50
60,Rønnede,12.035,55.253,50
103,Græsted,12.292,56.067,50
86,Dalby,12.071,55.312,50
60,Gadevang,12.291,55.968,50
60,Ølby,12.146,55.487,50
86,Orup,12.079,55.209,50
147,Væggerløse,11.933,54.712,60
60,Ganløse,12.274,55.792,50
211,Præstø,12.066,55.12,86
86,Mern,12.047,55.049,50
60,Stensved,12.033,55,60
123,Faxe,12.119,55.263,72
176,Solrød Strand,12.214,55.534,50
60,Ny Hammersholt,12.334,55.905,50
103,Lillerød,12.33,55.866,50
103,Nykøbing Strandhuse,11.96,54.659,50
435,Gedser,11.934,54.576,86
72,Stubbekøbing,12.034,54.883,72
72,Sønder Alslev,12.003,54.762,50
103,Ledøje,12.302,55.708,50
72,Bogø By,12.057,54.925,50
86,Karise,12.185,55.311,50
60,Sandvig,12.119,55.059,50
86,Faxe Ladeplads,12.172,55.217,50
86,Greve Strand,12.291,55.583,86
123,Hårlev,12.219,55.349,50
60,Hornbæk,12.449,56.092,50
103,Horbelev,12.055,54.824,50
176,Farum,12.378,55.814,72
86,Strøby Egede,12.28,55.408,50
72,Arnøje,12.291,55.316,50
123,Store Damme,12.17,54.916,50
103,Hellebæk,12.546,56.077,50
60,Vindebæk,12.193,54.889,50
72,Klippinge,12.328,55.352,50
72,Humlebæk,12.534,55.959,50
176,Stege,12.278,54.992,103
72,Rødvig,12.364,55.251,50
303,Store Heddinge,12.387,55.312,72
72,Fællesskov Strand,12.3,55.032,50
147,Raadvad,12.559,55.804,60
60,Højerup,12.436,55.281,50
