rs,name,lon,lat,r1
1058,Troisvierges,6.002,50.122,120
296,Ell,5.855,49.761,120
247,Wiltz,5.93,49.967,100
120,Canach,6.325,49.609,100
511,Ettelbruck,6.1,49.848,206
206,Esch-sur-Alzette,5.981,49.499,100
206,Mersch,6.101,49.745,100
100000,Luxembourg,6.123,49.609,100000
120,Mondorf-les-Bains,6.282,49.507,100
206,Grevenmacher,6.441,49.677,172
247,Rosport,6.503,49.805,100
120,Moersdorf,6.499,49.746,100
