rs,name,lon,lat,r1
1058,Troisvierges,6.002,50.122,120
296,Ell,5.855,49.761,120
247,Wiltz,5.93,49.967,100
120,Canach,6.325,49.609,100
511,Ettelbruck,6.1,49.848,206
100000,Luxembourg,6.123,49.609,100000
206,Esch-sur-Alzette,5.988,49.501,100
206,Mersch,6.104,49.751,100
144,Remich,6.367,49.543,120
206,Mertert,6.496,49.712,144
206,Echternach,6.424,49.812,100
