rs,name,lon,lat,r1
714,Pafos,32.406,34.78,414
345,Morfou,33.019,35.215,240
595,Argaka,32.493,35.067,240
240,Faleia,32.59,34.86,200
100000,Lemesos,33.015,34.711,100000
1027,Strovolos,33.363,35.125,414
288,Larnaka,33.633,34.898,240
240,Lysi,33.682,35.106,200
288,Trikomo,33.892,35.286,200
240,Agios Theodoros,34.029,35.367,200
496,Ammochostos,33.956,35.116,414
240,Aigialousa,34.189,35.536,200
2552,Rizokarpaso,34.379,35.598,496
