cc,rs,name,lon,lat,r1
PM,15789,Miquelon-Langlade,-56.377,47.1,15789
PM,714,Saint-Pierre,-56.172,46.78,288
IS,496,Patreksfjörður,-23.999,65.598,414
IS,4408,Ísafjörður,-23.124,66.075,1232
IS,240,Þingeyri,-23.489,65.877,200
IS,496,Ólafsvík,-23.708,64.897,345
IS,1478,Stykkishólmur,-22.725,65.076,496
IS,288,Reykhólar,-22.199,65.448,240
IS,345,Grindavík,-22.434,63.843,288
IS,414,Akranes,-22.058,64.319,200
IS,345,Búðardalur,-21.762,65.109,288
IS,345,Borgarnes,-21.91,64.545,200
IS,288,Bifröst,-21.549,64.766,200
IS,714,Hólmavík,-21.683,65.701,345
IS,39285,Reykjavík,-21.897,64.133,7615
IS,288,Hvammstangi,-20.943,65.398,288
IS,714,Selfoss,-21.003,63.937,288
IS,288,Blönduós,-20.28,65.658,240
IS,414,Skagaströnd,-20.303,65.823,200
IS,345,Laugarvatn,-20.733,64.218,200
IS,414,Flúðir,-20.32,64.131,288
IS,595,Hvolsvöllur,-20.231,63.749,240
IS,2127,Vestmannaeyjar,-20.276,63.44,496
IS,414,Varmahlíð,-19.444,65.553,200
IS,496,Siglufjörður,-18.907,66.155,200
IS,595,Sauðárkrókur,-19.64,65.748,414
IS,240,Ólafsfjörður,-18.653,66.071,200
IS,414,Dalvík,-18.53,65.974,288
IS,414,Grímsey,-18.009,66.538,345
IS,240,Hrafnagil,-18.094,65.571,200
IS,496,Vík,-19.006,63.42,414
IS,2127,Akureyri,-18.101,65.689,1773
IS,496,Húsavík,-17.343,66.047,345
IS,714,Kirkjubæjarklaustur,-18.038,63.794,414
IS,288,Laugar,-17.36,65.721,200
IS,496,Reykjahlíð,-16.91,65.64,345
IS,240,Kópasker,-16.44,66.302,200
IS,1232,Raufarhöfn,-15.949,66.454,288
IS,496,Bakkafjörður,-14.803,66.037,200
IS,496,Þórshöfn,-15.336,66.198,414
IS,1027,Vopnafjörður,-14.828,65.753,414
IS,1773,Höfn í Hornafirði,-15.208,64.255,714
IS,3062,Egilsstaðir,-14.406,65.262,1027
PT,7615,Santa Cruz das Flores,-31.128,39.456,1478
IS,496,Djúpivogur,-14.283,64.657,200
IS,345,Borgarfjörður eystri,-13.816,65.528,288
IS,240,Stöðvarfjörður,-13.874,64.833,200
IS,345,Fáskrúðsfjörður,-14.014,64.93,200
IS,414,Neskaupstaður,-13.676,65.147,200
PT,595,Velas,-28.209,38.682,240
PT,496,Lajes do Pico,-28.251,38.395,200
SJ,9138,Olonkinbyen,-8.715,70.923,3062
IE,496,Keel-Dooagh,-10.114,53.974,200
IE,496,Belmullet,-9.988,54.224,345
FO,9138,Tórshavn,-6.758,62.03,3674
FO,414,Sandur,-6.816,61.835,200
IE,240,Bangor Erris,-9.743,54.145,200
IE,595,Clifden,-10.013,53.489,414
IE,240,Mulranny,-9.774,53.907,200
FO,345,Klaksvík,-6.583,62.226,200
FO,1027,Vágur,-6.81,61.474,414
FO,240,Viðareiði,-6.534,62.36,200
UK,1232,St Kilda,-8.563,57.812,714
IE,496,Dingle,-10.27,52.14,288
IE,496,Ballina,-9.158,54.114,200
UK,240,Gramasdal,-7.307,57.48,240
UK,240,Bruernish,-7.401,56.995,200
UK,240,Lochportain,-7.125,57.633,240
IE,345,Carraroe,-9.597,53.265,240
IE,345,Cahersiveen,-10.228,51.946,200
IE,288,Easky,-8.952,54.286,200
IE,856,Tralee,-9.7,52.271,496
IE,345,Claremorris,-8.998,53.719,200
IE,288,Sneem,-9.905,51.837,200
IE,288,Ennistimon,-9.293,52.94,200
UK,496,Gerinish,-7.365,57.353,200
UK,345,Timsgarry,-7.017,58.198,288
IE,288,Listowel,-9.487,52.454,200
UK,2127,West Kilbride,-7.367,57.111,714
UK,595,Sgarasta Bheag,-7.049,57.824,345
IE,345,Glenties,-8.284,54.797,200
IE,1232,Sligo,-8.483,54.269,595
IE,496,Killarney,-9.506,52.058,200
IE,595,Castlebar,-9.285,53.855,496
UK,414,Hosta,-7.49,57.621,414
IE,414,Kilrush,-9.486,52.638,200
IE,714,Bunbeg,-8.296,55.067,345
IE,1478,Galway,-9.042,53.282,595
UK,288,Govig,-7.055,57.972,288
IE,345,Kenmare,-9.579,51.88,200
UK,345,Melbost Borve,-6.436,58.43,200
UK,414,Middleton,-6.968,56.482,414
IE,595,Mallow,-8.647,52.134,240
IE,414,Ennis,-8.977,52.826,200
IE,288,Ballyshannon,-8.192,54.502,200
IE,496,Donegal,-8.103,54.653,240
IE,288,Newcastle West,-9.057,52.458,240
UK,240,Ceann Shìphoirt,-6.591,58.054,200
IE,345,Loughrea,-8.574,53.198,200
IE,240,Boherbue,-9.068,52.159,200
UK,240,Trumpan,-6.634,57.559,200
UK,1478,Stornoway,-6.379,58.209,714
IE,496,Skibbereen,-9.271,51.551,414
UK,240,Colbost,-6.645,57.445,200
IE,240,Carrick-on-Shannon,-8.084,53.945,200
IE,240,Roscommon,-8.197,53.62,200
IE,288,Dunmanway,-9.111,51.72,200
IE,1773,Limerick,-8.626,52.658,595
UK,345,A' Chill,-6.509,57.056,240
UK,414,Enniskillen,-7.631,54.345,200
UK,1232,Londonderry,-7.319,54.999,595
IE,856,Athlone,-7.967,53.423,414
IE,240,Athenry,-8.747,53.302,200
IE,414,Longford,-7.786,53.73,200
UK,496,Portree,-6.198,57.404,496
MF,9138,Saint-Martin,-63.084,18.067,2127
IE,288,Tipperary,-8.151,52.477,200
UK,595,Port Mòr,-6.226,56.835,414
IE,288,Gort,-8.816,53.065,200
IE,345,Bantry,-9.448,51.681,200
IE,240,Broadford,-8.978,52.344,200
UK,288,Strabane,-7.463,54.824,200
IE,496,Carndonagh,-7.263,55.246,200
IE,345,Nenagh,-8.204,52.858,240
UK,856,Omagh,-7.296,54.6,345
IE,1773,Cork,-8.476,51.863,1232
UK,240,Achosnich,-6.18,56.727,240
UK,345,Murlaggan,-5.273,56.98,200
IE,345,Thurles,-7.811,52.68,200
UK,595,Opinan,-5.582,57.906,345
UK,345,Kilmore,-5.871,57.094,288
IE,240,Rathcormack,-8.282,52.075,200
UK,414,Inveralligin,-5.605,57.557,288
UK,496,Stoer,-5.337,58.202,414
UK,345,Carsaig,-5.979,56.324,240
UK,414,Stromeferry,-5.551,57.351,288
IE,856,Cavan,-7.358,53.993,288
UK,345,Ardery,-5.674,56.695,240
IE,856,Kilkenny,-7.253,52.654,345
UK,714,Achiemore,-4.82,58.567,496
UK,240,Dungiven,-6.919,54.926,200
UK,714,Oban,-5.474,56.407,288
UK,345,Newry,-6.334,54.178,200
UK,414,Kilninian,-6.231,56.532,288
UK,288,South Erradale,-5.782,57.674,240
IE,288,Midleton,-8.163,51.911,200
UK,345,Coleraine,-6.664,55.13,240
IE,288,Castlepollard,-7.297,53.681,200
UK,496,Kilchattan,-6.23,56.075,345
BL,714,Saint-Barthélemy,-62.852,17.898,288
UK,240,Back of Keppoch,-5.864,56.922,240
UK,288,Cookstown,-6.743,54.649,200
UK,240,Dungannon,-6.771,54.501,200
UK,1027,Kintra,-6.256,55.655,240
IE,414,Clonmel,-7.698,52.361,240
UK,414,Bunnahabhain,-6.126,55.881,345
UK,240,Larachbeg,-5.754,56.57,200
UK,240,Inverinate,-5.458,57.243,240
UK,240,Ballycastle,-6.25,55.202,200
UK,288,Laxford Bridge,-5.012,58.375,288
IE,345,Dungarvan,-7.62,52.093,240
UK,288,Kinloch Hourn,-5.385,57.109,240
UK,595,Ballymena,-6.274,54.862,240
UK,345,Portadown,-6.445,54.422,200
UK,240,Lealt,-5.755,56.054,200
UK,240,Clachan,-5.071,57.815,240
UK,414,Cushendall,-6.061,55.08,200
IE,288,Ardee,-6.536,53.853,200
UK,414,Corrykinloch,-4.781,58.188,345
IE,345,Newbridge,-6.797,53.18,240
IE,595,Dundalk,-6.401,54.008,240
IE,288,Carlow,-6.927,52.835,200
UK,345,Belloch,-5.694,55.579,200
UK,496,Oykel Bridge,-4.734,57.969,240
IE,414,Tullamore,-7.492,53.279,200
IE,414,Mullingar,-7.342,53.54,345
IE,240,Cootehill,-7.079,54.072,200
UK,240,Maghera,-6.671,54.844,200
IE,288,Portlaoise,-7.311,53.035,200
UK,496,Campbeltown,-5.598,55.418,345
UK,414,Stronmilchan,-4.994,56.407,200
IE,5289,Dublin,-6.265,53.337,2552
UK,240,Lochgilphead,-5.425,56.033,240
IE,1232,Waterford,-7.11,52.254,595
UK,496,Lochgoilhead,-4.899,56.17,200
UK,240,Lochgarthside,-4.451,57.24,200
UK,1027,Fort William,-5.103,56.819,496
UK,345,Kilchamaig,-5.505,55.792,200
UK,714,Tain,-4.057,57.811,240
IE,856,Drogheda,-6.346,53.713,288
UK,345,Gualachulain,-5.074,56.564,200
UK,240,Wester Mandally,-4.813,57.066,200
UK,288,Kilkeel,-6.006,54.063,200
IE,288,Dunlavin,-6.701,53.057,200
IE,345,Skerries,-6.12,53.574,200
IE,288,Carnew,-6.503,52.712,200
UK,496,Downpatrick,-5.709,54.326,240
UK,240,Achnaluachrach,-4.239,58.058,200
UK,345,Corrie,-5.141,55.637,200
IE,345,Bray,-6.101,53.196,200
IE,414,Wexford,-6.474,52.328,345
IE,714,Arklow,-6.158,52.798,288
UK,1027,Inverness,-4.229,57.464,856
IE,345,Wicklow,-6.055,52.974,200
UK,414,Greenock,-4.781,55.949,240
UK,240,Bridge of Ericht,-4.417,56.693,240
UK,240,Kenknock,-4.489,56.498,240
UK,714,Stranraer,-5.024,54.899,414
UK,414,Aultibea,-3.625,58.193,288
UK,2127,Belfast,-5.927,54.596,1027
UK,288,Ballycarry,-5.748,54.772,200
UK,288,Boath,-4.4,57.734,200
GP,345,La Désirade,-61.075,16.304,288
GP,3674,Les Abymes,-61.504,16.271,1478
UK,414,Dalwhinnie,-4.243,56.938,240
UK,2127,Thurso,-3.526,58.591,714
UK,595,Ayr,-4.623,55.444,240
UK,345,Cock Bridge,-3.229,57.167,240
UK,714,Kirkwall,-2.957,58.979,288
UK,240,Bladnoch,-4.458,54.86,200
UK,414,Wick,-3.083,58.445,200
UK,414,Cairngaan,-4.9,54.649,200
UK,288,Veness,-2.744,59.151,200
UK,595,Andreas,-4.443,54.368,288
UK,288,Kilmarnock,-4.496,55.607,200
GP,1027,Grand-Bourg,-61.315,15.883,414
GP,414,Terre-de-Haut,-61.581,15.867,200
UK,240,Callander,-4.21,56.242,200
UK,345,Hurliness,-3.243,58.785,200
UK,240,Carseriggan,-4.634,54.976,200
UK,4408,Glasgow,-4.231,55.801,1773
UK,240,Dalcairney,-4.416,55.311,200
UK,240,Auchnafree,-3.916,56.481,200
UK,240,Clyth,-3.247,58.305,200
UK,595,Pitlochry,-3.73,56.706,240
UK,496,Crieff,-3.838,56.374,200
UK,288,Peel,-4.685,54.221,288
UK,496,Port St Mary,-4.737,54.074,414
UK,288,Muir,-3.538,56.988,200
UK,496,Alloa,-3.786,56.119,240
UK,288,Redding,-3.732,55.988,200
UK,240,Laxey,-4.401,54.231,240
UK,714,The Town,-6.353,49.951,595
UK,345,Hollandstoun,-2.432,59.364,288
UK,345,Kirkcudbright,-4.046,54.838,240
UK,288,Buckie,-2.961,57.673,200
UK,288,Holyhead,-4.632,53.308,240
UK,595,Aviemore,-3.826,57.198,240
UK,345,Cumnock,-4.262,55.451,200
UK,240,Garryhorn,-4.289,55.215,200
UK,496,Elgin,-3.313,57.648,414
UK,345,Knockando,-3.353,57.461,200
UK,414,Da Hametoon,-2.067,60.12,345
UK,496,Glenrothes,-3.18,56.196,200
UK,496,Ringasta,-1.326,59.912,200
UK,240,Huntly,-2.787,57.447,200
UK,288,Turriff,-2.459,57.539,200
UK,595,Whitehaven,-3.577,54.542,345
MQ,39285,Fort-de-France,-61.068,14.607,32738
UK,240,Jamestown,-3.1,55.261,200
UK,414,Collafirth,-1.223,60.4,200
UK,240,Langholm,-3,55.152,200
UK,1027,Cullivoe,-1.01,60.704,414
ES,345,Camariñas,-9.182,43.134,200
ES,1232,Cee,-9.188,42.955,200
UK,496,Dumfries,-3.606,55.069,288
MQ,345,Le Lorrain,-61.055,14.833,200
UK,595,Haverfordwest,-4.979,51.798,496
UK,496,Moffat,-3.439,55.334,200
UK,714,Edinburgh,-3.199,55.938,496
UK,1027,Dundee,-2.972,56.476,414
UK,345,Forfar,-2.889,56.642,200
UK,288,Ure,-1.589,60.503,288
UK,288,Pembroke,-4.914,51.676,200
UK,496,Cardigan,-4.66,52.085,200
UK,345,Bangor,-4.138,53.223,200
UK,345,Maryport,-3.49,54.711,200
UK,240,Gair,-3.14,55.375,200
UK,1232,Stonybreck,-1.638,59.524,496
UK,288,Inverurie,-2.386,57.287,200
UK,345,Seascale,-3.476,54.392,200
MQ,595,Le Marin,-60.87,14.471,240
UK,856,Camborne,-5.297,50.207,595
UK,240,Cei-bach,-4.329,52.21,200
UK,345,Tywyn,-4.092,52.584,200
UK,856,Galashiels,-2.794,55.611,288
UK,240,Llanrwst,-3.796,53.142,200
UK,414,Fraserburgh,-2.016,57.687,200
UK,414,Colwyn Bay,-3.721,53.291,414
UK,1232,Aberystwyth,-4.062,52.41,595
UK,288,Carmarthen,-4.312,51.858,200
UK,345,Stonehaven,-2.218,56.967,200
UK,3674,Lerwick,-1.156,60.157,856
UK,345,Hawick,-2.782,55.428,200
UK,2552,Aberdeen,-2.121,57.16,856
UK,856,Carlisle,-2.933,54.887,595
UK,240,Tresta,-0.886,60.594,240
UK,240,Aberhosan,-3.754,52.561,200
UK,856,Bala,-3.597,52.912,200
UK,496,Deadwater,-2.62,55.266,200
UK,595,Peterhead,-1.793,57.491,240
UK,345,St Austell,-4.781,50.345,288
UK,1027,Bude,-4.539,50.825,200
UK,414,Penrith,-2.746,54.664,200
ES,240,Padrón,-8.659,42.737,200
UK,240,Llandrindod Wells,-3.375,52.232,240
UK,345,Kirkby Stephen,-2.349,54.473,200
UK,240,High Birkwith,-2.307,54.185,200
UK,240,Newchurch,-3.145,52.149,200
ES,240,Carballo,-8.691,43.212,200
ES,496,Vilalba,-7.678,43.297,200
UK,856,Blackpool,-3.02,53.808,345
UK,595,Llandovery,-3.798,51.995,240
UK,856,Swansea,-3.947,51.642,345
ES,240,Noia,-8.886,42.785,200
UK,496,Morecambe,-2.854,54.066,200
UK,240,Hollacombe,-4.3,50.802,200
UK,595,Kendal,-2.738,54.327,200
UK,240,Launceston,-4.363,50.638,200
UK,288,Haltwhistle,-2.463,54.971,240
UK,240,Eyemouth,-2.094,55.87,200
ES,4408,A Coruña,-8.409,43.365,1478
UK,496,Barnstaple,-4.057,51.08,345
UK,414,Berwick-upon-Tweed,-2.012,55.761,345
PT,9138,Câmara de Lobos,-16.976,32.649,3674
ES,240,Carral,-8.355,43.228,200
UK,414,Newtown,-3.316,52.515,288
ES,240,Vilagarcía,-8.763,42.597,200
UK,2127,Liverpool,-2.911,53.409,856
ES,240,Neda,-8.158,43.499,200
ES,345,Santiago de Compostela,-8.539,42.879,345
ES,345,Ordes,-8.403,43.079,200
UK,288,Earle,-2.018,55.531,200
UK,345,Tavistock,-4.142,50.545,200
UK,288,Porthcawl,-3.695,51.484,200
UK,414,Chester,-2.893,53.198,200
UK,240,Sykes,-2.561,53.958,200
FR,414,Ouessant,-5.096,48.455,288
UK,1773,Plymouth,-4.105,50.35,856
ES,345,Pontevedra,-8.64,42.428,200
ES,2127,Vigo,-8.726,42.229,856
UK,414,Mountain Ash,-3.378,51.682,200
ES,240,As Pontes de García Rodríguez,-7.86,43.452,240
ES,414,A Guarda,-8.874,41.901,200
ES,288,Teixeiro,-8.036,43.14,200
UK,345,Settle,-2.278,54.068,240
UK,288,North Sunderland,-1.656,55.579,200
UK,595,Alnwick,-1.7,55.409,288
ES,240,Ponteareas,-8.504,42.173,200
PT,496,Viana do Castelo,-8.824,41.701,200
ES,714,Lalín,-8.11,42.66,200
UK,414,Cardiff,-3.177,51.501,288
UK,595,Exeter,-3.524,50.723,345
UK,240,Crewe,-2.45,53.098,200
ES,856,Burela,-7.362,43.661,496
UK,2127,Newcastle upon Tyne,-1.629,54.989,856
FR,414,Plouguerneau,-4.503,48.606,200
UK,288,Leominster,-2.748,52.226,240
ES,345,Xinzo de Limia,-7.725,42.064,200
UK,240,Stroud,-2.227,51.739,200
UK,856,Sheffield,-1.448,53.388,714
ES,714,Lugo,-7.556,43.011,414
ES,240,O Carballiño,-8.076,42.432,200
ES,240,Rábade,-7.62,43.123,200
ES,288,Monterroso,-7.833,42.793,200
UK,414,Torquay,-3.52,50.458,200
UK,414,Stoke-on-Trent,-2.151,53.01,414
UK,288,Stafford,-2.104,52.804,200
UK,1773,Bristol,-2.593,51.442,714
UK,496,Telford,-2.478,52.672,240
ES,240,Becerreá,-7.162,42.854,200
UK,414,Stockport,-2.153,53.402,288
UK,240,Exmouth,-3.395,50.611,200
ES,240,Mondoñedo,-7.359,43.43,200
FR,3062,Brest,-4.484,48.391,1478
PT,288,Nazaré,-9.068,39.601,200
UK,414,York,-1.086,53.959,240
UK,240,Derby,-1.468,52.918,200
ES,345,O Barco,-6.986,42.417,240
ES,345,Trado,-8.15,42.175,200
PT,240,Barral,-8.34,41.802,200
UK,496,Taunton,-3.102,51.02,240
ES,240,Chantada,-7.768,42.61,200
UK,288,Marsden,-1.925,53.602,200
UK,240,Sunderland,-1.402,54.886,200
ES,1027,Ourense,-7.864,42.341,496
PT,714,Braga,-8.411,41.525,240
PT,5289,Porto,-8.621,41.161,1773
ES,240,Ribadeo,-7.044,43.536,200
UK,345,Chepstow,-2.679,51.637,200
ES,240,Bande,-7.974,42.032,200
FR,414,Saint-Nic,-4.281,48.202,200
ES,288,Allariz,-7.802,42.19,200
ES,496,Sarria,-7.411,42.779,200
UK,240,Harrogate,-1.531,53.992,200
ES,345,Monforte de Lemos,-7.511,42.522,240
PT,345,Vilela,-8.105,41.622,200
ES,288,A Fonsagrada,-7.067,43.125,200
UK,496,Worcester,-2.211,52.189,200
UK,714,Leeds,-1.546,53.744,288
UK,345,Wells,-2.643,51.211,200
ES,240,San Martín de Oscos,-6.961,43.266,200
UK,595,Thirsk,-1.347,54.23,200
UK,1027,Middlesbrough,-1.213,54.546,414
PT,496,São João da Madeira,-8.492,40.896,200
ES,496,Navia,-6.721,43.541,200
PT,1027,Aveiro,-8.635,40.634,345
FR,288,Morlaix,-3.827,48.578,200
ES,240,Baltar,-7.715,41.951,200
PT,240,Montalegre,-7.786,41.828,200
FR,856,Quimper,-4.101,47.996,345
UK,714,Gloucester,-2.224,51.86,288
UK,345,Yeovil,-2.635,50.946,240
PT,288,Lordelo,-7.986,41.407,200
UK,2127,Birmingham,-1.872,52.478,856
PT,345,Cantanhede,-8.597,40.35,200
PT,288,Murta,-8.469,40.511,200
ES,414,Verín,-7.434,41.941,200
FR,1027,Lannion,-3.458,48.732,345
PT,496,Caldas da Rainha,-9.144,39.413,240
ES,414,Cangas del Narcea,-6.549,43.176,345
PT,714,Chaves,-7.47,41.747,345
UK,288,Gillingham,-2.275,51.039,200
UK,714,Weymouth,-2.456,50.602,345
UK,345,Selby,-1.067,53.781,200
PT,496,Vila Real,-7.731,41.299,345
FR,345,Carhaix-Plouguer,-3.573,48.276,288
PT,714,Leiria,-8.808,39.742,288
ES,345,Viana do Bolo,-7.11,42.181,200
PT,345,Torres Vedras,-9.255,39.09,200
FR,288,Gourin,-3.605,48.14,200
PT,2127,Coimbra,-8.445,40.192,856
PT,288,Pombal,-8.62,39.917,200
ES,240,A Gudiña,-7.14,42.061,200
UK,414,Oxford,-1.246,51.736,240
PT,288,Britiande,-7.793,41.058,200
ES,345,Fabero,-6.624,42.768,200
PT,240,Fátima,-8.673,39.628,200
ES,240,Avilés,-5.923,43.552,200
UK,345,Marlborough,-1.731,51.419,200
UK,345,Rugby,-1.248,52.378,200
UK,288,Malton,-0.797,54.138,200
PT,345,Seia,-7.709,40.419,200
UK,414,Mansfield,-1.193,53.141,200
PT,240,Vila de Rei,-8.146,39.676,200
ES,240,Los Sauces,-17.773,28.803,200
UK,240,Whitby,-0.627,54.485,200
ES,414,La Robla,-5.628,42.804,200
PT,414,Mora,-8.158,38.944,240
PT,345,Valpaços,-7.306,41.603,200
UK,595,Swindon,-1.783,51.572,414
PT,595,Viseu,-7.906,40.662,345
UK,714,Nottingham,-1.167,52.908,240
PT,240,Lousã,-8.249,40.116,200
ES,288,Pola de Somiedo,-6.255,43.094,200
ES,714,Ponferrada,-6.595,42.55,496
FR,240,Guingamp,-3.147,48.561,200
PT,288,Moimenta,-6.975,41.951,200
ES,714,Villablino,-6.319,42.94,200
UK,288,Retford,-0.944,53.315,200
PT,345,Tábua,-8.023,40.353,200
PT,240,Lamas,-7.691,40.792,200
PT,240,Vila,-8.332,39.876,200
PT,240,Vilar,-7.549,40.98,200
PT,288,Alverca do Ribatejo,-9.032,38.892,200
UK,595,Lake,-1.81,51.15,200
PT,240,Espinho,-7.421,41.14,200
ES,240,La Baña,-6.671,42.268,200
PT,3674,Lisboa,-9.136,38.724,1773
UK,414,Leicester,-1.128,52.618,414
PT,496,Santarém,-8.7,39.244,345
UK,345,Banbury,-1.338,52.063,240
UK,714,Scarborough,-0.411,54.279,345
PT,240,Tomar,-8.405,39.603,200
FR,714,Lorient,-3.365,47.748,345
PT,345,Entroncamento,-8.477,39.464,200
ES,288,Oviedo,-5.85,43.363,200
UK,288,Bournemouth,-1.836,50.74,240
ES,345,Puebla de Sanabria,-6.632,42.054,200
FR,240,Binic-Étables-sur-Mer,-2.834,48.627,200
ES,1773,Gijón/Xixón,-5.67,43.53,1478
ES,240,Torrebarrio,-5.993,43.007,200
PT,1027,Bragança,-6.767,41.8,595
PT,496,Macedo de Cavaleiros,-6.949,41.505,200
UK,240,Newton,-1.663,51.003,200
PT,595,Sertã,-8.093,39.806,240
ES,345,Lucillo,-6.304,42.409,200
PT,595,Vila Nova de Foz Côa,-7.144,41.078,288
UK,288,Andover,-1.483,51.211,200
FR,414,Saint-Brieuc,-2.763,48.514,414
FR,595,Pontivy,-2.967,48.064,240
PT,496,Setúbal,-8.887,38.531,200
UK,240,Didcot,-1.243,51.609,200
UK,496,Lincoln,-0.555,53.211,345
UK,414,Bridlington,-0.198,54.092,200
UK,714,Kingston upon Hull,-0.33,53.758,595
ES,2552,Santa Cruz de la Palma,-17.765,28.683,714
PT,240,Erra,-8.45,38.998,200
ES,414,Pola de Laviana,-5.562,43.245,200
UK,714,Northampton,-0.878,52.237,345
PT,414,Covilhã,-7.496,40.278,200
FR,288,Le Palais,-3.156,47.347,240
UK,1027,Southampton,-1.397,50.921,496
PT,414,Mogadouro,-6.705,41.342,200
PT,1027,Guarda,-7.249,40.529,496
PT,414,Pinhel,-7.069,40.771,200
UK,288,Kettering,-0.714,52.399,200
PT,240,Figueira de Castelo Rodrigo,-6.97,40.9,200
ES,288,Felechosa,-5.507,43.104,200
UK,288,Pitchcott,-0.876,51.875,200
PT,414,Vendas Novas,-8.46,38.676,288
PT,345,Ponte de Sôr,-8.013,39.259,240
UK,288,Milton Keynes,-0.766,52.016,200
UK,288,Basingstoke,-1.095,51.263,200
ES,240,Aldeadávila de la Ribera,-6.618,41.217,200
ES,496,La Bañeza,-5.899,42.298,240
UK,496,Grimsby,-0.092,53.554,200
UK,595,Reading,-0.967,51.451,414
FR,414,Vannes,-2.76,47.658,288
PT,1027,Sines,-8.857,37.958,496
PT,856,Castelo Branco,-7.489,39.823,496
PT,345,Alcácer do Sal,-8.51,38.385,200
FR,288,Sarzeau,-2.768,47.528,200
PT,345,Sabugal,-7.079,40.352,200
ES,240,Valsalabroso,-6.502,41.109,200
UK,345,Ely,0.263,52.397,200
FR,414,Ploërmel,-2.396,47.929,240
PT,345,Nisa,-7.646,39.513,200
UK,288,Horncastle,-0.114,53.197,200
ES,1773,León,-5.571,42.599,595
PT,414,Fronteira,-7.644,39.051,200
FR,240,Ruffiac,-2.281,47.819,200
ES,288,Vallehermoso,-17.265,28.18,200
ES,1027,Zamora,-5.741,41.507,414
ES,240,Beleño,-5.162,43.19,200
UK,414,Louth,0,53.372,200
UK,345,King's Lynn,0.419,52.755,345
FR,595,Cherbourg-en-Cotentin,-1.623,49.642,595
PT,240,Porto Covo,-8.787,37.854,200
UK,288,Portsmouth,-1.068,50.807,200
PT,288,Avis,-7.889,39.048,200
PT,240,Reguengo,-8.204,38.611,200
ES,345,Carrión de los Condes,-4.603,42.338,200
ES,288,Tábara,-5.958,41.824,200
UK,595,Peterborough,-0.258,52.581,345
FR,1232,Saint-Malo,-2.022,48.652,496
UK,595,Boston,-0.019,52.963,200
ES,1478,Valverde,-17.914,27.809,595
FR,345,Dinan,-2.046,48.454,200
UK,856,Luton,-0.428,51.894,288
ES,496,Valverde del Fresno,-6.877,40.221,240
ES,856,Benavente,-5.677,42.006,414
PT,345,Vimieiro,-7.839,38.831,200
PT,288,Torrão,-8.223,38.293,200
UK,240,Elstead,-0.701,51.184,200
ES,496,Llanes,-4.759,43.422,414
UK,240,Iver Heath,-0.525,51.539,200
ES,288,La Restinga,-17.98,27.641,200
FR,496,La Haye,-1.544,49.291,200
ES,414,Riaño,-5.005,42.976,240
UK,345,Midhurst,-0.742,50.983,200
ES,496,Ciudad Rodrigo,-6.529,40.6,414
PT,714,Portalegre,-7.43,39.283,414
PT,414,São Teotónio,-8.709,37.512,200
UK,240,Watford,-0.402,51.671,200
UK,345,Woking,-0.553,51.311,200
PT,1027,Évora,-7.91,38.569,595
PT,240,Fornalhas Velhas,-8.415,37.842,240
ES,345,Villafáfila,-5.614,41.846,200
ES,288,Buenamadre,-6.249,40.857,200
PT,288,Aguiar,-7.965,38.394,200
ES,345,Almanza,-5.036,42.658,200
ES,345,Ledesma,-6.001,41.088,200
ES,240,Izagre,-5.256,42.224,200
FR,240,Coutances,-1.445,49.048,200
ES,496,Potes,-4.621,43.155,240
ES,345,San Sebastián de la Gomera,-17.114,28.089,345
PT,240,Arronches,-7.281,39.123,200
FR,856,Redon,-2.083,47.651,200
ES,240,Ceclavín,-6.771,39.822,200
ES,288,Corrales,-5.724,41.359,200
PT,345,Monchique,-8.554,37.31,200
ES,288,Sahagún,-5.031,42.371,200
FR,345,Saint-Nazaire,-2.213,47.273,345
PT,288,Cuba,-7.894,38.167,200
FR,288,Guignen,-1.861,47.919,200
UK,496,Cambridge,0.135,52.206,288
PT,288,Vila Viçosa,-7.417,38.775,200
FR,288,Pontchâteau,-2.089,47.437,200
ES,496,Coria,-6.538,39.986,288
ES,414,Brozas,-6.778,39.612,200
FR,595,L'Épine,-2.265,46.979,200
FR,1773,Rennes,-1.679,48.112,714
UK,6346,London,-0.086,51.513,2127
ES,288,Alburquerque,-7.003,39.221,240
PT,496,Portimão,-8.536,37.133,345
PT,1478,Beja,-7.859,38.017,414
ES,288,La Alberca,-6.108,40.489,200
PT,288,Albernoa,-7.958,37.861,200
PT,414,Reguengos de Monsaraz,-7.536,38.426,200
ES,345,Topas,-5.634,41.157,200
ES,345,Toro,-5.394,41.524,200
ES,288,Vecinos,-5.877,40.779,200
UK,496,Crawley,-0.184,51.116,240
ES,714,Saldaña,-4.734,42.522,345
FR,240,Guémené-Penfao,-1.833,47.629,200
FR,496,Saint-Lô,-1.089,49.116,414
ES,1027,Salamanca,-5.667,40.966,714
ES,1232,Santa Cruz de Tenerife,-16.267,28.462,496
ES,240,Medina de Rioseco,-5.041,41.883,240
PT,856,Almodôvar,-8.06,37.515,345
ES,240,Puertito de Güímar,-16.375,28.295,200
ES,240,Villar del Rey,-6.847,39.132,200
UK,595,Brighton and Hove,-0.177,50.838,496
ES,345,San Isidro,-16.557,28.078,288
FR,345,Janzé,-1.497,47.959,200
ES,288,Olivenza,-7.098,38.684,200
ES,2127,Badajoz,-6.959,38.873,1232
PT,496,Moura,-7.448,38.139,288
FR,414,Fougères,-1.203,48.352,240
ES,856,Miajadas,-5.909,39.151,200
ES,1773,Plasencia,-6.085,40.036,414
FR,496,Mayenne,-0.62,48.306,200
UK,240,Fakenham,0.859,52.834,200
ES,345,Paredes de Nava,-4.691,42.153,200
FR,240,Saint-Hilaire-de-Riez,-1.945,46.72,200
FR,240,Châteaubriant,-1.375,47.721,240
ES,496,Talaván,-6.281,39.715,200
FR,240,Saint-Hilaire-du-Harcouët,-1.091,48.577,200
ES,2552,Valladolid,-4.731,41.65,1027
UK,288,Sudbury,0.731,52.043,200
PT,240,Pias,-7.477,38.022,200
ES,1027,Reinosa,-4.137,43,345
ES,414,Aguilar de Campoo,-4.26,42.795,200
FR,240,Le Hom,-0.478,48.986,200
PT,240,Santa Iria,-7.561,37.89,200
ES,345,Ampuero,-3.413,43.345,240
ES,345,Guijuelo,-5.671,40.556,200
ES,414,Fregenal de la Sierra,-6.652,38.167,200
ES,714,Santander,-3.822,43.463,496
FR,240,Bayeux,-0.702,49.276,200
ES,595,Béjar,-5.764,40.386,240
ES,1232,Burgos,-3.673,42.354,595
ES,1027,Cáceres,-6.371,39.475,496
FR,595,Vire Normandie,-0.887,48.838,240
FR,240,Challans,-1.878,46.845,240
ES,288,Sarón,-3.853,43.324,200
PT,345,Mértola,-7.661,37.642,288
UK,345,Thetford,0.749,52.415,288
PT,240,Amareleja,-7.227,38.209,200
PT,288,Martim Longo,-7.765,37.439,200
PT,288,Sobral da Adiça,-7.26,38.022,200
FR,3674,Nantes,-1.553,47.218,2127
ES,714,Palencia,-4.53,42.009,240
ES,414,Macotera,-5.285,40.83,200
ES,240,Jaraíz de la Vera,-5.756,40.058,200
PT,2552,Faro,-7.929,37.021,714
ES,595,Medina del Campo,-4.914,41.307,240
ES,288,Martínez,-5.347,40.63,200
UK,240,South Woodham Ferrers,0.612,51.644,200
ES,240,Valoria la Buena,-4.533,41.799,200
UK,240,Eastbourne,0.287,50.771,240
FR,240,Gorron,-0.812,48.412,200
FR,288,Les Sables-d'Olonne,-1.784,46.497,200
ES,240,Alcuéscar,-6.23,39.182,200
UK,496,Maidstone,0.531,51.268,200
ES,288,Piedrahíta,-5.324,40.465,200
ES,240,Villadiego,-4.009,42.515,200
FR,595,Caen,-0.372,49.181,288
FR,240,Flers,-0.575,48.75,200
PT,414,Odeleite,-7.488,37.335,200
UK,595,Southend-on-Sea,0.72,51.543,414
UK,240,Cromer,1.302,52.924,200
ES,240,Gáldar,-15.649,28.146,200
ES,595,Almendralejo,-6.405,38.683,288
ES,288,Don Álvaro,-6.273,38.848,200
UK,1773,Norwich,1.282,52.632,856
FR,714,Laval,-0.773,48.071,496
ES,288,Navalmoral de la Mata,-5.539,39.894,288
ES,288,Torrecillas de la Tiesa,-5.742,39.567,200
UK,345,North Walsham,1.388,52.821,200
ES,414,Hoyos del Espino,-5.175,40.357,200
ES,496,Arévalo,-4.714,41.054,240
FR,714,La Roche-sur-Yon,-1.427,46.67,414
FR,414,Segré-en-Anjou Bleu,-0.873,47.686,200
ES,496,Madroñera,-5.756,39.424,200
ES,345,Medina de Pomar,-3.487,42.932,345
ES,288,Mogán,-15.723,27.883,200
ES,240,Villafranca de los Barros,-6.336,38.561,200
UK,1027,Ipswich,1.165,52.038,345
ES,9138,Las Palmas de Gran Canaria,-15.43,28.119,7615
ES,496,Zafra,-6.411,38.423,200
FR,240,Falaise,-0.201,48.894,200
FR,240,Château-Gontier-sur-Mayenne,-0.706,47.826,200
FR,1773,Le Havre,0.108,49.494,1027
ES,288,Cuéllar,-4.312,41.401,240
ES,345,Langayo,-4.198,41.57,200
ES,288,Trespaderne,-3.386,42.803,200
ES,345,Don Benito,-5.861,38.957,345
ES,595,San Fernando,-15.58,27.768,240
ES,1027,Ávila,-4.697,40.65,496
ES,595,Aracena,-6.564,37.892,240
FR,496,Fécamp,0.381,49.756,200
FR,288,Les Herbiers,-1.013,46.869,200
ES,595,Lerma,-3.757,42.025,240
ES,595,Valverde del Camino,-6.752,37.573,200
ES,288,Logrosán,-5.49,39.336,200
FR,595,Cholet,-0.878,47.059,288
ES,240,Campofrío,-6.573,37.767,200
ES,595,Huelva,-6.939,37.267,595
FR,414,Argentan,-0.015,48.744,240
ES,2552,Bilbao,-2.933,43.261,1478
ES,345,Llera,-6.056,38.446,200
ES,240,Villacastín,-4.412,40.779,200
UK,345,Lowestoft,1.725,52.489,200
UK,345,Sizewell,1.617,52.207,240
FR,856,Angers,-0.547,47.471,595
FR,714,Rouen,1.1,49.444,496
NO,240,Kalvåg,4.872,61.767,200
FR,240,Brissac Loire Aubance,-0.448,47.357,200
FR,345,Sées,0.172,48.606,200
ES,414,Almonte,-6.516,37.261,288
NO,1027,Måløy,5.112,61.938,288
ES,240,Delika,-2.988,42.969,200
FR,240,Barentin,0.953,49.546,200
ES,288,Navalvillar de Pela,-5.467,39.091,200
ES,288,Campanario,-5.616,38.862,200
ES,240,Duruelo de la Sierra,-2.932,41.954,200
FR,856,La Rochelle,-1.15,46.16,856
NO,288,Larsnes,5.579,62.204,200
FR,414,Calais,1.855,50.953,288
UK,414,Margate,1.359,51.379,288
NO,240,Ulsteinvik,5.851,62.345,200
ES,714,Jerez de la Frontera,-6.127,36.69,496
ES,595,Talavera de la Reina,-4.815,39.966,595
ES,595,Pozoblanco,-4.847,38.379,414
ES,288,Mazagón,-6.809,37.132,200
ES,595,Aranda de Duero,-3.687,41.673,496
ES,288,Fuentenebro,-3.755,41.53,200
ES,496,Cantalejo,-3.925,41.258,200
FR,856,Alençon,0.082,48.43,345
ES,714,Segovia,-4.112,40.944,414
FR,240,Envronville,0.67,49.66,200
FR,288,Antigny,-0.769,46.621,200
FR,414,Ségrie,0.027,48.2,200
ES,496,Caleta de Sebo,-13.502,29.231,200
ES,240,Montaña Roja,-13.859,28.862,200
FR,345,Fontenay-le-Comte,-0.805,46.466,200
ES,714,Castilblanco,-5.089,39.286,240
ES,240,Salas de los Infantes,-3.285,42.022,200
NO,496,Florø,5.033,61.599,288
ES,240,Corralejo,-13.868,28.74,200
ES,595,Guadarrama,-4.085,40.672,240
ES,288,Escalona,-4.404,40.168,240
FR,288,Routot,0.732,49.379,200
ES,345,Ondarroa,-2.431,43.321,240
ES,288,Guadalcanal,-5.817,38.092,200
FR,414,Bressuire,-0.492,46.842,200
FR,496,Rochefort,-0.961,45.937,200
ES,496,Ezcaray,-3.014,42.326,200
ES,288,Anchuras,-4.836,39.48,200
ES,414,Azuaga,-5.677,38.26,345
ES,714,Arrecife,-13.551,28.966,714
ES,414,Haro,-2.849,42.573,200
ES,856,Vitoria-Gasteiz,-2.679,42.85,345
ES,288,El Rocío,-6.481,37.134,200
FR,414,Baugé-en-Anjou,-0.1,47.54,240
FR,714,Dieppe,1.078,49.923,414
FR,1478,Le Mans,0.197,48.008,496
ES,240,Castilblanco de los Arroyos,-5.987,37.675,240
FR,240,Surgères,-0.75,46.105,200
ES,714,Morro Jable,-14.352,28.054,414
ES,496,Siruela,-5.048,38.978,200
ES,595,Puerto del Rosario,-13.861,28.499,288
FR,414,L'Aigle,0.629,48.765,288
NO,345,Svelgen,5.297,61.769,200
FR,496,Saumur,-0.075,47.26,240
ES,414,Buitrago del Lozoya,-3.636,40.992,240
FR,345,Mortagne-au-Perche,0.546,48.52,200
ES,288,San Leonardo de Yagüe,-3.062,41.829,200
ES,345,Navahermosa,-4.471,39.634,288
FR,414,Boulogne-sur-Mer,1.613,50.725,200
ES,288,Belalcázar,-5.166,38.575,200
FR,414,Niort,-0.464,46.324,414
NO,240,Bryggja,5.451,61.941,200
ES,5289,Sevilla,-5.972,37.388,2127
NO,714,Lindås,5.153,60.735,288
ES,496,Constantina,-5.619,37.872,200
FR,595,Lesparre-Médoc,-0.935,45.306,288
ES,288,Beasain,-2.201,43.046,200
FR,288,Eu,1.417,50.049,200
ES,240,Sanlúcar de Barrameda,-6.35,36.776,200
FR,1232,Berck,1.593,50.408,240
ES,345,Burgo de Osma,-3.065,41.587,288
ES,240,Montejo de Tiermes,-3.198,41.368,200
FR,414,Lacanau,-1.075,44.978,240
NO,345,Dale,5.396,61.36,200
ES,345,San Agustín del Guadalix,-3.616,40.681,200
FR,595,Saintes,-0.633,45.744,345
ES,240,Dos Hermanas,-5.926,37.281,200
FR,288,Saint-Jean-d'Angély,-0.518,45.945,200
ES,414,Belmez,-5.207,38.271,200
ES,714,Donostia/San Sebastián,-1.974,43.313,414
ES,345,Recas,-3.989,40.053,200
ES,595,Almadén,-4.831,38.775,288
ES,1773,Logroño,-2.45,42.461,345
FR,240,Montval-sur-Loir,0.419,47.695,240
ES,240,Altsasu/Alsasua,-2.169,42.895,200
ES,15789,Madrid,-3.676,40.427,6346
FR,288,La Teste-de-Buch,-1.148,44.631,288
ES,414,Toledo,-4.026,39.867,414
FR,856,Évreux,1.152,49.027,345
FR,288,Nogent-le-Rotrou,0.822,48.322,240
NO,3674,Bergen,5.325,60.393,2127
ES,288,Cádiz,-6.28,36.518,200
FR,714,Biscarrosse,-1.166,44.396,200
FR,288,Melle,-0.142,46.223,200
FR,414,Mimizan,-1.227,44.2,200
ES,345,Sonseca,-3.977,39.677,200
ES,288,Villaviciosa de Córdoba,-5.015,38.075,200
ES,345,Palma del Río,-5.278,37.699,200
NO,288,Fitjar,5.326,59.921,200
NO,595,Ørsta,6.127,62.201,240
FR,288,Barbezieux-Saint-Hilaire,-0.155,45.472,200
FR,288,Capbreton,-1.431,43.64,240
FR,856,Beauvais,2.082,49.43,345
ES,345,Arganda del Rey,-3.44,40.299,200
NO,288,Skodje,6.704,62.504,200
NO,240,Sveio,5.341,59.539,200
FR,240,Cognac,-0.325,45.698,200
NO,288,Skudeneshamn,5.265,59.151,200
NO,2127,Ålesund,6.159,62.474,1478
ES,240,Villamartín,-5.643,36.86,200
FR,1478,Poitiers,0.341,46.58,595
ES,288,Alcalá de Henares,-3.365,40.487,200
NO,714,Leirvik,5.502,59.784,288
ES,288,Villarejo de Salvanés,-3.276,40.169,200
FR,496,Abbeville,1.834,50.106,240
ES,240,Gómara,-2.224,41.624,200
ES,240,Tardelcuende,-2.643,41.594,200
FR,714,Chartres,1.489,48.444,496
FR,240,Luxey,-0.517,44.264,200
ES,240,Chiclana de la Frontera,-6.15,36.417,200
BE,345,Poperinge,2.728,50.855,200
ES,714,Tarancón,-3.01,40.011,288
FR,345,Linxe,-1.245,43.921,200
FR,288,Osny,2.061,49.066,200
NO,414,Skei,6.483,61.573,200
ES,496,Aranjuez,-3.601,40.031,288
NO,414,Osøyro,5.473,60.185,200
NO,240,Judaberg,5.871,59.166,200
FR,414,Montmorillon,0.868,46.425,200
FR,240,Captieux,-0.261,44.292,200
ES,288,Manzanares,-3.371,38.998,200
ES,345,Abenójar,-4.354,38.879,200
ES,496,Estepona,-5.15,36.427,240
FR,496,Aumale,1.752,49.769,240
NO,240,Sande,5.795,61.323,200
ES,496,Valdepeñas,-3.385,38.765,288
FR,288,Nontron,0.663,45.529,288
ES,1478,Soria,-2.472,41.764,595
FR,288,Mouettes,1.361,48.895,200
FR,100000,Paris,2.338,48.862,100000
ES,414,Porzuna,-4.152,39.148,200
NO,1027,Haugesund,5.287,59.415,414
ES,345,Marchena,-5.416,37.329,200
NO,240,Roald,6.12,62.583,200
NO,1027,Førde,5.848,61.456,856
NO,595,Nordfjordeid,5.995,61.909,240
FR,2127,Tours,0.689,47.391,496
FR,856,Dunkerque,2.377,51.038,345
FR,240,Monts,0.643,47.275,200
NO,288,Kopervik,5.309,59.281,200
FR,595,Dreux,1.371,48.736,240
ES,240,Conil de la Frontera,-6.086,36.279,200
FR,288,Vivonne,0.259,46.426,200
ES,595,Almazán,-2.527,41.486,200
FR,3062,Bordeaux,-0.578,44.838,1232
ES,240,Villasayas,-2.609,41.353,200
ES,414,Morón de la Frontera,-5.452,37.122,288
ES,414,Elizondo,-1.519,43.145,200
FR,288,Rouillac,-0.063,45.775,200
FR,288,Ecques,2.287,50.669,240
FR,288,Saint-André-de-Cubzac,-0.445,44.995,200
ES,414,Calahorra,-1.968,42.307,240
FR,345,Freneuse,1.6,49.048,240
ES,595,Écija,-5.081,37.541,240
ES,496,Pamplona/Iruña,-1.649,42.816,496
FR,414,Châtellerault,0.547,46.818,200
FR,240,Hasparren,-1.305,43.384,200
FR,414,Anvin,2.252,50.446,200
FR,288,Pissos,-0.778,44.307,200
ES,288,Brihuega,-2.869,40.762,240
FR,414,Morcenx-la-Nouvelle,-0.91,44.034,200
ES,288,Turleque,-3.611,39.602,200
ES,1232,Córdoba,-4.778,37.882,856
NO,345,Dale,5.82,60.585,200
ES,288,Eugi,-1.503,42.977,200
NO,288,Haga,5.769,60.386,200
FR,496,Vendôme,1.067,47.794,200
FR,345,Hostens,-0.639,44.492,200
ES,414,Urda,-3.716,39.41,200
ES,1027,Sigüenza,-2.643,41.068,345
FR,714,Ruffec,0.199,46.028,200
FR,595,Dax,-1.051,43.709,345
ES,240,Malagón,-3.851,39.167,200
FR,414,Clérac,-0.228,45.181,200
FR,240,Trie-Château,1.822,49.285,200
ES,414,Barbate,-5.921,36.19,200
ES,2127,Ciudad Real,-3.928,38.983,714
ES,714,Tafalla,-1.676,42.527,200
FR,288,Achy,1.977,49.553,200
NO,496,Høyanger,6.074,61.22,200
NO,288,Sandane,6.217,61.776,200
ES,414,Fuencaliente,-4.304,38.406,200
ES,595,Puertollano,-4.106,38.69,200
FR,288,Amboise,0.984,47.413,200
FR,414,Châteaudun,1.328,48.07,200
FR,240,Bonneval,1.385,48.182,200
FR,240,Archigny,0.653,46.673,200
FR,288,Gambais,1.674,48.773,200
ES,240,Monreal,-1.505,42.705,200
ES,288,Cardeña,-4.325,38.273,200
FR,714,Angoulême,0.156,45.648,595
ES,240,Mestanza,-4.069,38.576,200
FR,288,Lacarre,-1.165,43.19,200
ES,496,Ólvega,-1.983,41.779,240
ES,288,Santa Cruz,-4.633,37.734,200
ES,240,Villarrubia de los Ojos,-3.607,39.22,200
FR,1478,Amiens,2.296,49.894,595
FR,595,Loches,0.998,47.128,200
ES,288,Montoro,-4.381,38.019,200
FR,288,Fleix,0.746,46.554,200
ES,345,Corral de Almaguer,-3.166,39.761,200
ES,288,Pareja,-2.648,40.557,200
ES,414,Montilla,-4.638,37.585,200
FR,345,Pressac,0.567,46.116,200
FR,345,Rambouillet,1.82,48.645,200
FR,240,Charnizay,0.986,46.913,200
FR,345,Langon,-0.244,44.553,240
FR,595,Blois,1.337,47.589,345
NO,414,Bryne,5.653,58.734,200
NO,288,Rosendal,6.014,59.987,200
ES,414,Ronda,-5.16,36.746,240
NO,1773,Stavanger/Sandnes,5.729,58.951,1232
NO,288,Etne,5.943,59.666,200
NO,288,Nedstrand,5.854,59.347,200
FR,414,Orthez,-0.773,43.488,200
NO,496,Norheimsund,6.158,60.372,200
ES,1027,Tudela,-1.606,42.058,414
ES,345,Maranchón,-2.205,41.048,288
ES,345,Sangüesa/Zangoza,-1.281,42.574,240
ES,240,El Hoyo,-3.92,38.41,200
ES,240,Campillos,-4.862,37.047,200
FR,595,Mont-de-Marsan,-0.5,43.891,496
ES,496,Alcázar de San Juan,-3.211,39.39,200
ES,240,Huete,-2.689,40.144,200
ES,345,Quintanar de la Orden,-3.038,39.594,200
ES,856,Algeciras,-5.448,36.133,496
ES,288,Porcuna,-4.183,37.871,200
ES,240,El Burgo,-4.948,36.79,200
FR,240,Roquefort,-0.322,44.034,200
ES,414,Andújar,-4.049,38.04,240
ES,595,Lucena,-4.486,37.409,414
FR,714,Arras,2.779,50.293,240
FR,496,Le Blanc,1.064,46.633,288
NO,288,Stryn,6.718,61.905,240
BE,414,Brugge,3.227,51.208,240
NO,714,Vossevangen,6.422,60.631,414
FR,414,Montdidier,2.567,49.647,200
ES,714,Priego,-2.313,40.449,288
NO,345,Hellesylt,6.861,62.09,200
FR,1232,Lille,3.071,50.63,714
FR,345,Creil,2.473,49.261,200
ES,595,Antequera,-4.562,37.02,240
FR,288,Sarcelles,2.378,48.997,200
FR,595,Périgueux,0.716,45.184,414
NO,288,Stordal,6.993,62.383,200
ES,345,Tauste,-1.253,41.919,200
ES,288,Orés,-1,42.279,200
NO,345,Sand,6.254,59.487,200
FR,414,Marmande,0.167,44.499,240
FR,1232,Orléans,1.909,47.903,714
ES,288,Sotos,-2.162,40.195,200
ES,595,Calatayud,-1.642,41.351,414
ES,288,Colmenar,-4.337,36.905,200
FR,414,Aire-sur-l'Adour,-0.261,43.7,200
BE,288,Tournai,3.387,50.603,200
ES,496,Ceuta,-5.321,35.89,200
NO,345,Eide,7.447,62.919,200
NL,496,Zierikzee,3.913,51.65,288
FR,595,Bellac,1.047,46.121,240
FR,1773,Limoges,1.261,45.826,1027
ES,240,Torrenueva,-3.363,38.641,200
ES,595,Tomelloso,-3.017,39.157,595
FR,345,Vierzon,2.07,47.221,200
NO,1027,Egersund,5.999,58.448,240
FR,1232,Tarbes,0.078,43.233,240
ES,288,Ejea de los Caballeros,-1.133,42.127,288
NO,288,Moi,6.55,58.458,200
ES,496,Santa Elena,-3.538,38.341,200
FR,288,Douai,3.08,50.368,200
NO,496,Sauda,6.356,59.652,345
ES,345,Motilla del Palancar,-1.912,39.562,200
NL,496,Alkmaar,4.75,52.627,200
NL,856,Rotterdam,4.474,51.924,345
ES,288,Hecho,-0.749,42.739,200
NO,288,Lærdalsøyri,7.483,61.098,200
FR,714,Auch,0.583,43.647,345
NO,288,Vikeså,6.08,58.633,200
BE,345,Harelbeke,3.311,50.857,200
FR,240,Château-Thierry,3.402,49.046,240
NO,595,Molde,7.169,62.74,414
FR,240,Dunet,1.29,46.469,200
NO,288,Eidsvåg,8.055,62.776,200
ES,414,Guadix,-3.136,37.299,240
NL,288,Purmerend,4.961,52.507,200
ES,595,Linares,-3.632,38.095,240
FR,595,Bergerac,0.485,44.85,240
FR,595,Pau,-0.37,43.295,595
NO,595,Odda,6.547,60.067,414
ES,288,Pedrola,-1.216,41.789,200
FR,496,Loreux,1.83,47.398,200
ES,856,Jaén,-3.792,37.775,496
FR,345,Arudy,-0.428,43.105,200
FR,496,Évry-Courcouronnes,2.429,48.624,200
NO,345,Gilja,6.253,58.809,200
ES,288,Fuengirola,-4.626,36.541,200
FR,345,Sos,0.14,44.043,200
FR,496,Compiègne,2.826,49.418,345
FR,414,Pithiviers,2.257,48.173,200
FR,288,Néry,2.779,49.282,200
NO,240,Kinsarvik,6.726,60.376,200
ES,595,Alcalá la Real,-3.922,37.46,240
ES,240,Montefrío,-4.006,37.322,200
ES,1773,Málaga,-4.43,36.724,856
FR,240,Aiguillon,0.339,44.302,200
ES,240,Villanueva de los Infantes,-3.012,38.736,240
ES,288,Murillo de Gállego,-0.751,42.336,200
ES,240,La Alberca de Záncara,-2.492,39.515,200
ES,1478,Cuenca,-2.136,40.066,714
FR,345,Cambrai,3.235,50.176,200
FR,240,Vatan,1.809,47.072,200
ES,288,Huétor Tájar,-4.046,37.198,200
FR,414,Châteauroux,1.691,46.811,414
ES,345,Villarrobledo,-2.602,39.268,288
ES,856,Jaca,-0.546,42.573,345
FR,240,Razès,1.345,46.037,200
ES,414,Daroca,-1.411,41.114,200
NO,240,Hauge,6.288,58.344,200
FR,288,Nexon,1.189,45.676,200
ES,414,Tragacete,-1.85,40.349,200
NO,856,Sogndalsfjøra,7.095,61.231,496
ES,240,Úbeda,-3.372,38.013,200
ES,288,Cariñena,-1.224,41.338,240
ES,414,Almedina,-2.953,38.625,200
BE,595,Gent,3.726,51.055,288
BE,240,Ronse,3.601,50.748,240
ES,496,Valera de Abajo,-2.157,39.769,200
FR,496,Meaux,2.878,48.958,240
FR,414,Saint-Yrieix-la-Perche,1.204,45.512,240
FR,345,Vic-en-Bigorre,0.054,43.386,200
FR,856,Saint-Quentin,3.287,49.847,496
NO,345,Røldal,6.822,59.833,200
NL,414,Axel,3.907,51.268,200
FR,595,Valenciennes,3.524,50.358,240
ES,240,Cacín,-3.915,37.059,200
ES,414,Zuera,-0.788,41.867,200
FR,288,Reuilly,2.041,47.085,200
FR,345,Génis,1.162,45.326,200
ES,288,Biescas,-0.318,42.629,200
ES,2552,Zaragoza,-0.894,41.65,1773
FR,288,Lourdes,-0.045,43.092,200
ES,288,Huelma,-3.456,37.648,200
NO,345,Gaupne,7.293,61.405,200
FR,345,Plazac,1.038,45.036,200
ES,288,La Cierva,-1.85,40.056,200
FR,414,Villeneuve-sur-Lot,0.706,44.41,200
ES,288,Valdemeca,-1.742,40.224,200
ES,1478,Calamocha,-1.298,40.916,414
FR,240,Tergnier,3.292,49.656,200
NO,496,Aurlandsvangen,7.19,60.906,200
FR,856,Agen,0.616,44.203,414
ES,414,Munera,-2.479,39.041,200
NO,1027,Kristiansund,7.73,63.112,288
ES,496,Villacarrillo,-3.082,38.116,200
FR,288,Aigurande,1.829,46.434,200
ES,240,Iznalloz,-3.523,37.392,200
ES,288,Jayena,-3.823,36.949,200
NL,1027,Den Helder,4.746,52.95,240
NO,414,Åndalsnes,7.687,62.562,200
FR,345,La Châtre,1.986,46.582,200
ES,856,Granada,-3.602,37.181,595
ES,856,Huesca,-0.407,42.137,345
FR,240,Aubigny-sur-Nère,2.441,47.489,200
NO,414,Tonstad,6.72,58.664,200
NL,414,Leiden,4.503,52.159,200
ES,240,Santa Eulalia,-1.313,40.568,200
FR,414,Montargis,2.731,47.998,288
NO,345,Flekkefjord,6.665,58.295,288
ES,414,Cazorla,-3.002,37.914,200
FR,595,Guéret,1.872,46.169,345
FR,496,Gien,2.625,47.698,240
FR,496,Sarlat-la-Canéda,1.217,44.89,200
FR,414,Montereau-Fault-Yonne,2.956,48.385,200
FR,414,Fleurance,0.663,43.849,200
FR,240,Saint-Martin-d'Auxigny,2.417,47.204,200
ES,288,Cella,-1.284,40.451,200
ES,414,Grañén,-0.367,41.941,200
ES,414,Dúrcal,-3.565,36.988,200
FR,1478,Bourges,2.399,47.081,714
ES,414,Siles,-2.58,38.389,345
ES,414,Quintanar del Rey,-1.926,39.344,288
FR,240,Lannemezan,0.384,43.125,200
FR,595,Laon,3.621,49.565,240
FR,240,Clugnat,2.116,46.308,200
FR,1478,Brive-la-Gaillarde,1.534,45.16,595
ES,240,Víllora,-1.586,39.753,200
FR,240,Maubeuge,3.967,50.28,240
ES,288,Pozo Alcón,-2.934,37.703,200
BE,496,Braine-le-Comte,4.137,50.611,200
BE,714,Antwerpen,4.399,51.221,288
NL,3062,Amsterdam,4.874,52.371,1232
ES,414,Bielsa,0.218,42.634,200
FR,345,Gourdon,1.382,44.737,200
ES,856,Motril,-3.517,36.749,345
NL,240,Dordrecht,4.682,51.809,200
NL,714,Eindhoven,5.472,51.457,496
BE,288,Sint-Truiden,5.186,50.816,200
ES,288,Ademuz,-1.285,40.062,200
FR,288,Toucy,3.294,47.735,200
BE,240,Laneffe,4.494,50.278,200
ES,288,Santiago de la Espada,-2.551,38.111,200
FR,240,Culan,2.35,46.547,200
ES,414,Ayora,-1.056,39.06,200
ES,1027,Teruel,-1.105,40.342,595
NO,856,Evje,7.813,58.587,345
ES,496,Aínsa,0.14,42.416,200
ES,1232,Albacete,-1.858,38.993,856
BE,345,Mechelen,4.481,51.028,200
FR,496,Aubusson,2.17,45.957,200
FR,414,Sens,3.283,48.199,345
ES,414,Landete,-1.368,39.907,345
NL,240,Breda,4.789,51.592,200
ES,414,Baza,-2.773,37.488,414
ES,288,Andorra,-0.448,40.98,200
ES,414,Ugíjar,-3.052,36.964,200
ES,414,Bogarra,-2.211,38.582,200
BE,496,Marcinelle,4.448,50.4,240
NO,595,Valle,7.539,59.212,200
FR,1232,Montluçon,2.607,46.34,496
FR,240,Champoulet,2.921,47.659,200
FR,288,Fismes,3.68,49.307,200
FR,240,Giat,2.468,45.802,200
NL,240,Hoorn,5.072,52.653,200
NO,240,Øvre Årdal,7.805,61.309,240
BE,3674,Bruxelles/Brussel,4.352,50.847,1478
NL,414,Leeuwarden,5.807,53.204,345
FR,414,Caylus,1.769,44.236,200
FR,288,Dun-sur-Auron,2.572,46.888,200
NO,414,Hovden,7.36,59.561,240
ES,288,Yeste,-2.319,38.367,200
FR,496,Rethel,4.365,49.509,200
NL,240,'s-Hertogenbosch,5.296,51.697,200
FR,345,Bessières,1.606,43.8,200
BE,240,Bost,4.941,50.79,200
ES,288,Sariñena,-0.156,41.794,240
FR,414,Saint-Amand-Montrond,2.507,46.721,288
FR,496,Givet,4.824,50.136,240
NO,288,Bykle,7.333,59.35,200
NL,240,Schoonhoven,4.849,51.95,200
ES,714,Lorca,-1.692,37.678,414
FR,288,Peyrelevade,2.05,45.706,200
ES,240,Sástago,-0.348,41.322,200
FR,595,Cosne-Cours-sur-Loire,2.925,47.41,240
FR,288,Cahors,1.441,44.447,288
FR,414,Hirson,4.084,49.92,288
NO,240,Lyngdal,7.068,58.137,200
FR,496,Saint-Gaudens,0.724,43.107,345
ES,595,Aliaga,-0.702,40.673,200
ES,714,Huéscar,-2.541,37.809,240
ES,288,Puebla de Don Fadrique,-2.435,37.956,200
FR,288,Eyrein,1.946,45.335,200
ES,345,Bujaraloz,-0.151,41.498,200
ES,240,Campo,0.394,42.408,200
NO,414,Skeie,7.234,58.464,200
ES,240,Benasque,0.523,42.604,200
FR,288,Gramat,1.723,44.779,200
ES,240,Casas-Ibáñez,-1.471,39.287,240
ES,240,Titaguas,-1.081,39.866,200
NL,414,Utrecht,5.111,52.099,240
ES,288,Cúllar,-2.572,37.584,200
FR,856,Montauban,1.353,44.016,345
ES,496,Graus,0.338,42.19,200
ES,345,Fiñana,-2.839,37.17,200
ES,288,Torrijas,-0.956,40.023,200
ES,595,Monzón,0.191,41.913,288
ES,414,Pozo Cañada,-1.733,38.802,200
NO,288,Aure,8.531,63.268,200
ES,288,Socovos,-1.985,38.333,200
ES,345,Mora de Rubielos,-0.752,40.25,200
FR,1478,Reims,4.032,49.258,856
ES,496,Adra,-3.016,36.749,345
FR,240,Cérilly,2.822,46.618,200
FR,288,Épernay,3.959,49.044,200
FR,288,Romilly-sur-Seine,3.727,48.519,200
FR,240,Mérinchal,2.486,45.915,200
FR,714,Ussel,2.312,45.546,496
ES,595,Vielha,0.797,42.702,345
NL,288,Tilburg,5.077,51.566,200
ES,345,Caspe,-0.041,41.235,200
ES,288,Padules,-2.773,36.999,200
ES,240,Ballobar,0.191,41.622,200
NL,345,Lelystad,5.456,52.507,240
ES,288,Alatoz,-1.361,39.097,200
NL,345,Sneek,5.661,53.03,200
ES,240,Higueruela,-1.442,38.963,200
NO,414,Sunndalsøra,8.563,62.674,345
ES,595,Requena,-1.098,39.488,414
ES,595,Alcañiz,-0.131,41.05,345
BE,240,Gembloux,4.694,50.56,200
FR,345,Esnon,3.577,47.984,200
ES,595,Hellín,-1.698,38.511,240
ES,240,Cantavieja,-0.404,40.525,200
FR,288,Muret,1.331,43.461,200
ES,288,Tíjola,-2.436,37.345,200
NO,345,Skei/Surnadalsøra,8.696,62.966,240
ES,414,El Pont de Suert,0.741,42.406,240
FR,595,Nevers,3.158,46.988,414
NL,288,Urk,5.611,52.662,200
FR,345,Fère-Champenoise,3.991,48.755,200
ES,240,Albelda,0.461,41.865,200
FR,3062,Toulouse,1.444,43.605,1478
ES,240,Viacamp,0.615,42.128,200
FR,1027,Auxerre,3.57,47.796,414
NL,345,Holwerd,5.9,53.369,200
NO,345,Mandal,7.455,58.029,240
FR,345,Mauriac,2.332,45.218,240
ES,288,Arén,0.722,42.258,200
FR,595,Figeac,2.035,44.61,240
FR,345,Prémery,3.331,47.175,200
NO,240,Geilo,8.208,60.536,200
ES,345,Fraga,0.342,41.522,200
ES,345,Cofrentes,-1.062,39.23,200
NO,240,Fossbergom,8.562,61.838,200
ES,240,Vélez-Rubio,-2.075,37.649,200
ES,240,Maella,0.139,41.123,200
NO,595,Åmot,7.992,59.572,240
NO,414,Fillan,8.974,63.605,240
ES,288,Mequinenza,0.302,41.372,200
NO,414,Bygland,7.8,58.828,200
NO,240,Krossen,8.062,59.695,200
NO,288,Dalen,8.004,59.443,200
FR,240,Auterive,1.478,43.352,200
ES,496,Morella,-0.101,40.619,288
FR,288,Gelles,2.763,45.769,200
ES,414,La Paca,-1.835,37.872,200
ES,345,Albox,-2.141,37.385,200
GF,240,Awala-Yalimapo,-53.905,5.734,200
FR,496,Ercé,1.291,42.848,200
NL,240,Bergeijk,5.357,51.32,200
ES,496,Almansa,-1.095,38.868,200
ES,3062,Almería,-2.45,36.844,714
FR,714,Châlons-en-Champagne,4.363,48.957,240
FR,496,Charleville-Mézières,4.72,49.76,414
FR,1478,Troyes,4.074,48.298,714
FR,595,Aurillac,2.445,44.93,496
ES,240,Jumilla,-1.324,38.476,200
ES,1232,Lleida,0.629,41.62,856
NO,496,Kyrksæterøra,9.078,63.293,288
NL,240,Drachten,6.092,53.107,200
FR,288,Riom-ès-Montagnes,2.66,45.281,200
NO,345,Fyresdal,8.092,59.185,200
ES,595,Cieza,-1.419,38.239,240
FR,496,Moulins,3.333,46.566,345
NO,345,Hemsedal,8.555,60.863,200
FR,345,Decize,3.461,46.828,200
FR,240,Bazolles,3.618,47.144,200
FR,345,Tonnerre,3.973,47.857,200
FR,288,Châtel-Guyon,3.068,45.921,200
ES,345,Yecla,-1.109,38.61,200
FR,288,Vouziers,4.701,49.398,200
NO,414,Ål,8.558,60.63,200
FR,595,Pamiers,1.608,43.115,288
FR,240,Saint-Pourçain-sur-Sioule,3.289,46.307,200
NL,414,Steenwijk,6.114,52.791,200
GF,3674,Saint-Laurent-du-Maroni,-54.028,5.504,1478
BE,414,Huy,5.241,50.518,200
FR,345,Avallon,3.908,47.488,288
FR,288,Foix,1.605,42.964,200
ES,288,La Vall d'Uixó,-0.228,39.824,200
NO,1773,Gol,8.933,60.697,496
FR,1027,Luzy,3.971,46.789,200
NO,288,Myra,8.865,58.75,200
FR,856,Clermont-Ferrand,3.087,45.78,714
GF,595,Iracoubo,-53.204,5.48,240
ES,240,Móra d'Ebre,0.635,41.086,200
NO,1027,Dombås,9.13,62.076,200
ES,288,Campohermoso,-2.13,36.938,200
BE,856,Marche-en-Famenne,5.34,50.226,240
ES,288,Ontinyent,-0.605,38.822,200
FR,595,Albi,2.146,43.927,414
NL,240,Fort,6.386,52.651,200
NL,595,Apeldoorn,5.957,52.211,288
NO,240,Seljord,8.628,59.487,200
ES,5289,Melilla,-2.947,35.283,1232
NO,288,Åmli,8.482,58.759,200
FR,1027,Doulcon,5.169,49.381,200
FR,240,Brassac-les-Mines,3.331,45.414,200
ES,240,Torà,1.404,41.811,200
ES,496,Alcoy/Alcoi,-0.476,38.698,200
FR,714,Saint-Dizier,4.948,48.638,288
GF,856,Kourou,-52.642,5.158,345
FR,288,Limoux,2.218,43.053,200
ES,414,Vera,-1.866,37.247,200
NO,1773,Kristiansand,7.999,58.147,856
ES,2127,Alacant/Alicante,-0.49,38.358,856
NL,714,Zwolle,6.108,52.52,240
BE,414,Genk,5.495,50.965,240
FR,595,Paray-le-Monial,4.121,46.452,288
NL,240,Nijmegen,5.856,51.829,240
FR,288,Siguer,1.565,42.765,200
FR,288,Le Creusot,4.428,46.805,240
NO,414,Bagn,9.546,60.825,200
ES,3062,Valencia,-0.37,39.47,1773
DK,345,Hanstholm,8.624,57.107,200
ES,1027,Castellón de la Plana/Castelló de la Plana,-0.044,39.983,414
NL,240,Olst,6.112,52.335,200
ES,288,San José,-2.108,36.764,200
NL,414,Weert,5.701,51.251,200
NO,595,Beitostølen,8.923,61.243,200
FR,288,Castelnaudary,1.953,43.317,200
ES,595,Tortosa,0.521,40.812,414
ES,288,Agramunt,1.096,41.785,200
ES,288,Ventanicas-El Cantal,-1.843,37.113,200
ES,288,El Romaní,-0.397,39.303,200
NO,1478,Rjukan,8.588,59.879,288
FR,595,Vichy,3.428,46.124,240
AD,1232,Andorra,1.524,42.508,496
NO,288,Vågåmo,9.098,61.875,200
ES,288,La Seu d'Urgell,1.458,42.357,200
ES,595,Águilas,-1.582,37.409,240
FR,856,Rodez,2.576,44.349,288
DE,414,Borkum,6.665,53.588,240
ES,414,Alzira,-0.432,39.151,200
NL,345,Dieren,6.097,52.054,200
NL,1773,Groningen,6.56,53.215,856
GF,856,Sinnamary,-52.957,5.377,345
ES,240,Amposta,0.577,40.709,200
FR,345,Bourbon-Lancy,3.774,46.619,200
BE,496,Liège,5.576,50.645,288
ES,496,Tàrrega,1.14,41.648,288
FR,496,Issoire,3.251,45.545,200
ES,714,Murcia,-1.124,37.987,414
FR,595,Castres,2.242,43.604,288
ES,345,Elda,-0.793,38.477,200
ES,856,Benicarló,0.429,40.421,288
GF,496,Apatou,-54.343,5.155,288
ES,240,Onil,-0.672,38.629,200
FR,345,Laguiole,2.846,44.684,200
FR,345,Espalion,2.761,44.521,200
NL,414,Assen,6.561,53.003,200
NL,345,Bergen,6.033,51.599,200
NO,414,Tveitsund,8.524,59.021,200
NO,595,Brekstad,9.665,63.689,288
FR,496,Montbard,4.337,47.624,200
ES,496,Tuixent,1.567,42.231,200
FR,595,Anost,4.099,47.078,200
NL,240,Ommen,6.421,52.525,200
FR,496,Saint-Flour,3.095,45.033,200
NO,240,Tinn Austbygd,8.825,59.996,200
FR,414,Saulieu,4.229,47.279,200
ES,288,L'Hospitalet de L'infant,0.918,40.992,200
BE,240,Straimont,5.381,49.797,200
NO,856,Rødberg,8.945,60.269,240
ES,414,Montblanc,1.16,41.374,200
ES,595,Solsona,1.519,41.994,240
NL,240,Elp,6.644,52.884,200
FR,496,Thil,4.784,48.348,200
FR,288,Châtillon-sur-Seine,4.574,47.86,288
ES,288,Riumar,0.838,40.726,200
NO,240,Løkken Verk,9.701,63.125,200
ES,1027,Reus,1.108,41.152,414
NO,288,Nesbyen,9.104,60.571,200
FR,714,Brioude,3.386,45.294,200
FR,240,Échandelys,3.528,45.543,200
FR,288,Chabreloche,3.696,45.878,200
NO,345,Fagernes,9.237,60.988,240
ES,1027,Gandia,-0.183,38.969,414
NL,288,Ruurlo,6.447,52.087,200
ES,240,Torre-Pacheco,-0.954,37.744,200
NL,240,Heerlen,5.983,50.885,200
BE,240,Verviers,5.867,50.593,200
FR,595,Carcassonne,2.353,43.212,414
ES,414,Marina-Oasis,-0.681,38.132,200
FR,595,Quillan,2.185,42.875,200
NO,240,Grimstad,8.594,58.344,200
ES,714,Cartagena,-0.99,37.618,288
FR,288,Autun,4.299,46.951,200
NO,1027,Oppdal,9.693,62.595,595
NO,240,Orkanger/Fannrem,9.858,63.31,200
FR,414,Lacaune,2.691,43.707,288
FR,240,Vitteaux,4.54,47.399,200
FR,496,Puyvalador,2.12,42.646,200
FR,414,Saint-Chély-d'Apcher,3.275,44.802,200
DE,240,Norderney,7.145,53.707,200
NO,345,Otta,9.54,61.773,200
BE,414,Bastogne,5.718,50.002,345
NL,288,Almelo,6.661,52.356,200
FR,345,Sévérac d'Aveyron,3.071,44.322,200
FR,345,Verdun,5.387,49.159,345
GF,345,Macouria,-52.473,5.014,200
DE,714,Aachen,6.085,50.774,345
NL,240,Stadskanaal,6.962,52.983,200
ES,240,Súria,1.753,41.833,200
DE,714,Norden,7.202,53.595,200
NO,595,Arendal,8.775,58.466,345
FR,414,Joinville,5.138,48.444,200
NL,595,Emmen,6.917,52.778,200
GF,496,Saint-Élie,-53.287,4.825,414
NO,1027,Bø,9.069,59.413,200
ES,240,La Nucia,-0.126,38.615,200
GF,32738,Cayenne,-52.334,4.938,13158
FR,595,Millau,3.078,44.101,288
DE,714,Bocholt,6.616,51.838,240
FR,496,Roanne,4.073,46.034,345
DE,414,Emden,7.206,53.371,345
NO,595,Å,10.214,63.966,240
ES,345,Manresa,1.831,41.73,200
NO,240,Preststranda,9.061,59.096,200
ES,345,Dénia,0.103,38.84,200
NO,414,Berkåk,10.012,62.83,200
DK,345,Hurup,8.408,56.748,200
FR,856,Chaumont,5.139,48.111,414
NO,1773,Vinstra,9.746,61.598,414
DK,345,Ringkøbing,8.245,56.087,200
NO,240,Notodden,9.266,59.561,200
NL,595,Enschede,6.889,52.216,345
FR,288,Saint-Mihiel,5.542,48.888,200
FR,345,Chauffailles,4.338,46.208,200
FR,856,Mende,3.502,44.518,288
FR,414,Montbrison,4.063,45.607,200
GF,414,Roura,-52.323,4.729,200
ES,288,Vilanova i la Geltrú,1.722,41.222,240
NO,345,Folldal,9.991,62.135,240
DK,288,Struer,8.595,56.492,200
NO,856,Støren,10.287,63.039,240
FR,3062,Dijon,5.042,47.322,856
SJ,1232,Ny-Aalesund,11.928,78.926,714
DE,288,Mechernich,6.654,50.589,200
FR,345,Le Vigan,3.606,43.993,288
FR,288,Toul,5.894,48.676,200
ES,240,Besalú,2.696,42.2,200
GF,1232,Régina,-52.128,4.314,414
FR,496,Beaune,4.84,47.026,200
DE,1027,Köln,6.957,50.938,1027
FR,345,Meyrueis,3.43,44.181,200
NO,240,Lundamo,10.287,63.153,200
NO,288,Åmot/Geithus,9.966,59.935,200
FR,496,Le Puy-en-Velay,3.884,45.043,288
DE,288,Ahaus,7.005,52.076,200
DE,2552,Trier,6.638,49.758,414
ES,345,Terrassa,2.017,41.565,200
DK,714,Thisted,8.691,56.953,414
DE,496,Papenburg,7.393,53.078,240
NO,595,Tynset,10.777,62.272,240
DE,496,Wittlich,6.889,49.986,200
NO,414,Namdalseid,11.224,64.223,200
NO,288,Risør,9.231,58.721,200
ES,714,Vic,2.255,41.929,240
ES,345,Palafrugell,3.164,41.917,200
FR,240,Costaros,3.85,44.894,200
DE,288,Meppen,7.292,52.691,200
NO,7615,Trondheim,10.418,63.422,2552
FR,240,Cluny,4.658,46.436,240
FR,288,Narbonne,3.004,43.184,200
FR,496,Langres,5.331,47.866,200
GF,1773,Grand-Santi,-54.383,4.276,595
DE,595,Düsseldorf,6.78,51.224,240
FR,1027,Chalon-sur-Saône,4.854,46.781,414
LU,288,Luxembourg,6.123,49.609,288
DE,714,Helgoland,7.887,54.182,345
ES,240,Olot,2.485,42.181,200
FR,240,Tarare,4.434,45.895,200
DK,414,Holstebro,8.616,56.36,200
FR,240,Langogne,3.855,44.727,200
DK,288,Skjern,8.503,55.961,200
DE,496,Lingen (Ems),7.317,52.522,200
DE,414,Prüm,6.424,50.207,200
NO,1027,Kragerø,9.413,58.872,240
FR,345,Coussey,5.683,48.409,200
NO,288,Kongsberg,9.651,59.671,240
FR,595,Béziers,3.214,43.343,414
FR,496,Port-la-Nouvelle,3.042,43.02,200
NO,240,Krøderen,9.787,60.125,200
DE,288,Dormagen,6.842,51.093,200
NO,345,Leksvik,10.621,63.672,200
ES,5289,Barcelona,2.163,41.404,3674
FR,1773,Perpignan,2.895,42.699,714
DK,345,Nykøbing M,8.86,56.794,200
ES,240,Granollers,2.288,41.608,200
ES,345,Can Cervera,2.39,41.77,200
DK,1232,Esbjerg,8.453,55.472,595
DE,414,Essen,7.013,51.456,200
FR,240,Sartes,5.676,48.245,200
DE,345,Marl,7.102,51.658,200
FR,496,Thionville,6.168,49.358,200
DE,414,Wangerooge,7.9,53.792,345
FR,288,Prévenchères,3.909,44.522,200
FR,595,Saint-Étienne,4.387,45.44,288
DE,595,Westerland,8.309,54.908,496
DK,240,Ølgod,8.608,55.803,200
NO,496,Porsgrunn/Skien,9.614,59.179,496
NO,288,Fåvang,10.2,61.456,200
DE,240,Liblar,6.812,50.812,200
FR,414,Préty,4.941,46.543,200
DE,240,Hörnum (Sylt),8.287,54.756,200
NO,595,Dokka,10.071,60.836,240
FR,414,Pont-à-Mousson,6.055,48.903,200
FR,414,Villefranche-sur-Saône,4.715,45.989,200
FR,240,Dunières,4.342,45.218,200
DE,288,Bitburg,6.525,49.976,200
NO,288,Lauvsnes,10.914,64.501,200
NO,240,Snurråsen,9.714,59.291,200
DE,288,Dülmen,7.279,51.829,200
FR,496,Metz,6.176,49.12,414
DK,240,Mandø,8.538,55.273,200
NO,414,Tretten,10.306,61.315,200
DK,496,Toftum,8.555,55.166,200
FR,345,Bourbonne-les-Bains,5.749,47.954,200
DE,240,Datteln,7.343,51.653,200
DE,240,Barmen,7.196,51.271,200
ES,595,Figueres,2.961,42.265,240
FR,496,Gray,5.592,47.446,240
ES,1027,Girona,2.819,41.978,414
FR,414,Vittel,5.943,48.202,288
FR,496,Les Vans,4.132,44.405,240
DK,595,Herning,8.974,56.137,345
FR,414,Nancy,6.184,48.693,345
FR,414,Banyuls-sur-Mer,3.129,42.481,200
FR,4408,Lyon,4.835,45.768,1478
FR,345,Preigney,5.775,47.762,200
GF,414,Ouanary,-51.672,4.209,200
DE,414,Daun,6.831,50.197,200
NO,240,Stjørdalshalsen,10.921,63.469,200
FR,496,Dole,5.489,47.091,240
FR,240,Givors,4.774,45.583,200
NO,345,Alvdal,10.632,62.108,200
DE,288,Greven,7.613,52.093,200
DE,414,Bonn,7.099,50.734,200
NO,856,Rørvik,11.236,64.865,345
FR,414,Sète,3.696,43.402,200
FR,1773,Alès,4.077,44.125,240
DE,288,Mettlach,6.6,49.494,200
DK,414,Hald,9.192,56.598,200
GF,496,Papaichton,-54.149,3.807,200
DK,496,Grindsted,8.927,55.753,240
FR,414,Annonay,4.668,45.24,200
NO,288,Hov,10.353,60.698,200
NO,714,Lillehammer,10.459,61.12,240
DE,595,Münster,7.627,51.962,345
DE,1232,Dortmund,7.464,51.514,345
NO,496,Hønefoss,10.257,60.166,200
FR,856,Montpellier,3.897,43.598,856
DE,345,Overath,7.282,50.933,200
FR,414,Bourg-en-Bresse,5.225,46.205,345
FR,496,Saint-Amour,5.343,46.436,200
DE,414,Cloppenburg,8.043,52.848,240
NO,414,Mebonden,11.036,63.231,200
NO,345,Drammen,10.222,59.743,200
NO,288,Larvik,10.053,59.051,200
DE,240,Oldenburg (Oldb),8.213,53.14,240
GF,1478,Maripasoula,-54.027,3.641,1232
ES,240,Sant Feliu de Guíxols,3.03,41.784,200
FR,288,Lons-le-Saunier,5.559,46.672,288
DK,414,Hald Ege,9.344,56.414,240
DK,288,Tønder,8.869,54.932,200
DE,288,Bramsche,7.979,52.407,200
DE,288,Niebüll,8.829,54.788,240
GF,2552,Saint-Georges,-51.8,3.889,1027
NO,496,Brandbu/Jaren,10.505,60.418,200
FR,345,Charvieu-Chavagneux,5.162,45.746,200
FR,288,Tournon-sur-Rhône,4.832,45.068,200
ES,345,Can Rafila,1.5,39.074,200
FR,414,Poligny,5.709,46.837,200
NO,595,Levanger,11.298,63.743,240
ES,1027,Eivissa,1.431,38.909,856
DK,288,Vejen,9.137,55.478,200
GF,1773,Saül,-53.209,3.623,496
DE,595,Osnabrück,8.042,52.277,240
DE,288,Iserlohn,7.699,51.375,200
DE,345,Hamm,7.817,51.678,200
NO,240,Gjøvik,10.692,60.794,200
NO,1027,Namsos,11.501,64.466,345
FR,714,Vesoul,6.154,47.62,288
NO,240,Røra Stasjon,11.4,63.857,200
NO,345,Røstlandet,12.117,67.517,200
FR,714,Valence,4.892,44.933,414
DE,714,Bremerhaven,8.578,53.543,345
NO,345,Rena,11.364,61.136,288
DE,240,Werdohl,7.767,51.26,200
ES,496,Platja de Migjorn,1.467,38.685,200
DE,288,Natrup,8.132,52.144,200
NO,240,Lena,10.813,60.674,200
DE,496,Diepholz,8.371,52.606,200
FR,288,Dieuze,6.718,48.81,240
FR,288,Sarreguemines,7.07,49.11,200
DE,856,Koblenz,7.598,50.36,288
DE,240,Vechta,8.285,52.728,200
FR,414,Nîmes,4.36,43.837,288
FR,856,Besançon,6.024,47.238,496
FR,240,Raon-l'Étape,6.844,48.407,200
FR,345,Livron-sur-Drôme,4.84,44.768,200
FR,1773,Épinal,6.45,48.175,414
DE,714,Cuxhaven,8.697,53.864,240
FR,240,Bouvante,5.271,44.965,240
DE,345,Bredstedt,8.961,54.62,200
FR,595,Avignon,4.805,43.949,288
FR,714,Montélimar,4.75,44.557,288
FR,240,Condes,5.624,46.337,200
FR,288,Nyons,5.14,44.362,200
NO,1232,Steinkjer,11.49,64.012,414
DE,496,Saal,7.57,50.78,200
FR,240,Montbéliard,6.798,47.51,200
DK,288,Ødum,10.136,56.313,200
FR,288,Vif,5.669,45.056,200
DE,345,Limburg a.d.Lahn,8.064,50.387,240
NO,595,Terråk,12.371,65.086,288
NO,595,Askim,11.166,59.584,240
DE,714,Brilon,8.568,51.395,240
NO,414,Grong,12.313,64.466,288
NO,288,Tønsberg,10.409,59.268,288
FR,345,Pierrelatte,4.699,44.376,200
FR,240,Saint-Baudille-et-Pipet,5.769,44.784,200
NO,496,Sørvågen,13.021,67.887,200
DE,345,Rotenburg (Wümme),9.404,53.11,200
DE,240,Oberbieber,7.501,50.474,200
DE,856,Saarbrücken,6.996,49.237,595
FR,414,Luxeuil-les-Bains,6.381,47.817,200
DE,240,Tönning,8.942,54.317,200
NO,595,Renbygda,11.315,62.84,200
FR,288,Tenay,5.509,45.918,200
NO,714,Koppang,11.048,61.572,345
DK,856,Hjørring,9.986,57.46,345
DK,414,Brønderslev,9.947,57.271,200
DE,345,St. Wendel,7.173,49.468,200
NO,240,Drøbak,10.636,59.651,200
NO,288,Husøy,12.096,66.503,200
NO,414,Gladstad,11.959,65.678,200
DK,1478,Aalborg,9.919,57.046,714
NO,414,Otnes,11.171,61.759,200
DK,345,Hobro,9.799,56.639,200
NO,6346,Oslo,10.723,59.916,3062
DE,240,Olpe,7.844,51.028,200
DE,345,Reich,7.433,50.002,240
DK,240,Sulsted,9.962,57.159,200
DK,288,Vejle,9.528,55.711,200
NO,1773,Røros,11.383,62.576,595
DK,595,Kolding,9.473,55.49,288
DK,414,Skørping,9.898,56.839,200
FR,288,Lure,6.494,47.686,200
DE,240,Arnsberg,8.065,51.396,200
DE,714,Heide,9.091,54.194,240
FR,414,Morbier,6.016,46.537,240
FR,595,Lorquin,6.995,48.669,200
DK,496,Haderslev,9.488,55.253,200
FR,345,Arles,4.627,43.677,200
DE,240,Myhle,8.813,53.26,200
NO,1773,Hamar,11.079,60.795,714
FR,240,Presles,5.383,45.091,200
DE,1027,Bremen,8.809,53.076,595
DE,496,Altenhundem,8.074,51.103,200
NO,595,Midtbygda,11.76,63.421,240
DE,1027,Flensburg,9.438,54.783,345
FR,345,Voiron,5.591,45.363,200
FR,414,Saint-Dié-des-Vosges,6.948,48.287,200
DE,1232,Siegen,8.025,50.875,414
DE,240,Lippstadt,8.346,51.674,200
DE,345,Syke,8.816,52.915,200
NO,288,Vik,12.168,65.312,200
NO,856,Brønnøysund,12.202,65.463,345
NO,856,Lovund,12.36,66.368,288
DK,595,Randers,10.036,56.458,240
DK,595,Horsens,9.849,55.86,240
DE,714,Bielefeld,8.532,52.021,595
GF,856,Camopi,-52.333,3.167,595
DE,345,Nordel,8.731,52.452,200
CH,1478,Genève,6.143,46.21,714
DE,414,Seck,8.048,50.577,200
DE,288,Bremervörde,9.146,53.485,288
NO,496,Jessheim,11.173,60.146,200
FR,240,Pierrelongue,5.216,44.246,200
DK,240,Hals,10.323,56.995,200
ES,1773,Mallorca,2.654,39.58,1478
NO,856,Sørland,12.698,67.667,414
FR,345,Belfort,6.863,47.638,240
FR,240,Cavaillon,5.038,43.836,200
NO,240,Gata,11.346,60.682,200
DE,345,Schleswig,9.567,54.515,200
NO,288,Rød,10.943,59.075,200
FR,714,Chambéry,5.921,45.566,288
FR,1232,Grenoble,5.736,45.186,496
DE,414,Wilster,9.375,53.923,240
DE,496,Bad Kreuznach,7.862,49.845,200
DK,595,Skagen,10.607,57.726,288
FR,345,Eyguières,5.032,43.695,200
FR,595,Annecy,6.129,45.899,240
CH,414,Orbe,6.531,46.725,200
DK,240,Assens,9.89,55.27,200
NO,345,Høylandet,12.297,64.629,200
DK,240,Sønderborg,9.789,54.908,200
DE,288,Dillenburg,8.287,50.739,200
DE,345,Kaiserslautern,7.769,49.445,345
DK,1773,Aarhus,10.203,56.152,1027
NO,1232,Fredrikstad/Sarpsborg,11.106,59.28,496
ES,240,Inca,2.911,39.719,200
DE,496,Minden,8.915,52.288,200
ES,240,Pollença,3.017,39.877,200
DE,288,Rendsburg,9.663,54.306,200
FR,288,Thonon-les-Bains,6.478,46.373,200
NO,345,Sandnessjøen,12.627,66.018,200
FR,595,La Mure,5.785,44.906,200
DE,595,Paderborn,8.757,51.72,240
DK,240,Bovlstrup,10.226,55.943,200
DE,240,Bad Wünnenberg,8.698,51.517,200
DE,240,Dörverden,9.228,52.847,200
CH,595,Lausanne,6.628,46.518,288
NO,496,Snåsa,12.382,64.246,200
NO,414,Sand,11.538,60.393,200
FR,414,Colmar,7.358,48.079,288
SE,714,Strömstad,11.177,58.943,200
DE,345,Nienburg (Weser),9.212,52.641,200
FR,496,Apt,5.394,43.876,200
DE,288,Wiesbaden,8.239,50.082,240
NO,288,Rakkestad,11.342,59.427,200
ES,414,Can Picafort,3.147,39.767,200
CH,288,Neuchâtel,6.932,46.991,200
NO,288,Hemnes,11.45,59.717,200
FR,414,Haguenau,7.787,48.817,200
DE,345,Alsfeld,9.271,50.751,200
DE,288,Aschaffenburg,9.148,49.974,240
FR,414,Mulhouse,7.336,47.75,200
FR,240,Veynes,5.824,44.535,200
CH,414,Biel#Bienne,7.247,47.137,200
CH,345,Delémont,7.35,47.363,200
DE,496,Neumünster,9.988,54.07,200
DK,345,Ebeltoft,10.696,56.194,200
DE,496,Walsrode,9.596,52.862,200
CH,288,Fribourg,7.156,46.805,200
FR,345,Albertville,6.393,45.676,200
FR,240,Sisteron,5.943,44.195,200
FR,345,Cluses,6.581,46.06,240
NO,714,Flisa,12.012,60.613,345
SJ,345,Barentsburg,14.21,78.061,240
DE,345,Harksheide,9.997,53.706,200
NO,714,Innbygda,12.263,61.316,496
NO,345,Kirkenær,12.062,60.454,200
NO,414,Kongsvinger,11.996,60.186,345
SE,714,Funäsdalen,12.552,62.545,414
DE,496,Karlsruhe,8.405,49.01,414
NO,345,Halden,11.386,59.122,200
DE,345,Schotten,9.124,50.502,200
FR,856,Strasbourg,7.752,48.573,345
CH,414,Thun,7.631,46.753,200
FR,288,Brignoles,6.061,43.406,240
DE,496,Celle,10.081,52.626,200
ES,856,Caseriu de Cabrera,2.938,39.146,200
DE,240,Pforzheim,8.699,48.891,200
DE,288,Korbach,8.873,51.272,200
DE,496,Calw,8.741,48.713,200
ES,496,Manacor,3.208,39.57,200
DE,414,Frankenberg (Eder),8.799,51.059,200
SE,414,Tanumshede,11.326,58.724,200
FR,240,Laragne-Montéglin,5.822,44.315,200
DK,240,Faaborg,10.256,55.088,200
FR,496,Aix-en-Provence,5.447,43.53,200
DK,1478,Odense,10.389,55.396,595
DE,595,Gießen,8.675,50.586,345
FR,496,Saint-Jean-de-Maurienne,6.345,45.276,240
DE,414,Landau in der Pfalz,8.112,49.197,200
DE,496,Marburg,8.769,50.809,200
FR,3674,Marseille,5.379,43.297,1478
DK,595,Byrum,11,57.256,288
DE,240,Neustadt am Rübenberge,9.458,52.505,200
NO,240,Setskog,11.723,59.828,200
ES,345,Portocolom,3.252,39.418,200
DE,288,Kirdorf,8.611,50.241,200
FR,2552,Gap,6.08,44.559,496
DE,1478,Kiel,10.137,54.322,595
DE,414,Hameln,9.356,52.104,200
CH,240,La Roche FR,7.138,46.696,200
FR,1027,Manosque,5.782,43.834,240
DK,496,Grenaa,10.876,56.414,288
CH,856,Basel,7.591,47.549,345
DE,1773,Frankfurt am Main,8.682,50.111,856
SE,496,Lysekil,11.446,58.28,200
DE,2552,Hamburg,9.997,53.551,1773
DE,1232,Mannheim,8.466,49.488,496
DE,856,Freiburg im Breisgau,7.85,47.995,496
DE,414,Höxter,9.382,51.776,240
NO,1027,Mosjøen,13.195,65.837,414
FR,240,Orcières,6.324,44.685,200
DE,240,Soltau,9.838,52.987,200
SE,288,Dingle,11.577,58.529,200
DE,288,Darmstadt,8.654,49.872,200
SE,240,Töcksfors,11.848,59.509,200
ES,288,Ciutadella,3.843,40.003,240
CH,1232,Bern,7.444,46.947,496
DK,414,Marstal,10.521,54.858,200
CH,240,Martigny,7.074,46.102,200
DK,714,Svendborg,10.608,55.06,288
CH,496,Saanen,7.259,46.489,200
NO,414,Leknes,13.629,68.146,288
DE,240,Hanstedt,10.014,53.258,200
DE,288,Hofgeismar,9.383,51.494,200
FR,496,Névache,6.605,45.019,200
DE,2127,Hannover,9.738,52.375,595
DE,240,Bergen,9.962,52.81,200
FR,496,Digne-les-Bains,6.235,44.093,288
DE,345,Fürth,8.782,49.65,200
SE,288,Rörö,11.62,57.776,200
SE,414,Ed,11.94,58.911,240
NO,414,Trofors,13.405,65.534,240
DE,2127,Kassel,9.495,51.315,595
CH,1027,Sion,7.36,46.228,414
CH,288,Sumiswald,7.744,47.029,200
FR,414,Guillestre,6.649,44.661,240
SE,1478,Idre,12.716,61.861,414
DE,240,Neckargemünd,8.797,49.394,200
SE,288,Årjäng,12.133,59.385,240
DK,595,Kalundborg,11.085,55.681,240
SE,1232,Åre,13.086,63.396,496
NO,856,Ørnes,13.713,66.869,345
FR,414,Toulon,5.933,43.12,345
DE,345,Eutin,10.615,54.139,240
SE,288,Charlottenberg,12.312,59.885,200
SE,345,Stenungsund,11.838,58.075,200
SE,288,Färgelanda,11.993,58.569,200
FR,414,Senez,6.407,43.914,200
FR,496,Barcelonnette,6.65,44.386,240
DE,414,Einbeck,9.866,51.817,240
IT,1027,Aosta,7.317,45.737,414
DE,240,Sinsheim,8.879,49.253,200
ES,856,Maó,4.263,39.887,714
CH,288,Schöftland,8.051,47.305,200
DE,595,Lüneburg,10.409,53.249,240
DK,856,Anholt,11.543,56.704,288
DE,345,Lübeck,10.684,53.866,345
CH,240,Unterseen,7.848,46.685,200
NO,714,Røyrvik,13.563,64.887,288
IT,288,Cogne,7.361,45.608,200
FR,240,Pignans,6.229,43.301,200
DE,240,Lauenburg/Elbe,10.554,53.374,200
SE,345,Kungälv,11.969,57.87,200
NO,496,Korgen,13.811,66.076,200
DE,288,Oldenburg in Holstein,10.888,54.293,200
DE,414,Göttingen,9.935,51.533,240
DE,240,Northeim,10,51.706,200
DE,345,Mölln,10.691,53.63,200
DK,496,Køge,12.184,55.455,200
CH,414,Mürren,7.892,46.56,200
DE,1027,Uelzen,10.561,52.965,240
DE,345,Fulda,9.675,50.553,345
IT,288,Chatillon,7.619,45.752,200
DE,345,Bad Hersfeld,9.706,50.868,240
DE,240,Hünfeld,9.769,50.673,200
SE,345,Särna,13.141,61.691,200
SE,414,Kungsbacka,12.08,57.494,200
NO,714,Bø,14.466,68.616,200
DE,240,Rettin,10.889,54.099,200
NO,345,Inndyr,14.033,67.035,200
IT,240,Donnas,7.77,45.604,200
NO,240,Sandvika,13.593,64.461,200
DE,345,Schlüchtern,9.524,50.347,200
SE,3674,Göteborg,11.999,57.685,1773
FR,240,Fréjus,6.737,43.433,200
DE,240,Brodten,10.861,53.988,200
DE,288,Oberndorf,9.473,50.191,200
DE,496,Reutlingen,9.212,48.492,240
SE,345,Veddige,12.329,57.267,200
DK,414,Nakskov,11.157,54.848,240
IT,288,Paquier,7.624,45.88,200
FR,288,Cannes,7.013,43.551,200
DK,288,Skælskør,11.29,55.248,200
DE,240,Bad Bevensen,10.575,53.08,200
DK,345,Slagelse,11.355,55.405,200
NO,288,Stokmarknes,14.91,68.566,200
SE,240,Vemdalen,13.853,62.445,200
SE,240,Vårgårda,12.807,58.035,200
SE,288,Ekshärad,13.491,60.174,200
DE,288,Gotha,10.703,50.949,200
SE,714,Malung,13.703,60.693,345
DE,288,Rügshofen,10.358,49.909,200
SE,288,Överlida,12.898,57.353,200
SE,856,Arvika,12.603,59.665,414
CH,414,Zermatt,7.746,46.02,200
SE,345,Sysslebäck,12.868,60.732,288
SE,288,Östmark,12.762,60.282,200
DE,414,Sontra,9.933,51.069,200
SE,1027,Trollhättan,12.304,58.278,414
IT,496,Airali,7.247,44.818,240
DE,240,Carlow,10.936,53.758,200
CH,714,Luzern,8.309,47.046,288
DE,345,Bietigheim-Bissingen,9.133,48.948,200
CH,714,Brig,7.988,46.316,345
DE,496,Heilbronn,9.218,49.14,288
FR,288,Fayence,6.695,43.624,200
SE,856,Mellerud,12.461,58.698,288
FR,714,Rayol-Canadel-sur-Mer,6.467,43.161,200
DE,714,Burg auf Fehmarn,11.198,54.439,288
IT,240,Sambuco,7.074,44.339,240
NO,288,Hattfjelldal,13.999,65.597,200
FR,345,Puget-Théniers,6.893,43.956,200
SE,240,Nordkroken,12.408,58.382,200
DE,288,Wertheim,9.517,49.76,200
NO,2127,Mo i Rana,14.138,66.315,856
CH,2552,Zürich,8.534,47.381,1232
SE,240,Klässbol,12.743,59.539,200
DE,496,Braunschweig,10.521,52.262,414
FR,240,Sainte-Maxime,6.641,43.31,200
DE,1478,Stuttgart,9.178,48.776,1027
DK,288,Holbæk,11.714,55.72,200
CH,240,Zug,8.511,47.175,200
DE,1027,Goslar,10.429,51.907,288
DE,288,Wittingen,10.74,52.729,200
SE,240,Floda,12.359,57.808,200
SE,414,Åmål,12.698,59.052,345
SE,414,Hede,13.512,62.417,345
NO,7615,Bodø,14.405,67.28,2552
IT,414,Rivarolo Canavese,7.717,45.331,200
SE,288,Torsby,13,60.13,240
DE,240,Parin,11.189,53.913,200
CH,345,Münster VS,8.263,46.488,200
DE,414,Ebingen,9.026,48.214,240
DE,288,Woez,11.087,53.591,200
NO,1232,Svolvær,14.564,68.238,414
SE,496,Sälen,13.262,61.162,288
DE,345,Börßum,10.582,52.069,200
DE,288,Thaiden,10.015,50.542,200
DE,714,Ehra,10.788,52.569,200
IT,1478,Torino,7.676,45.078,856
SE,856,Varberg,12.27,57.112,345
DK,240,Ringsted,11.788,55.446,200
IT,414,Manta,7.487,44.616,200
SE,414,Alingsås,12.538,57.93,200
DK,496,Næstved,11.754,55.233,345
DE,414,Stockach,9.009,47.849,240
CH,288,Schwyz,8.652,47.022,200
DE,414,Hagenow,11.193,53.432,200
IT,496,Scopa,8.114,45.793,200
SE,240,Lysvik,13.136,60.017,200
CH,345,Altdorf UR,8.633,46.876,200
SE,1027,Gäddede,14.146,64.502,595
IT,240,Ponte,8.426,46.377,200
SE,595,Stöllet,13.273,60.409,200
IT,240,Racconigi,7.674,44.767,200
IT,496,Biella,8.058,45.573,200
DE,595,Bad Mergentheim,9.773,49.491,240
SE,345,Sunne,13.143,59.834,200
SE,414,Limedsforsen,13.4,60.888,200
DE,496,Mühlhausen/Thüringen,10.458,51.21,200
IT,1478,Cuneo,7.545,44.397,414
DE,595,Würzburg,9.937,49.794,496
SE,288,Segmon,13.042,59.271,200
DE,496,Wismar,11.466,53.892,200
IT,240,Vigellio,8.114,45.46,200
DE,240,Bad Neustadt a.d.Saale,10.207,50.33,200
DE,240,Craula,10.492,51.065,200
DE,1027,Schwerin,11.414,53.629,345
FR,1478,Nice,7.271,43.696,1027
DE,496,Salzwedel,11.154,52.853,288
DE,345,Schwäbisch Hall,9.735,49.113,288
DK,288,Roskilde,12.085,55.634,240
DK,496,Vordingborg,11.909,55.011,200
SE,414,Falkenberg,12.496,56.903,200
SJ,22735,Longyearbyen,15.645,78.222,5289
SE,288,Kinna,12.681,57.508,200
DK,714,Nykøbing F,11.865,54.784,345
DE,288,Göppingen,9.654,48.703,240
DE,288,Meiningen,10.416,50.574,240
FR,240,Breil-sur-Roya,7.514,43.937,200
FR,595,Tende,7.593,44.089,240
DE,288,Schweinfurt,10.23,50.046,200
DE,856,Nordhausen,10.792,51.5,345
CH,595,Segnas,8.829,46.695,200
NO,414,Myre,15.086,68.916,200
CH,496,Niederurnen,9.053,47.125,240
SE,240,Ullared,12.716,57.133,200
DK,288,Gedser,11.934,54.576,200
NO,714,Leinesfjord,15.013,67.772,288
DE,496,Halberstadt,11.047,51.896,288
IT,414,Alba,8.025,44.691,200
SE,345,Lidköping,13.147,58.495,288
DK,288,Farum,12.378,55.814,200
SE,496,Borås,12.94,57.728,414
DE,288,Thale,11.046,51.754,200
SE,240,Älvsered,12.868,57.242,200
DE,240,Ehingen (Donau),9.725,48.284,200
IT,496,Asti,8.209,44.901,240
NO,414,Sortland,15.413,68.701,345
IT,240,Vercelli,8.415,45.323,200
CH,714,St. Gallen,9.38,47.424,496
DE,414,Friedrichshafen,9.48,47.652,200
DE,288,Feuchtwangen,10.331,49.168,200
DE,414,Heidenheim an der Brenz,10.155,48.678,240
SE,414,Lillhärdal,14.073,61.852,200
SE,345,Laholm,13.032,56.504,200
SE,1478,Östersund,14.687,63.165,1027
DE,345,Busendorf,10.864,50.078,200
SE,496,Falköping,13.553,58.174,200
SE,288,Lesjöfors,14.176,59.98,200
CH,288,Malvaglia,8.977,46.414,240
DE,414,Dorst,11.386,52.379,200
IT,595,Sanremo,7.757,43.819,288
IT,345,Primaluna,9.431,45.986,200
SE,345,Lidhult,13.441,56.828,200
SE,595,Hagfors,13.692,60.033,240
DE,345,Forchheim,11.059,49.72,200
SE,595,Karlstad,13.539,59.403,595
NO,595,Lødingen,15.983,68.409,240
DK,288,Store Heddinge,12.387,55.312,200
IT,345,Armo,7.912,44.088,200
SE,345,Krokom,14.452,63.33,200
SE,345,Gällö,15.232,62.916,200
IT,496,Novara,8.614,45.441,345
SE,414,Älvdalen,14.045,61.225,200
SE,240,Sunnemo,13.729,59.884,200
SE,240,Åsarne,14.368,62.644,200
DK,6346,København,12.57,55.675,1773
SE,496,Svenljunga,13.108,57.496,200
DE,414,Parchim,11.848,53.426,200
CH,288,Vals,9.18,46.619,200
DE,240,Bad Waldsee,9.751,47.923,200
SE,1027,Halmstad,12.899,56.675,496
SE,345,Föllinge,14.61,63.672,288
SE,714,Helsingborg,12.719,56.042,288
SE,345,Svenstavik,14.433,62.765,345
DE,856,Ulm,9.99,48.398,414
DE,345,Wittenberge,11.751,52.994,288
CH,414,Lugano,8.951,46.004,200
DE,496,Ilmenau,10.916,50.689,200
SE,288,Molkom,13.729,59.604,200
DE,1027,Erfurt,11.027,50.977,496
DE,1478,Rostock,12.136,54.089,714
DK,240,Søvang,12.619,55.567,200
SE,496,Hackås,14.512,62.935,200
LI,288,Vaduz,9.521,47.14,200
DK,288,Klintholm Havn,12.467,54.952,240
SE,1027,Sveg,14.359,62.035,496
DE,345,Osterburg (Altmark),11.754,52.788,200
SE,414,Ängelholm,12.877,56.253,200
DE,288,Sangerhausen,11.299,51.474,240
IT,240,Mortara,8.738,45.252,200
DE,288,Wilburgstetten,10.391,49.026,200
NO,595,Fauske,15.394,67.26,288
DE,496,Güstrow,12.176,53.794,240
AT,240,Dornbirn,9.743,47.414,200
SE,240,Vegby,13.376,57.681,200
IT,856,Alessandria,8.619,44.913,288
NO,345,Rognan,15.395,67.102,200
SE,345,Ulricehamn,13.418,57.789,200
IT,496,Albenga,8.215,44.053,200
DE,1027,Magdeburg,11.633,52.126,496
CH,1027,Chur,9.531,46.851,496
DE,345,Ansbach,10.577,49.304,240
DE,714,Coburg,10.964,50.258,288
IT,714,Como,9.087,45.806,288
SE,345,Hyltebruk,13.241,57.005,200
DE,414,Hettstedt,11.514,51.645,200
DE,1027,Stendal,11.862,52.611,414
DE,345,Ribnitz,12.432,54.243,200
DE,288,Biere,11.654,51.975,200
NO,345,Oppeid,15.627,68.082,240
SE,345,Vansbro,14.216,60.509,200
DE,856,Bamberg,10.887,49.893,345
DE,345,Roßleben,11.433,51.297,200
IT,345,Chiavenna,9.396,46.318,240
SE,1027,Tärnaby,15.288,65.713,414
SE,240,Lit,14.854,63.321,200
IT,414,Savona,8.474,44.308,240
DE,240,Köckte,11.9,52.498,200
SE,595,Mariestad,13.821,58.704,240
AT,414,Bludenz,9.821,47.156,200
SE,240,Smålandsstenar,13.411,57.161,200
DE,856,Memmingen,10.185,47.988,200
DE,288,Burg,11.855,52.27,200
IT,345,Novi Ligure,8.793,44.76,200
SE,240,Malmö,13.009,55.597,200
DE,414,Tettau,11.259,50.468,200
SE,856,Filipstad,14.168,59.708,240
SE,714,Skövde,13.85,58.399,496
IT,6346,Milano,9.175,45.473,2127
SE,288,Gislaved,13.565,57.302,200
SE,2127,Mora,14.537,61,414
SE,240,Nissafors,13.631,57.41,200
DE,240,Bertholdsdorf,10.877,49.288,200
CH,345,Davos,9.836,46.804,200
SE,345,Fredriksberg,14.375,60.139,200
SE,240,Gullspång,14.102,58.982,200
AT,240,Sankt Gallenkirch,9.975,47.02,200
SE,240,Orsa,14.634,61.109,200
IT,496,Pavia,9.16,45.184,240
DE,496,Jena,11.592,50.93,288
DE,595,Kempten (Allgäu),10.318,47.724,496
NO,714,Andenes,16.12,69.319,414
SE,595,Trelleborg,13.154,55.377,200
DE,1478,Nürnberg,11.075,49.451,1027
SE,414,Ytterhogdal,14.942,62.18,200
SE,240,Perstorp,13.399,56.136,200
DE,345,Sonthofen,10.281,47.512,200
DE,288,Kyritz,12.397,52.941,200
IT,1478,Genova,8.904,44.421,714
DE,414,Wittstock/Dosse,12.486,53.163,200
DE,496,Weißenburg i.Bay.,10.972,49.03,240
DE,345,Rathenow,12.333,52.608,240
SE,240,Markaryd,13.601,56.459,200
DE,288,Halle (Saale),11.971,51.482,200
DE,345,Kulmbach,11.456,50.108,200
DE,240,Waren (Müritz),12.686,53.513,240
SE,595,Hammerdal,15.356,63.584,240
DE,240,Ziesar,12.29,52.267,200
DE,288,Kaufbeuren,10.621,47.88,200
IT,1232,Sondrio,9.877,46.169,414
IT,414,Bergamo,9.668,45.694,288
IT,345,Lodi,9.503,45.314,200
CH,345,Scuol,10.294,46.796,200
DE,240,Eichstätt,11.185,48.891,200
NO,2127,Harstad,16.541,68.8,714
DE,496,Augsburg,10.898,48.368,345
DE,595,Dessau,12.246,51.835,288
SE,856,Kristianstad,14.168,56.026,496
SE,288,Hjo,14.276,58.301,200
SE,414,Höör,13.548,55.936,200
SE,345,Mjölby,15.13,58.333,200
DE,288,Weißenfels,11.967,51.2,200
SE,240,Traryd,13.74,56.577,200
DE,414,Demmin,13.038,53.906,200
SE,496,Vaggeryd,14.149,57.497,200
SE,288,Löberöd,13.513,55.776,200
NO,345,Sulitjelma,16.063,67.139,200
AT,714,Imst,10.741,47.237,200
SE,345,Kopparberg,15.02,59.867,200
SE,714,Älmhult,14.137,56.55,240
SE,345,Karlskoga,14.532,59.334,288
DE,414,Stralsund,13.09,54.314,200
DE,288,Altenburg,12.437,50.987,200
DE,496,Amberg,11.856,49.445,200
IT,714,Borgo Val di Taro,9.77,44.486,288
IT,714,Livigno,10.135,46.535,200
SE,240,Bodafors,14.705,57.505,200
DE,288,Stavenhagen,12.907,53.697,200
DE,496,Jessen (Elster),12.955,51.79,200
SE,1478,Strömsund,15.562,63.853,595
DE,595,Luckenwalde,13.173,52.089,200
DE,496,Bayreuth,11.575,49.944,345
SE,1232,Jönköping,14.16,57.755,595
SE,288,Rottne,14.894,57.024,200
SE,595,Los,15.168,61.735,288
SE,595,Värnamo,14.041,57.185,345
SE,345,Ljungby,13.943,56.833,288
IT,288,Rapallo,9.226,44.353,200
SE,414,Bräcke,15.42,62.752,200
SE,240,Hässleholm,13.774,56.16,200
IT,288,Offanengo,9.741,45.379,200
SE,496,Leksand,15.008,60.732,200
NO,856,Kjøpsvik,16.374,68.099,200
SE,345,Furudal,15.125,61.17,200
DE,595,Neuruppin,12.806,52.923,345
DE,345,Neumarkt i.d.OPf.,11.459,49.279,200
SE,240,Laxå,14.62,58.982,200
DE,856,Gera,12.08,50.876,240
SE,595,Sjöbo,13.701,55.636,200
SE,288,Karlsborg,14.52,58.529,200
SE,288,Rättvik,15.102,60.867,200
SE,414,Stugun,15.601,63.168,200
AT,595,Pfunds,10.542,46.967,240
DE,414,Hof,11.914,50.317,200
DE,345,Bad Belzig,12.587,52.141,240
IT,345,Grosio,10.275,46.298,200
DE,240,Vorbach,11.743,49.821,200
IT,496,Piacenza,9.706,45.045,345
SE,345,Osby,14.001,56.385,200
SE,345,Gränna,14.468,58.025,200
DE,414,Neustrelitz,13.062,53.363,200
NO,345,Evenskjær,16.574,68.586,200
IT,240,Curon Venosta,10.543,46.808,200
SE,496,Boda,15.219,61.002,200
DE,2552,Leipzig,12.378,51.338,1027
IT,345,Darfo Boario Terme,10.183,45.883,240
DE,288,Berkau,12.641,51.968,200
DE,496,Ingolstadt,11.423,48.765,345
DE,856,Greifswald,13.38,54.096,414
SE,345,Ystad,13.816,55.435,288
DE,1027,Plauen,12.135,50.496,200
DE,288,Vilseck,11.805,49.611,200
SE,1232,Ånge,15.67,62.524,496
DE,595,Neubrandenburg,13.26,53.557,595
IT,288,Bardi,9.729,44.63,200
FR,345,Galéria,8.648,42.409,200
SE,595,Ludvika,15.198,60.145,288
DE,414,Sassnitz,13.634,54.513,240
FR,496,Calvi,8.757,42.568,240
SE,595,Askersund,14.911,58.89,200
DE,240,Eilenburg,12.633,51.46,200
AT,240,Stams,10.983,47.275,200
IT,345,Manerbio,10.135,45.355,200
IT,595,Brescia,10.221,45.525,414
DE,496,Garmisch-Partenkirchen,11.086,47.492,200
DE,240,Bad Schmiedeberg,12.733,51.684,200
FR,414,Cargèse,8.595,42.135,200
DE,345,Murnau a.Staffelsee,11.202,47.682,200
IT,414,Silandro,10.771,46.628,345
NO,240,Ballangen,16.828,68.341,200
SE,240,Bjursås,15.45,60.738,200
SE,288,Lönsboda,14.318,56.396,200
IT,288,San Michele,10.117,45.119,200
SE,240,Vislanda,14.454,56.786,200
SE,856,Borlänge,15.43,60.476,714
SE,288,Lammhult,14.582,57.17,200
SE,345,Lindesberg,15.224,59.601,240
SE,345,Hoting,16.205,64.114,200
IT,414,Fraviano,10.691,46.297,240
DE,288,Zwickau,12.496,50.719,200
SE,240,Sävsjö,14.663,57.395,200
SE,288,Kumla,15.141,59.129,200
SE,240,Löderup,14.114,55.438,200
SE,345,Aneby,14.808,57.835,200
IT,288,Crone,10.479,45.739,200
NO,288,Gryllefjord,17.05,69.361,288
DE,240,Grimma,12.727,51.235,200
SE,1027,Örebro,15.206,59.278,496
SE,288,Kivik,14.221,55.687,200
DE,496,Weiden i.d.OPf.,12.16,49.676,288
IT,240,Pontremoli,9.879,44.375,200
AT,240,Gießenbach,11.236,47.378,200
SE,414,Motala,15.041,58.547,240
SE,288,Kälarne,16.083,62.979,200
DE,3674,München,11.576,48.138,2552
DE,414,Anklam,13.693,53.855,200
DE,414,Geretsried,11.482,47.856,240
IT,240,Stintino,8.219,40.954,200
CZ,496,Cheb,12.374,50.08,240
FR,2552,Ajaccio,8.739,41.919,1027
SE,595,Tranås,14.976,58.037,345
SE,240,Rossön,16.321,63.929,200
SE,288,Falun,15.623,60.605,200
DE,414,Templin,13.499,53.121,200
IT,714,La Spezia,9.85,44.114,496
DE,288,Freising,11.748,48.404,200
SE,240,Frövi,15.365,59.471,200
SE,345,Edsbyn,15.818,61.376,200
SE,496,Dorotea,16.415,64.263,288
DE,496,Torgau,13.004,51.559,200
NO,240,Grov,17.125,68.674,200
SE,496,Simrishamn,14.343,55.552,240
NO,288,Ibestad,17.171,68.78,200
SE,414,Eksjö,14.971,57.668,200
AT,345,Neustift im Stubaital,11.308,47.11,200
DE,288,Werbig,13.194,51.93,200
DE,856,Regensburg,12.102,49.015,595
DE,10965,Berlin,13.406,52.518,5289
SE,288,Backe,16.413,63.81,200
SE,345,Fränsta,16.166,62.499,200
AT,1773,Innsbruck,11.403,47.268,714
SE,1773,Växjö,14.798,56.894,714
IT,714,Parma,10.329,44.803,345
FR,856,Corte,9.149,42.31,288
SE,345,Hammarstrand,16.346,63.109,345
IT,240,Porto Torres,8.4,40.836,200
SE,345,Tjällmo,15.354,58.716,200
SE,856,Vilhelmina,16.66,64.625,714
IT,595,Mantova,10.773,45.153,240
IT,345,Alghero,8.321,40.557,200
SE,595,Ljusdal,16.097,61.829,414
DE,414,Prenzlau,13.862,53.316,240
IT,240,Vetto,10.339,44.484,240
CZ,288,Tachov,12.634,49.795,200
CZ,345,Mariánské Lázně,12.701,49.965,200
SE,240,Korsberga,15.125,57.301,200
CZ,240,Nová Ves,12.775,50.084,200
DE,288,Nieska,13.359,51.429,200
IT,414,Capraia Isola,9.844,43.048,288
DE,345,Mittweida,12.976,50.987,200
DE,496,Chemnitz,12.922,50.834,414
DE,240,Lengefeld,13.193,50.72,200
IT,240,Romana,8.586,40.484,200
SE,496,Ramsele,16.474,63.534,345
FR,595,Ghisonaccia,9.404,42.017,240
SE,240,Hjortkvarn,15.439,58.897,200
DE,595,Rosenheim,12.129,47.856,288
FR,714,Porto-Vecchio,9.279,41.591,345
SE,240,Delsbo,16.555,61.805,200
SE,345,Rejmyre,15.924,58.831,200
FR,288,Propriano,8.904,41.676,200
SE,345,Svärdsjö,15.906,60.742,200
SE,414,Urshult,14.818,56.533,200
SE,240,Kilafors,16.566,61.231,200
SE,240,Mjällby,14.678,56.046,200
PL,288,Dziwnów,14.752,54.023,200
SE,345,Lingbo,16.688,61.05,200
SE,496,Vetlanda,15.085,57.415,414
SE,288,Holmsjö,15.539,56.421,200
FR,1478,Bastia,9.452,42.702,595
AT,345,Mariahilf,12.298,46.914,345
DE,288,Wald,12.349,49.151,200
IT,345,Vipiteno,11.431,46.891,200
SE,345,Fagersta,15.809,60.002,200
DE,414,Landshut,12.152,48.537,345
DE,240,Haslau,11.805,47.684,200
SE,288,Österbymo,15.273,57.827,200
DE,288,Grafing b.München,11.966,48.045,200
DE,288,Pasewalk,13.99,53.505,200
IT,414,Rovereto,11.045,45.886,200
IT,856,Trento,11.132,46.076,345
IT,288,Ala,11,45.759,200
IT,345,Ligonchio,10.342,44.315,200
IT,1478,Bolzano,11.334,46.493,595
IT,3062,Sassari,8.55,40.73,1232
NO,714,Narvik,17.426,68.436,288
FR,345,Penta-di-Casinca,9.459,42.466,200
SE,345,Karlshamn,14.856,56.174,288
DE,288,Paindlkofen,12.27,48.685,200
DE,345,Königs Wusterhausen,13.624,52.299,200
DE,714,Sehma,12.996,50.538,200
CZ,288,Jáchymov,12.935,50.358,200
DE,714,Eberswalde,13.82,52.835,288
CZ,595,Karlovy Vary,12.886,50.221,345
AT,240,Jenbach,11.769,47.395,200
DE,496,Riesa,13.305,51.303,240
PL,496,Świnoujście,14.243,53.905,345
DE,288,Drahnsdorf,13.576,51.916,200
FR,288,Cervione,9.491,42.331,200
IT,1773,Verona,10.997,45.434,714
NO,240,Bjerkvik,17.557,68.552,200
SE,240,Ingatorp,15.413,57.639,200
SE,2127,Linköping,15.621,58.404,714
DE,345,Strausberg,13.882,52.58,200
SE,240,Arbrå,16.378,61.468,200
DK,1232,Rønne,14.709,55.093,414
SE,240,Stöde,16.587,62.419,200
SE,288,Lenhovda,15.272,56.995,200
DE,414,Cham,12.667,49.219,288
SE,856,Bollnäs,16.372,61.348,345
SE,856,Storuman,17.116,65.094,414
SE,345,Junsele,16.862,63.697,200
IT,496,Bressanone,11.657,46.709,200
SE,240,Falla,15.748,58.682,200
SE,240,Åseda,15.353,57.167,200
DE,288,Straubing,12.572,48.876,240
FR,345,Sari-Solenzara,9.396,41.859,200
FR,240,Conca,9.335,41.734,200
FR,345,Bonifacio,9.156,41.387,200
SE,345,Köping,15.997,59.513,200
SE,414,Kisa,15.635,57.984,200
SE,595,Avesta,16.178,60.14,345
AT,345,Wörgl,12.066,47.486,288
SE,240,Näsåker,16.902,63.443,200
SE,414,Hofors,16.29,60.55,288
IT,714,Livorno,10.326,43.547,496
DE,595,Waldkraiburg,12.4,48.208,240
DE,240,Sora,13.506,51.077,200
IT,496,Lucca,10.501,43.86,240
SE,240,Hassela,16.691,62.115,200
NO,288,Tennevoll,17.807,68.748,200
SE,496,Kosta,15.397,56.843,200
CZ,240,Domažlice,12.929,49.441,200
IT,288,Benabbio,10.605,43.999,200
IT,414,Modena,10.918,44.656,240
SE,288,Äsköping,16.064,59.147,200
DE,496,Schwedt/Oder,14.288,53.055,200
IT,496,Macomer,8.766,40.262,288
IT,345,Quarantoli,11.098,44.92,200
IT,240,Luogosanto,9.205,41.046,200
IT,1478,Oristano,8.594,39.902,414
NO,345,Sommarøy,18.006,69.635,240
NO,1027,Finnsnes,17.982,69.232,345
SE,288,Horndal,16.411,60.299,200
IT,414,Ozieri,9.002,40.584,200
DE,288,Reichenau,13.575,50.793,200
IT,288,Oschiri,9.102,40.72,200
IT,414,Legnago,11.308,45.19,200
PL,1773,Szczecin,14.54,53.433,714
IT,595,La Maddalena,9.412,41.221,240
PL,288,Stepnica,14.631,53.653,200
NO,288,Gibostad,18.075,69.356,200
IT,288,Ghilarza,8.837,40.123,200
DE,1027,Dresden,13.737,51.052,714
SE,595,Sorsele,17.533,65.527,345
DE,240,Worin,14.271,52.522,200
IT,414,Terralba,8.638,39.718,200
SE,414,Vimmerby,15.847,57.669,288
PL,288,Moryń,14.395,52.852,200
IT,345,Mezzano,11.809,46.154,240
SE,414,Åtvidaberg,15.998,58.198,200
SE,414,Katrineholm,16.205,58.992,345
DK,345,Svaneke,15.144,55.139,200
IT,496,Cecina,10.519,43.314,200
AT,288,Sankt Johann in Tirol,12.425,47.522,200
SE,856,Åsele,17.352,64.163,345
CZ,345,Žatec,13.546,50.327,200
IT,240,Portoferraio,10.314,42.811,200
SE,345,Ockelbo,16.719,60.892,200
CZ,414,Most,13.636,50.503,200
DE,240,Beeskow,14.247,52.172,200
SE,414,Norrköping,16.179,58.591,240
CZ,856,Plzeň,13.377,49.748,496
IT,496,Iglesias,8.537,39.313,345
CZ,345,Přeštice,13.334,49.573,200
IT,414,Vergato,11.113,44.285,200
DE,595,Regen,13.126,48.97,240
CZ,496,Klatovy,13.294,49.396,288
IT,414,Sant'Antioco,8.454,39.063,200
IT,288,Samugheo,8.941,39.948,200
SE,595,Sollefteå,17.281,63.166,414
SE,414,Sala,16.58,59.918,200
DE,240,Burghausen,12.831,48.169,240
SE,496,Bergsjö,17.059,61.98,200
SE,595,Karlskrona,15.624,56.198,414
SE,240,Ilsbo,17.05,61.856,200
SE,595,Västerås,16.543,59.618,414
IT,856,Olbia,9.505,40.923,595
IT,496,Piombino,10.527,42.922,345
IT,288,San Candido,12.279,46.733,200
IT,288,Villacidro,8.738,39.458,200
SE,345,Eskilstuna,16.503,59.371,200
SE,856,Arjeplog,17.862,66.046,496
IT,288,Este,11.656,45.225,200
PL,288,Maszewo,15.059,53.497,200
SE,1478,Hudiksvall,17.116,61.729,595
SE,345,Nybro,15.906,56.745,200
IT,856,Nuoro,9.311,40.318,496
IT,2127,Bologna,11.342,44.494,1232
NO,714,Setermoen,18.351,68.861,288
PL,414,Dębno,14.701,52.74,200
IT,288,Pieve di Cadore,12.366,46.423,200
AT,240,Zell am See,12.794,47.326,200
DE,345,Eisenhüttenstadt,14.631,52.146,200
IT,288,Bagno di Gavorrano,10.887,42.938,200
IT,288,Poggibonsi,11.146,43.472,200
IT,240,Conegliano,12.295,45.877,200
CZ,345,Zlonice,14.092,50.288,200
DE,345,Waldkirchen,13.6,48.731,200
PL,240,Resko,15.403,53.769,200
CZ,496,Příbram,14.01,49.691,345
SE,288,Enköping,17.086,59.639,200
SE,288,Högsby,16.025,57.169,200
DE,856,Cottbus,14.335,51.759,595
SE,240,Söderhamn,17.056,61.309,240
IT,856,Tortolì,9.666,39.929,288
AT,595,Sankt Johann im Pongau,13.204,47.35,345
DE,240,Turnow,14.387,51.872,200
SE,856,Nyköping,17.023,58.757,345
DE,714,Frankfurt (Oder),14.551,52.342,345
SE,3062,Sundsvall,17.296,62.397,1232
SE,345,Bredbyn,18.102,63.451,200
DE,496,Hoyerswerda,14.244,51.439,240
CZ,288,Prášily,13.378,49.105,200
PL,414,Świdwin,15.774,53.778,200
SE,288,Kristineberg,18.577,65.061,200
IT,345,Pomarance,10.871,43.298,200
PL,288,Bogatynia,14.961,50.902,200
SE,288,Löttorp,17.003,57.164,200
SE,414,Överum,16.307,57.99,200
DE,345,Bischofswerda,14.18,51.128,240
IT,714,Ferrara,11.619,44.836,288
IT,856,Padova,11.881,45.413,496
IT,240,Desulo,9.226,40.01,200
IT,345,Belluno,12.217,46.151,240
SE,240,Mogata,16.448,58.453,200
PL,288,Pyrzyce,14.892,53.146,200
IT,240,Monterenzio,11.405,44.325,200
CZ,496,Ústí nad Labem,14.04,50.661,288
IT,288,Auronzo,12.42,46.562,240
IT,288,San Teodoro,9.672,40.775,200
IT,496,Rovigo,11.793,45.08,200
PL,288,Myślibórz,14.867,52.924,200
PL,288,Gryfice,15.193,53.907,288
SE,496,Tärnsjö,16.926,60.154,200
AT,240,Kals am Großglockner,12.647,47.002,200
PL,496,Nowogard,15.129,53.665,200
PL,345,Stargard,15.029,53.339,240
NO,288,Andselv,18.522,69.07,200
SE,345,Vallvik,17.18,61.186,200
SE,288,Hjorted,16.309,57.623,200
SE,240,Norrsundet,17.138,60.933,200
IT,1478,Firenze,11.249,43.787,595
SE,345,Malmköping,16.724,59.135,200
SE,496,Torsås,16.001,56.412,200
AT,1027,Salzburg,13.034,47.81,714
SE,3062,Gävle,17.122,60.69,714
IT,496,Siniscola,9.692,40.572,240
DE,345,Pocking,13.31,48.4,200
DE,240,Berchtesgaden,13.003,47.633,200
SE,288,Morgongåva,16.964,59.933,200
IT,288,Dorgali,9.588,40.293,200
IT,345,Urzulei,9.508,40.093,200
SE,288,Valdemarsvik,16.596,58.21,240
IT,595,Treviso,12.24,45.674,200
DE,714,Passau,13.458,48.573,345
AT,856,Lienz,12.77,46.829,288
DE,240,Keune,14.661,51.718,200
IT,288,Dolianova,9.178,39.379,200
CZ,240,Kladno,14.103,50.147,200
IT,3674,Cagliari,9.116,39.23,2127
IT,345,Pula,9,39.009,200
CZ,288,Beroun,14.071,49.965,200
SE,1027,Oskarshamn,16.432,57.257,414
SE,288,Nävekvarn,16.798,58.633,200
CZ,240,Blatná,13.882,49.425,200
SE,414,Kramfors,17.777,62.928,200
IT,345,Bubano,11.783,44.412,200
SE,240,Strängnäs,17.019,59.373,200
SE,856,Västervik,16.626,57.755,496
SE,288,Mönsterås,16.441,57.042,200
SE,1232,Kalmar,16.34,56.677,714
CZ,414,Chřibská,14.483,50.863,200
SE,288,Loftahammar,16.687,57.902,200
IT,496,Siena,11.334,43.32,288
SE,240,Figeholm,16.549,57.374,200
CZ,414,Štětí,14.374,50.453,200
IT,1027,Grosseto,11.107,42.771,595
SE,240,Ramvik,17.864,62.81,200
NO,5289,Tromsø,18.956,69.651,2127
IT,414,Chioggia,12.278,45.196,240
IT,496,Tertenia,9.577,39.697,200
PL,595,Gorzów Wielkopolski,15.229,52.738,496
AT,288,Bad Gastein,13.134,47.116,200
IT,414,Pordenone,12.651,45.961,240
SE,240,Älvkarleby,17.454,60.57,200
AT,240,Großarl,13.201,47.237,200
SE,595,Härnösand,17.907,62.631,200
PL,240,Drzewce,15.106,52.24,200
PL,595,Choszczno,15.422,53.169,200
DE,240,Wegscheid,13.789,48.601,200
SE,288,Degerhamn,16.417,56.354,200
IT,288,San Donà di Piave,12.565,45.636,200
PL,345,Ińsko,15.55,53.436,200
CZ,288,Prachatice,13.997,49.014,200
IT,496,Comacchio,12.181,44.696,240
IT,240,Montiano,11.223,42.645,200
CZ,2552,Praha,14.417,50.085,1478
IT,345,Porto Santo Stefano,11.123,42.433,288
IT,288,Muravera,9.574,39.421,240
CZ,496,Písek,14.147,49.31,240
SE,714,Tierp,17.52,60.345,240
IT,345,Goro,12.3,44.855,200
IT,496,Tolmezzo,13.016,46.406,288
IT,496,Forlì,12.053,44.222,288
AT,414,Gosau,13.524,47.58,200
IT,345,Villasimius,9.517,39.145,200
IT,414,Ravenna,12.203,44.416,200
SE,414,Fredrika,18.403,64.074,288
IT,345,Portogruaro,12.839,45.777,200
IT,240,Pila,12.483,44.967,200
PL,496,Żary,15.142,51.641,240
DE,856,Görlitz,14.988,51.155,288
NO,496,Storsteinnes,19.218,69.237,200
CZ,240,Brandýs nad Labem-Stará Boleslav,14.663,50.188,200
AT,496,Gmunden,13.799,47.919,200
PL,414,Białogard,15.991,54.007,200
IT,595,Arezzo,11.866,43.472,288
SE,240,Nordingrå,18.287,62.931,200
SE,1232,Uppsala,17.634,59.851,414
SE,288,Docksta,18.328,63.055,200
PL,288,Iłowa,15.2,51.503,200
NO,414,Skjold,19.295,69.027,200
SE,595,Malå,18.742,65.185,288
SE,240,Storvreta,17.705,59.958,200
AT,288,Malta,13.507,46.955,200
SE,1027,Lycksele,18.666,64.594,595
IT,414,Abbadia San Salvatore,11.676,42.878,345
CZ,345,Český Krumlov,14.315,48.812,200
PL,414,Międzyrzecz,15.587,52.435,200
CZ,856,České Budějovice,14.474,48.975,595
PL,414,Świebodzin,15.531,52.247,240
AT,288,Wels,14.03,48.168,200
PL,1478,Koszalin,16.171,54.19,714
CZ,414,Mladá Boleslav,14.903,50.412,288
IT,240,Oro,12.161,42.991,200
IT,240,Orvieto,12.108,42.718,200
AT,345,Spittal an der Drau,13.496,46.796,345
IT,345,Gorizia,13.614,45.934,200
PL,240,Bobolice,16.591,53.955,200
SE,345,Järna,17.562,59.094,200
CZ,496,Benešov,14.687,49.782,240
CZ,414,Jindřichův Hradec,15.002,49.145,200
CZ,288,Votice,14.639,49.64,200
CZ,856,Liberec,15.058,50.771,496
PL,414,Złocieniec,16.008,53.53,200
CZ,240,Žirovnice,15.188,49.253,200
PL,714,Słupsk,17.028,54.466,414
AT,496,Sankt Martin,13.654,47.1,240
IT,1773,Trieste,13.803,45.634,414
SE,288,Trosa,17.546,58.899,200
PL,240,Dretyń,16.982,54.104,200
SE,345,Glommersträsk,19.633,65.261,200
PL,240,Połczyn-Zdrój,16.099,53.764,200
PL,414,Szamotuły,16.584,52.613,200
PL,1232,Zielona Góra,15.503,51.936,714
PL,595,Legnica,16.162,51.205,345
SE,288,Bergshamra,18.629,59.637,200
AT,345,Berndorf,14.216,48.431,200
IT,856,Udine,13.244,46.066,345
PL,288,Drezdenko,15.831,52.842,200
SE,240,Björna,18.599,63.551,200
CZ,856,Tábor,14.658,49.414,345
SE,288,Köpmanholmen,18.573,63.171,200
AT,240,Gröbming,13.903,47.444,200
NO,496,Hansnes,19.613,69.962,288
SE,288,Rusksele,18.895,64.814,200
SE,345,Märsta,17.847,59.627,200
AT,2127,Linz,14.307,48.268,856
IT,240,Canino,11.753,42.467,200
IT,288,Città di Castello,12.233,43.469,200
SE,1027,Örnsköldsvik,18.688,63.317,496
PL,240,Międzychód,15.906,52.606,200
PL,345,Borowina,15.584,51.635,200
IT,1027,Rimini,12.577,44.049,714
SE,345,Alunda,18.085,60.066,200
SE,1232,Arvidsjaur,19.18,65.592,595
IT,345,Tarquinia,11.757,42.248,200
PL,345,Bolesławiec,15.559,51.262,288
CZ,345,Semily,15.336,50.602,200
SI,345,Soča,13.667,46.342,200
SE,240,Segersäng,17.93,59.027,200
AT,414,Steyr,14.428,48.045,200
AT,496,Liezen,14.242,47.565,288
CZ,496,Kolín,15.2,50.028,288
PL,240,Rudki,16.367,53.402,200
IT,414,Civitavecchia,11.801,42.092,345
SE,345,Täby,18.075,59.448,200
AT,345,Windischgarsten,14.328,47.722,200
SE,496,Nynäshamn,17.944,58.905,288
SE,288,Gideå,18.972,63.483,200
CZ,240,Byňov,14.799,48.816,200
SI,496,Tolmin,13.732,46.183,200
SE,15789,Stockholm,18.091,59.27,5289
IT,595,Fermignano,12.642,43.686,240
IT,2552,Perugia,12.379,43.099,714
SE,595,Östhammar,18.361,60.26,288
SE,595,Moskosel,19.452,65.873,240
IT,414,Viterbo,12.107,42.425,288
SE,240,Jordbro,18.127,59.145,200
PL,240,Wałcz,16.472,53.273,200
SE,288,Rånäs,18.304,59.804,200
AT,240,Rennweg,14.127,46.784,200
PL,288,Jelenia Góra,15.736,50.902,288
SE,496,Bjurholm,19.22,63.932,240
PL,1027,Szczecinek,16.692,53.71,345
SE,345,Åmsele,19.344,64.53,240
AT,414,Königswiesen,14.841,48.408,200
PL,414,Kępice,16.889,54.241,200
IT,288,Todi,12.406,42.78,200
PL,496,Głogów,16.075,51.649,200
SE,714,Norsjö,19.489,64.913,288
SE,496,Porjus,19.815,66.957,240
SI,240,Dutovlje,13.833,45.756,200
PL,414,Lubasz,16.522,52.847,200
AT,288,Leopoldsdorf,15.138,48.948,200
AT,288,Oberland,14.746,47.9,200
AT,595,Amstetten,14.871,48.123,240
NO,496,Lyngseidet,20.217,69.572,200
SE,414,Hallstavik,18.599,60.054,200
SE,1232,Jokkmokk,19.85,66.601,496
PL,496,Miastko,16.973,53.996,240
HR,414,Rovinj,13.641,45.08,414
AT,414,Klagenfurt am Wörthersee,14.305,46.625,414
CZ,288,Dvůr Králové nad Labem,15.814,50.432,200
NO,345,Skibotn,20.274,69.392,200
PL,1232,Piła,16.765,53.152,595
IT,496,Fabriano,12.903,43.341,288
IT,240,Civita Castellana,12.408,42.295,200
AT,414,Zwettl-Niederösterreich,15.168,48.606,288
PL,414,Lubin,16.204,51.396,200
CZ,414,Trutnov,15.912,50.562,200
CZ,1232,Pardubice,15.78,50.039,595
IT,414,Spoleto,12.714,42.748,200
SE,595,Norrtälje,18.697,59.762,288
IT,1027,Terni,12.638,42.566,414
SE,595,Nordmaling,19.503,63.569,240
PL,496,Chojnice,17.565,53.694,414
SE,1773,Kiruna,20.245,67.854,1232
AT,288,Weiz,15.63,47.216,200
IT,240,Acilia-Castel Fusano-Ostia Antica,12.348,41.769,200
HR,288,Brod Moravice,14.971,45.464,200
HR,595,Medulin,13.938,44.821,414
IT,288,Visso,13.086,42.933,200
IT,288,Tolentino,13.291,43.213,240
PL,345,Jawor,16.189,51.05,200
CZ,856,Jihlava,15.591,49.396,496
PL,240,Barnowiec,17.236,54.216,200
IT,240,Senigallia,13.218,43.71,200
PL,345,Główczyce,17.368,54.619,200
PL,595,Śrem,17.015,52.089,240
AT,414,Sankt Pölten,15.63,48.201,414
NO,856,Skjervøy,20.967,70.031,496
PL,345,Gostyń,17.004,51.879,200
AT,345,Eisenerz,14.891,47.543,200
PL,240,Sępólno Krajeńskie,17.534,53.443,200
SI,345,Kranj,14.358,46.243,200
CZ,240,Česká Třebová,16.447,49.902,200
IT,595,Portocivitanova,13.721,43.307,240
AT,2552,Graz,15.434,47.078,856
SE,288,Bygdsiljum,20.504,64.351,200
PL,240,Czersk,17.973,53.774,200
HR,240,Baška,14.755,44.971,200
SE,288,Klintehamn,18.202,57.387,200
SE,595,Burträsk,20.644,64.513,200
SI,496,Novo mesto,15.165,45.806,345
SE,714,Vindeln,19.719,64.2,288
SI,345,Postojna,14.21,45.774,240
PL,496,Złotów,17.048,53.361,200
PL,496,Leszno,16.569,51.841,240
SE,1478,Visby,18.314,57.639,856
CZ,240,Jemnice,15.57,49.019,240
IT,15789,Roma,12.497,41.891,6346
IT,240,Cingoli,13.209,43.376,200
PL,240,Małowice,16.472,51.406,200
PL,714,Łeba,17.568,54.765,288
IT,345,Monterotondo,12.625,42.057,200
PL,288,Antoniny,17.061,53.058,200
PL,856,Wałbrzych,16.287,50.742,345
SE,414,Burgsvik,18.277,57.033,200
PL,240,Lipka,17.246,53.494,200
SE,345,Jörn,20.034,65.056,200
SI,496,Ljubljana,14.512,46.056,496
AT,595,Wolfsberg,14.845,46.84,288
IT,345,Rieti,12.869,42.406,200
PL,2552,Poznań,16.918,52.407,1027
IT,345,Leonessa,12.96,42.566,200
AT,240,Wolfsbach,15.662,48.85,200
HR,595,Labin,14.124,45.086,200
AT,595,Leoben,15.092,47.374,240
SE,856,Hemse,18.383,57.239,345
IT,345,Norcia,13.097,42.79,240
CZ,288,Broumov,16.332,50.586,200
CZ,240,Zámrsk,16.129,49.986,200
CZ,345,Svratka,16.032,49.711,200
IT,856,Ancona,13.506,43.588,595
PL,345,Buków,16.585,50.985,200
PL,240,Topola,17.358,53.285,200
PL,595,Wągrowiec,17.204,52.803,200
CZ,345,Vamberk,16.291,50.118,200
AT,240,Langenlois,15.678,48.473,200
CZ,288,Pohledec,16.1,49.579,200
HR,595,Rijeka,14.407,45.34,345
PL,414,Rawicz,16.907,51.629,200
FI,714,Kilpisjärvi,20.87,69.018,288
AT,414,Lilienfeld,15.598,48.013,200
CZ,288,Jevišovice,15.99,48.987,200
SE,1478,Gällivare,20.655,67.139,595
SE,345,Slite,18.795,57.712,200
SE,240,Ljugarn,18.707,57.333,200
NO,496,Storslett,21.025,69.767,200
SE,240,Botsmark,20.245,64.254,200
HR,240,Martinšćica,14.351,44.819,200
SE,414,Tjautjas/Cavccas,20.735,67.325,200
SE,288,Vidsel,20.516,65.833,200
PL,288,Iwno,17.272,52.404,200
AT,240,Zellerndorf,15.955,48.696,200
AT,288,Reidling,15.82,48.32,200
PL,240,Linia,17.934,54.45,200
SE,345,Vuollerim,20.624,66.431,288
SE,345,Boliden,20.38,64.866,240
CZ,714,Znojmo,16.049,48.856,288
SE,3062,Umeå,20.241,63.833,1773
PL,288,Kłodzko,16.659,50.433,240
AT,288,Sankt Peter im Sulmtal,15.251,46.758,240
IT,288,Subiaco,13.09,41.925,200
SI,240,Velenje,15.106,46.353,200
IT,856,Latina,12.898,41.465,345
PL,288,Bystrzyca Kłodzka,16.646,50.284,200
IT,288,Fermo,13.73,43.166,200
CZ,496,Svitavy,16.468,49.757,240
HR,496,Krk,14.575,45.026,200
SI,345,Kočevje,14.862,45.641,200
AT,496,Mürzzuschlag,15.676,47.604,288
IT,595,L'Aquila,13.396,42.364,240
PL,288,Kościerzyna,17.984,54.117,288
HR,288,Crikvenica,14.689,45.175,200
AT,288,Hollabrunn,16.08,48.563,240
SE,595,Fårösund,19.05,57.859,200
PL,2127,Wrocław,17.031,51.108,1232
SE,240,Holmsund,20.367,63.707,200
HR,1773,Mali Lošinj,14.476,44.528,714
HR,288,Mrkopalj,14.854,45.315,200
PL,496,Gniezno,17.596,52.536,288
SI,714,Celje,15.264,46.231,288
PL,288,Żnin,17.732,52.85,240
PL,288,Kartuzy,18.197,54.329,200
AT,345,Wenigzell,15.787,47.426,200
IT,496,Teramo,13.714,42.662,240
IT,1027,Avezzano,13.427,42.031,345
PL,240,Strzelin,17.068,50.784,200
IT,1027,San Benedetto del Tronto,13.881,42.934,345
PL,345,Koronowo,17.941,53.31,200
PL,414,Jarocin,17.506,51.968,240
AT,240,Gleisdorf,15.713,47.106,200
CZ,345,Boskovice,16.66,49.488,200
PL,345,Krotoszyn,17.439,51.701,288
IT,414,Frosinone,13.351,41.639,288
CZ,2127,Brno,16.61,49.193,856
PL,714,Puck,18.401,54.713,200
FI,414,Ödkarby,19.967,60.309,200
HR,496,Rab,14.762,44.755,200
SE,414,Harads,20.958,66.082,240
AT,496,Feldbach,15.889,46.953,240
HR,595,Brinje,15.124,44.998,240
CZ,240,Hustopeče,16.738,48.941,200
PL,240,Grodków,17.386,50.694,200
IT,1478,Ponza,12.965,40.894,345
PL,414,Węgierki,17.675,52.322,200
PL,345,Starogard Gdański,18.514,53.948,200
HR,288,Verunić,14.858,44.143,200
HR,240,Cerovnik,15.3,45.15,200
PL,288,Kleczew,18.178,52.369,200
SE,414,Hakkas,21.567,66.915,345
FI,240,Vårdö,20.375,60.245,200
PL,345,Chełmża,18.609,53.185,240
PL,856,Grudziądz,18.754,53.488,345
SK,414,Malacky,17.018,48.436,240
SE,240,Ullatti,21.818,67.017,200
IT,345,Terracina,13.228,41.287,200
PL,1773,Bydgoszcz,18.001,53.123,595
HR,240,Dugo Selo,16.233,45.806,200
IT,240,Giulianova,13.958,42.757,200
PL,240,Oleśnica,17.389,51.207,200
AT,288,Natschbach,16.1,47.712,200
SI,288,Slovenska Bistrica,15.568,46.39,200
SI,1027,Maribor,15.647,46.562,414
SE,414,Älvsbyn,21.004,65.674,200
FI,1027,Mariehamn,19.937,60.096,496
CZ,714,Šumperk,16.971,49.965,288
AT,345,Baden,16.245,48.004,200
AT,9138,Wien,16.376,48.212,3674
PL,240,Karmin,17.689,51.837,200
PL,345,Gdynia,18.541,54.515,200
IT,288,Vestea,13.884,42.39,200
