rs,name,lon,lat,r1
33,Radoši kod Višnjana,13.684,45.261,20
28,Crveni Vrh,13.539,45.491,28
46,Seget,13.543,45.409,20
24,Križine,13.541,45.397,24
46,Tar,13.625,45.303,46
28,Gedići,13.654,45.273,24
24,Mušalež,13.646,45.212,24
66,Žikovići,13.698,45.239,28
24,Radovani,13.745,45.251,20
24,Vranići kod Višnjana,13.775,45.292,24
112,Oprtalj,13.824,45.382,112
39,Bratovići,13.754,45.218,39
33,Krunčići,13.738,45.143,33
28,Vižintini,13.858,45.392,20
24,Sveti Bartol,13.857,45.338,20
46,Škropeti,13.844,45.28,20
33,Škuljari,13.923,45.417,24
46,Bašanija,13.501,45.485,39
24,Monterol,13.515,45.451,20
986,Umag,13.528,45.436,476
55,Murine,13.545,45.461,20
66,Lovrečica,13.538,45.383,39
28,Petrovija,13.563,45.423,20
28,Sveta Marija na Krasu,13.581,45.45,28
24,Vilanija,13.579,45.434,24
39,Sveta Marija na Krasu,13.593,45.464,39
39,Karigador,13.552,45.362,39
28,Radini,13.579,45.379,28
46,Juricani,13.592,45.406,20
134,Novigrad,13.563,45.316,79
24,Fiorini,13.586,45.362,24
55,Bužinija,13.587,45.343,24
28,Gamboci,13.625,45.425,20
94,Brtonigla,13.626,45.379,55
66,Buje,13.656,45.411,66
79,Črvar,13.593,45.264,33
33,Kaštel,13.67,45.436,20
33,Nova Vas,13.642,45.362,20
24,Vabriga,13.615,45.293,20
28,Bibali,13.683,45.414,20
276,Poreč,13.604,45.226,276
46,Momjan,13.709,45.439,28
55,Funtana,13.605,45.174,39
24,Oskoruš,13.73,45.45,24
33,Antonci,13.641,45.238,20
134,Vrsar,13.606,45.148,55
66,Grožnjan,13.722,45.379,66
66,Kaštelir,13.69,45.301,66
276,Brič,13.76,45.457,55
39,Radoši kod Žbandaja,13.658,45.222,33
33,Vrnjak,13.749,45.43,33
28,Fuškulin,13.642,45.182,20
24,Ohnići,13.715,45.311,20
33,Kućibreg,13.792,45.458,33
46,Flengi,13.665,45.164,33
28,Žudetići,13.747,45.345,20
46,Višnjan,13.72,45.276,46
39,Montižana,13.684,45.183,39
397,Rovinj,13.641,45.08,397
33,Makovci,13.78,45.391,24
160,Vižinada,13.759,45.33,94
24,Tićan,13.749,45.291,20
24,Kontešići,13.692,45.159,24
24,Šušnjići,13.712,45.195,24
24,Bucalovići,13.748,45.272,20
66,Čepić,13.817,45.414,24
46,Pirelići,13.805,45.359,20
24,Brkač,13.801,45.33,20
33,Čehići,13.742,45.192,33
24,Stranići kod Lovreča,13.735,45.159,24
79,Smolici,13.781,45.255,33
39,Majkusi,13.772,45.235,33
55,Motovun,13.828,45.337,55
55,Karojba,13.823,45.302,55
33,Bubani,13.746,45.119,33
24,Putini,13.741,45.107,24
46,Jakići Gorinji,13.779,45.192,33
24,Zrenj,13.871,45.403,24
33,Gradinje,13.861,45.373,20
28,Zgrabljići,13.781,45.179,28
24,Muntrilj,13.81,45.243,20
24,Bartolići,13.868,45.358,20
28,Kaldir,13.85,45.315,20
24,Jakovici,13.806,45.209,20
79,Ugrini,13.913,45.445,33
112,Mrgani,13.784,45.128,46
46,Červari,13.796,45.15,39
28,Baredine,13.919,45.43,28
39,Mali Mlun,13.907,45.4,33
24,Zamask,13.877,45.326,24
33,Radetići,13.807,45.165,33
39,Kurili,13.788,45.109,39
66,Pračana,13.908,45.377,33
28,Sovinjska Brda,13.902,45.364,28
79,Golaš,13.778,45.08,33
79,Tinjan,13.84,45.217,55
24,Kringa,13.835,45.183,20
33,Perci,13.951,45.442,28
79,Barušići,13.91,45.346,46
28,Trviž,13.875,45.265,28
28,Veliki Vareški,13.992,44.944,20
79,Kašćerga,13.901,45.303,46
24,Novaki Pazinski,13.993,45.266,20
33,Kompanj,14.072,45.391,24
46,Vela Traba,13.87,45.246,24
24,Salambati,13.843,45.096,24
24,Ivanje,14.321,45.149,24
134,Bale,13.782,45.039,79
66,Gajana,13.832,45.008,28
46,Sužan,14.58,45.151,20
112,Dobrinj,14.605,45.128,46
39,Vodice,14.053,45.484,39
55,Gornja Nugla,14.025,45.413,33
94,Gornji Zagon,14.827,45.18,39
276,Brod Moravice,14.971,45.464,160
94,Pusti,13.894,45.075,55
24,Ćusi,13.996,45.254,20
33,Batlug,13.974,45.161,33
79,Gračišće,14.01,45.22,46
39,Bičići,13.93,45.025,39
79,Sutivanac,14.007,45.134,46
230,Lupoglav,14.107,45.353,94
33,Želiski,13.978,45.05,20
112,Manjadvorci,13.976,45.009,46
160,Jelovice,14,45.498,66
79,Belaj,14.111,45.271,55
24,Letaj,14.112,45.26,24
79,Sveti Petar u Šumi,13.863,45.181,46
24,Mutvoran,13.985,44.959,20
571,Medulin,13.938,44.821,397
46,Kanfanar,13.84,45.124,39
39,Trget,14.057,45.021,33
46,Krmed,13.826,45.084,39
66,Salakovci,14.087,45.055,20
112,Buzet,13.968,45.405,112
28,Peničići,13.965,45.388,20
24,Negnar,13.944,45.34,24
46,Heki,13.89,45.217,24
79,Opatija,14.304,45.338,55
28,Medveje,13.959,45.361,28
79,Viškovo,14.388,45.377,28
24,Kršikla,13.943,45.306,24
39,Prodani,13.977,45.375,24
33,Soboli,14.493,45.373,20
79,Cernik,14.494,45.351,46
39,Kostrena,14.487,45.312,39
24,Raponji,13.857,45.084,24
24,Grdoselo,13.943,45.282,24
46,Peroj,13.799,44.951,20
39,Zbičina,14.349,44.9,39
24,Selca,13.998,45.397,20
24,Vode,14.635,45.529,24
28,Mali Podol,14.358,44.879,28
79,Kropinjak,14.019,45.444,33
33,Linardići,14.464,45.073,33
160,Kraljevica,14.569,45.274,79
28,Orlec,14.425,44.881,28
230,Pazin,13.936,45.239,230
331,Stanić,14.411,44.841,94
28,Vadediji,13.891,45.129,20
79,Plajzi,14.708,45.457,55
28,Dane,14.041,45.47,28
39,Butoniga,13.964,45.293,28
39,Bertoši,13.932,45.219,20
66,Fažana,13.804,44.927,46
33,Grimalda,13.98,45.317,33
33,Tribalj,14.678,45.219,33
24,Grbajel,14.811,45.467,24
192,Žminj,13.908,45.142,79
24,Čiritež,14.023,45.4,24
55,Zapolje Brodsko,14.841,45.462,39
39,Cukrići,13.86,45.025,39
24,Zarečje,13.961,45.255,20
39,Bričanci,13.892,45.095,39
46,Bribir,14.76,45.162,39
39,Colnari,14.928,45.52,39
24,Bibići,13.883,45.064,24
28,Bazgalji,13.942,45.197,28
24,Valbandon,13.818,44.915,20
24,Lindar,13.959,45.231,20
66,Donji Šajn,14.958,45.499,28
55,Blatna Vas,14.025,45.377,33
230,Baška,14.755,44.971,160
55,Stari Lazi,14.968,45.436,24
79,Draguć,14.008,45.331,46
33,Oslići,14.015,45.347,33
55,Krmpotići,14.862,45.153,39
24,Smokvica Krmpotska,14.851,45.087,24
39,Crno,14.874,45.134,39
24,Gradišće,13.921,45.118,20
79,Vodnjan,13.852,44.959,79
55,Štokovci,13.892,45.05,55
24,Boškari,13.892,45.038,24
39,Domijanići,13.945,45.146,20
24,Brnobići,14.042,45.365,24
39,Rašpor,14.077,45.441,24
28,Prapoće,14.074,45.424,24
79,Cerovlje,14.012,45.276,39
33,Previž,14.022,45.293,20
46,Mandalenčići,13.982,45.2,20
55,Galižana,13.868,44.934,20
112,Pula,13.843,44.87,112
24,Žagrići,13.959,45.134,24
66,Cere,13.951,45.112,28
24,Orbanići,13.917,45.004,24
33,Orihi,13.945,45.068,33
28,Erkovčići,14.067,45.345,24
28,Borut,14.053,45.305,24
33,Ročko Polje,14.081,45.37,20
39,Jakačići,14.005,45.179,20
39,Divšići,13.93,44.993,28
55,Lanišće,14.116,45.409,55
55,Vinkuran,13.865,44.836,28
33,Draguzeti,13.976,45.084,24
33,Loborika,13.906,44.916,33
24,Banjole,13.867,44.824,24
33,Gradinje,14.064,45.265,28
33,Pićan,14.04,45.204,33
33,Jurićev Kal,13.996,45.099,28
39,Male Mune,14.158,45.459,39
24,Sveta Katarina,14.039,45.175,24
28,Kukurini,14.049,45.189,20
46,Borinići,13.981,45.031,28
39,Paz,14.095,45.291,39
24,Pomer,13.896,44.824,24
28,Jadreški,13.917,44.869,28
112,Marčana,13.956,44.955,66
66,Brgudac,14.143,45.381,20
28,Muntić,13.946,44.924,24
66,Barban,14.017,45.065,66
33,Boljun,14.122,45.302,33
24,Veli Turini,14.035,45.102,24
33,Sveti Martin,14.051,45.129,33
66,Tupljak,14.091,45.214,28
46,Premantura,13.912,44.801,20
94,Valtura,13.958,44.906,39
160,Žejane,14.194,45.44,46
46,Zankovci,14.108,45.236,39
33,Kunj,14.042,45.079,20
28,Hrboki,14.019,45.028,28
24,Vranja,14.148,45.32,24
66,Šišan,13.944,44.854,28
39,Brest pod Učkom,14.158,45.332,28
24,Most-Raša,14.044,45.06,20
112,Brdce,14.236,45.496,79
24,Čambarelići,14.105,45.183,20
24,Krnica,14.017,44.972,24
46,Pavićini,14.001,44.928,28
24,Kostrčani,14.139,45.234,24
33,Kavran,13.997,44.909,33
28,Šapjane,14.251,45.481,28
39,Purgarija Čepić,14.136,45.207,28
33,Marceljani,14.094,45.104,20
28,Brgod,14.069,45.041,28
39,Raša,14.086,45.08,20
39,Nova Vas,14.158,45.244,39
112,Nedešćina,14.114,45.142,46
46,Rakalj,14.044,44.983,46
66,Kršan,14.141,45.171,66
46,Vela Učka,14.203,45.308,39
24,Jesenovik,14.172,45.232,24
24,Štrmac,14.125,45.122,20
66,Veli Brgud,14.269,45.425,46
24,Stepčići,14.149,45.146,20
571,Labin,14.124,45.086,230
33,Gora Glušići,14.102,45.034,28
39,Stanišovi,14.095,45.013,33
28,Vozilići,14.165,45.157,20
33,Ripenda Verbanci,14.145,45.11,20
55,Zvoneća,14.275,45.397,46
33,Gondolići,14.133,45.07,20
46,Plomin,14.18,45.138,24
39,Kalac,14.219,45.221,20
24,Rabac,14.159,45.08,20
28,Mučići,14.308,45.401,24
28,Koromačno,14.121,44.97,28
33,Duga Luka,14.157,45.049,28
28,Tuliševica,14.262,45.282,20
28,Sveta Marina,14.156,45.034,20
33,Golovik,14.228,45.196,33
112,Lovran,14.272,45.295,33
134,Drenje,14.149,45.015,55
28,Škalnica,14.338,45.445,20
39,Ičići,14.283,45.314,20
28,Mošćenice,14.248,45.226,20
112,Mošćenička Draga,14.254,45.239,79
66,Skvaranska,14.145,44.983,24
28,Jušići,14.319,45.379,20
79,Brseč,14.236,45.179,46
33,Pobri,14.312,45.353,20
46,Breza,14.345,45.422,20
230,Klana,14.376,45.447,55
33,Kastav,14.35,45.373,33
24,Brnčići,14.363,45.393,20
46,Marčelji,14.388,45.403,20
39,Porozina,14.285,45.131,39
39,Filozići,14.297,45.111,39
1419,Rijeka,14.407,45.34,822
28,Dragozetići,14.307,45.097,28
55,Jelenje,14.451,45.388,33
192,Važminec,14.343,45.137,79
79,Prezid,14.577,45.638,39
55,Beli,14.355,45.11,55
39,Sveti Petar,14.353,45.092,39
33,Gorači,14.607,45.608,24
134,Predošćica,14.372,45.042,66
94,Pernat,14.333,44.919,39
39,Kukuljanovo,14.52,45.33,20
571,Čabar,14.646,45.596,192
24,Ponikve,14.54,45.34,24
66,Vodice,14.397,45.008,39
28,Pršleti,14.632,45.545,28
66,Bakar,14.535,45.305,66
24,Kostrena,14.531,45.294,24
79,Kraljev Vrh,14.646,45.561,28
230,Unije,14.25,44.636,134
28,Gerovo,14.639,45.514,28
66,Mali Lug,14.657,45.531,55
192,Cres,14.41,44.96,160
160,Gerovski Kraj,14.645,45.499,79
33,Martinšćica,14.351,44.819,33
33,Praputnjak,14.571,45.3,20
28,Donji Žagari,14.694,45.566,28
28,Plešce,14.686,45.546,28
24,Poljica,14.492,45.085,24
55,Zbišina,14.398,44.869,55
79,Miholašćica,14.37,44.803,79
46,Merag,14.451,44.98,24
66,Pinezići,14.48,45.045,55
112,Omišalj,14.554,45.212,79
24,Zidarići,14.517,45.114,20
33,Njivice,14.541,45.163,33
79,Loznati,14.438,44.922,28
55,Malinska,14.528,45.125,55
28,Stivan,14.383,44.79,28
79,Strilčići,14.522,45.092,28
46,Brusići,14.515,45.066,39
24,Leska,14.668,45.416,24
33,Razloge,14.702,45.484,33
28,Gornja Krašićevica,14.697,45.471,28
55,Zakrajc Turkovski,14.725,45.523,55
28,Mali Dol,14.614,45.259,28
46,Mrzla Vodica,14.666,45.37,46
24,Požar,14.728,45.511,24
66,Bela Vodica,14.691,45.419,46
55,Zelin Crnoluški,14.682,45.395,39
46,Jadranovo,14.616,45.227,33
112,Ustrine,14.405,44.745,112
28,Gabonjin,14.566,45.111,20
28,Malo Selo,14.705,45.431,28
24,Zelin Mrzlovodički,14.685,45.382,24
46,Belej,14.424,44.778,46
24,Vela Voda,14.701,45.407,24
55,Zlobin,14.654,45.293,33
112,Osor,14.393,44.694,112
24,Čižići,14.6,45.161,24
28,Sedalce,14.762,45.507,28
66,Nerezine,14.397,44.659,66
28,Drivenik,14.652,45.24,28
39,Kras,14.601,45.109,20
46,Sveti Jakov,14.393,44.636,46
476,Krk,14.575,45.026,134
55,Lakmartin,14.589,45.053,24
55,Zagolik,14.78,45.49,55
39,Županje,14.634,45.145,20
55,Garica,14.611,45.087,33
94,Fužine,14.714,45.305,94
39,Dramalj,14.67,45.195,20
112,Ćunski,14.409,44.59,46
79,Lokve,14.752,45.36,79
24,Šilo,14.662,45.146,24
55,Belo Selo,14.742,45.329,20
39,Risika,14.645,45.105,20
331,Crikvenica,14.689,45.175,160
79,Punat,14.632,45.021,79
160,Delnice,14.8,45.394,160
39,Grižane-Belgrad,14.719,45.203,24
28,Lučice,14.796,45.38,20
94,Vrbnik,14.675,45.077,79
112,Punta Križa,14.494,44.638,94
33,Gornje Tihovo,14.839,45.43,33
28,Brestova Draga,14.795,45.323,28
24,Mala Lešnica,14.852,45.44,24
2042,Mali Lošinj,14.476,44.528,685
39,Dedin,14.851,45.385,28
24,Pucak,14.892,45.447,20
39,Doluš,14.915,45.501,33
28,Trški Lazi,14.901,45.459,24
39,Stara Baška,14.686,44.96,39
39,Kocijani,14.919,45.482,28
276,Mrkopalj,14.854,45.315,112
39,Stari Laz,14.872,45.357,33
79,Skrad,14.905,45.432,79
46,Draga Bašćanska,14.718,44.994,24
24,Leskova Draga,14.894,45.387,24
94,Novi Vinodolski,14.789,45.128,55
24,Čučak,14.942,45.468,20
28,Tuk Mrkopaljski,14.878,45.301,20
28,Divjake,14.932,45.423,20
24,Donji Zagon,14.823,45.138,20
112,Ravna Gora,14.935,45.373,112
24,Breze,14.872,45.183,24
39,Kavrani,15.014,45.495,28
160,Lopar,14.731,44.831,160
24,Radigonja,15.002,45.45,20
24,Male Drage,15.014,45.47,24
24,Donji Vučkovići,14.999,45.424,24
79,Supetarska Draga,14.727,44.795,28
33,Kampor,14.721,44.779,24
46,Stara Sušica,15.003,45.376,39
33,Podmelnik,14.89,45.101,33
160,Ozalj,15.478,45.613,94
79,Vitunj,15.144,45.288,46
55,Zapeć,15.082,45.481,55
134,Lun,14.75,44.686,55
24,Palit,14.753,44.767,20
39,Šipački Breg,15.611,45.77,39
79,Tuhelj,15.748,46.075,79
230,Samobor,15.709,45.802,160
39,Polje Krapinsko,15.882,46.14,20
39,Pavlovac,15.546,45.189,39
33,Crkovec,16.023,46.238,20
24,Hajdine,15.086,45.388,20
39,Brestovec Orehovički,15.985,46.079,28
39,Lobor,16.065,46.151,39
55,Sveti Matej,16.073,45.966,33
55,Šiljkovača,15.768,45.132,20
46,Selnica,16.393,46.494,46
24,Bile,14.892,45.073,24
24,Velika Buna,16.059,45.636,24
94,Breznica,16.271,46.071,79
28,Prozorje,16.251,45.826,20
33,Donja Rijeka,16.39,46.09,20
39,Draga Lukovdolska,15.145,45.418,39
66,Veljun Primorski,14.966,45,66
46,Komlenići,15.036,45.4,28
79,Gudalji,15.305,45.725,55
33,Dučići,15.304,45.71,33
476,Rab,14.762,44.755,192
33,Hreljin Ogulinski,15.18,45.295,28
33,Sopote,15.399,45.756,20
79,Ruševo Krmpotsko,14.911,45.085,79
39,Lipnik,15.349,45.559,20
28,Bratkovec,15.602,46.143,28
24,Bunica,14.889,45.026,24
230,Brinje,15.124,44.998,230
112,Krasno,15.054,44.822,94
28,Umol,15.302,45.365,28
33,Vukova Gorica,15.34,45.449,33
24,Planina Kunićka,15.367,45.501,24
33,Otok Oštarijski,15.254,45.236,24
79,Novo Selo Žumberačko,15.505,45.811,46
39,Desinić Gora,15.663,46.168,20
28,Gornje Dubrave,15.306,45.309,28
33,Duga Gora,15.321,45.341,28
112,Netretić,15.413,45.511,55
28,Ponori,15.14,44.869,28
24,Pijavica,14.892,45.014,24
134,Josipdol,15.289,45.194,55
24,Jelenjak,15.679,46.115,24
94,Tounj,15.321,45.25,55
28,Goričice Dobranske,15.385,45.391,28
39,Kumrovec,15.677,46.075,39
39,Goljak,15.131,44.779,39
79,Premuda,14.6,44.343,79
33,Podbrežje,15.5,45.628,20
66,Verunić,14.858,44.143,66
46,Cerovnik,15.3,45.15,33
46,Kostanjevec Podvrški,15.597,45.828,46
39,Trojvrh,15.311,45.128,39
24,Gornje Bukovlje,15.442,45.391,24
46,Kućišta Cesarička,15.093,44.552,24
46,Zaumol,15.092,45.457,46
24,Banjol,14.786,44.748,20
24,Lukavec Klanječki,15.728,46.001,20
39,Dolanjski Jarak,15.601,45.693,28
39,Mrežnički Novaki,15.485,45.404,33
24,Ravni Dabar,15.126,44.563,24
28,Tržić Tounjski,15.409,45.212,28
55,Vrataruša,14.915,45.035,55
94,Košljun,15.082,44.4,39
28,Manja Vas,15.674,45.756,28
24,Banjsko Selo,15.54,45.42,24
24,Donji Skrad,15.509,45.346,24
33,Velika Rakovica,15.722,45.782,20
55,Celine Samoborske,15.745,45.828,24
397,Povljana,15.113,44.345,160
66,Senj,14.902,44.991,66
66,Ličko Lešće,15.325,44.804,55
33,Donji Velemerić,15.588,45.395,24
39,Pašnik,15.941,46.226,20
24,Podgorje Krnjačko,15.589,45.322,20
66,Brckovljani,15.851,45.935,66
33,Štrucljevo,15.908,46.054,20
28,Podgorje Bednjansko,15.998,46.259,24
24,Lapovac,15.571,45.232,24
55,Igrišće,15.88,45.962,24
24,Benkovec,15.992,46.219,20
55,Brezovo Polje,15.309,44.602,39
160,Vrhovine,15.418,44.851,160
28,Očura,15.985,46.186,20
112,Ugljan,15.103,44.132,55
55,Barbat na Rabu,14.8,44.735,24
66,Veljunska Glina,15.601,45.226,66
66,Slunjski Moravci,15.707,45.451,66
94,Vrbovsko,15.081,45.376,94
39,Špičkovina,15.96,46.026,20
192,Slunj,15.589,45.117,192
28,Stari Golubovec,16.039,46.178,20
46,Lički Novi,15.337,44.517,24
28,Podbilo,14.942,45.047,28
33,Delkovec,16.031,46.134,20
39,Mušaluk,15.384,44.611,33
24,Jerovec,16.094,46.236,20
33,Banšćica,16.024,46.003,20
39,Krljuši,15.798,45.456,39
28,Gornji Babin Potok,15.532,44.836,28
55,Čanak,15.489,44.735,55
39,Donji Sjeničak,15.795,45.432,39
66,Gnojnice,15.669,45.133,39
24,Ivanečko Naselje,16.15,46.233,20
33,Novoselo Bilajsko,15.421,44.516,28
55,Oštarski Stanovi,15.647,45.022,24
33,Ervenik Zlatarski,16.111,46.087,20
112,Štrigova,16.286,46.501,94
28,Rastovača,15.62,44.913,24
160,Ražanac,15.347,44.282,134
24,Cetinski Varoš,15.721,45.133,20
28,Barlete,15.469,44.535,28
94,Čatrnja,15.653,44.951,33
24,Brnjavac,15.84,45.374,20
24,Gorenci,15.12,45.43,24
39,Pašin Potok,15.761,45.176,20
28,Gornja Lomnica,16.002,45.715,28
55,Zajezda,16.19,46.157,24
79,Vrebac,15.504,44.525,79
46,Sračinec,16.276,46.33,33
28,Grkaveščak,16.348,46.492,24
24,Vukanovec,16.329,46.445,20
28,Sveti Martin na Muri,16.362,46.525,28
46,Poličnik,15.368,44.181,46
39,Prekvršje,16.11,45.9,39
24,Gotalovec,16.219,46.161,24
28,Šijanec,16.277,46.291,20
94,Krbavica,15.616,44.707,94
66,Kapela Korenička,15.673,44.808,55
134,Jasenak,15.043,45.231,94
24,Žitkovčica,16.022,45.598,20
160,Svračkovo Selo,15.611,44.624,94
46,Jalkovec,16.321,46.278,24
46,Podevčevo,16.305,46.198,24
28,Donje Taborište,16.004,45.454,24
55,Posedarje,15.478,44.211,55
28,Budenec,16.176,45.836,28
55,Islam Grčki,15.459,44.167,39
24,Barbarići Kravarski,16.083,45.602,20
33,Šenkovec,16.42,46.406,20
24,Zaloj,16.045,45.463,24
55,Sveti Juraj,14.92,44.928,55
39,Podvorec,16.289,46.039,20
28,Oštrice,16.355,46.189,20
94,Dugo Selo,16.233,45.806,94
28,Sivica,16.504,46.448,24
79,Pokupsko Vratečko,16.101,45.476,66
24,Hrebinec,16.264,45.845,20
134,Rakovec,16.315,45.932,112
66,Belica,16.521,46.408,46
46,Šaševa,16.053,45.275,46
33,Klada,14.883,44.815,33
66,Starigrad,14.882,44.798,66
276,Silba,14.697,44.376,134
33,Gomirje,15.116,45.336,33
66,Mrzli Dol,14.988,45.032,66
46,Potočnica,14.809,44.618,46
55,Senjska Draga,14.968,44.974,55
39,Stolac,14.983,44.941,39
46,Stinica,14.891,44.718,46
66,Ljubošina,15.156,45.323,46
39,Liješće,15.315,45.693,39
39,Velike Brisnice,14.926,44.778,39
55,Veliki Jadrč,15.194,45.397,55
24,Šiljki,15.332,45.72,24
46,Potok Musulinski,15.131,45.248,46
112,Drežnica,15.092,45.137,112
230,Tuževac,14.992,44.9,79
28,Jurovo,15.306,45.626,20
39,Pravutina,15.293,45.594,24
33,Zdihovo,15.221,45.424,33
28,Liplje,15.221,45.41,28
28,Fratrovci,15.233,45.438,28
66,Stara Novalja,14.876,44.598,33
79,Olib,14.781,44.376,79
24,Velika Paka,15.306,45.576,24
28,Badovinci,15.366,45.714,28
33,Mošanci,15.302,45.557,20
94,Sela Bosiljevska,15.261,45.457,33
134,Brašljevica,15.358,45.683,39
94,Vodoteč,15.085,45.044,33
39,Stankovci,15.304,45.541,39
46,Prokike,15.069,44.986,33
112,Žakanje,15.337,45.61,112
33,Žuta Lokva,15.063,44.97,33
39,Ponikve,15.238,45.374,33
134,Novalja,14.884,44.558,134
112,Ist,14.766,44.274,112
192,Žumberak,15.415,45.771,134
24,Radina Vas,15.394,45.692,24
39,Ribnik,15.347,45.578,39
55,Radinovo Brdo,15.404,45.708,24
79,Cernik,15.418,45.735,79
39,Kolanjski Gajac,14.901,44.527,24
33,Breznik Žakanjski,15.364,45.593,20
28,Zorkovac Vivodinski,15.397,45.668,28
685,Ogulin,15.226,45.266,476
39,Bogovci,15.334,45.518,20
134,Bosiljevo,15.29,45.412,112
28,Caska,14.917,44.55,20
28,Podrebar,15.286,45.398,20
24,Grič,15.445,45.772,20
28,Harina Žlaka,15.61,46.163,28
24,Crni Kal,15.079,44.915,24
66,Popovo Selo,15.257,45.315,39
39,Dugače,15.308,45.431,20
55,Kamanje,15.396,45.633,55
24,Dujmić Selo,15.223,45.226,24
55,Malik,15.273,45.341,55
24,Tupčina,15.435,45.718,20
46,Desmerice,15.219,45.203,39
39,Cerje Vivodinsko,15.411,45.653,20
24,Trošmarija,15.275,45.325,24
134,Prizna,14.971,44.624,55
24,Grabrk,15.288,45.352,24
39,Galin,15.436,45.687,39
46,Zapuntel,14.812,44.249,46
33,Donje Brezno,15.648,46.185,28
24,Račak,15.335,45.438,24
39,Kalje,15.473,45.759,28
39,Mandre,14.92,44.477,24
55,Brlog,15.127,44.946,39
46,Griče,15.382,45.536,20
55,Križpolje,15.164,45.026,24
66,Hrvatsko Polje,15.113,44.905,66
28,Kraljevo Selo,15.333,45.413,24
28,Vidalići,14.954,44.538,28
28,Gornje Zagorje,15.236,45.184,28
46,Srednje Prilišće,15.36,45.469,33
24,Jurkovo Selo,15.462,45.706,24
94,Gornji Goli Vrh Lipnički,15.4,45.556,33
55,Mrzlo Polje Žumberačko,15.495,45.779,39
46,Ivanić Miljanski,15.642,46.128,20
33,Lukunić Draga,15.436,45.635,24
66,Zagorska Sela,15.635,46.097,66
94,Hum na Sutli,15.689,46.216,94
28,Dani,15.327,45.355,28
33,Vini Vrh,15.436,45.605,24
24,Kolenovac,15.408,45.533,20
24,Ladešići,15.389,45.487,20
66,Desinić,15.668,46.148,66
39,Begovo Brdo Žumberačko,15.478,45.693,33
28,Tisovac Žumberački,15.522,45.796,28
276,Kolan,14.961,44.494,230
28,Veliki Erjavec,15.434,45.582,28
112,Jezerane,15.207,45.052,46
55,Tomašići,15.348,45.38,33
112,Modruš,15.241,45.129,55
66,Zubovići,14.979,44.524,24
66,Staničići Žumberački,15.504,45.739,46
55,Vodena Draga,15.373,45.426,46
276,Brgulje,14.85,44.226,134
24,Velika Gora,15.696,46.177,24
24,Kompolje,15.163,44.91,24
66,Brloška Dubrava,15.177,44.931,46
28,Jarče Polje,15.401,45.448,28
33,Rude Pribićke,15.512,45.707,33
24,Munjava,15.287,45.179,20
24,Straža,15.408,45.461,24
79,Cesarica,15.021,44.565,33
46,Gorići,15.147,44.849,46
24,Klenovec Humski,15.729,46.208,24
79,Kuterevo,15.141,44.825,55
79,Letinac,15.216,44.986,55
24,Brezovac Žumberački,15.549,45.761,24
24,Metajna,15.009,44.509,24
24,Molat,14.879,44.213,24
33,Skradnik,15.318,45.216,20
33,Strmac Pribićki,15.515,45.675,20
46,Švica,15.17,44.87,39
134,Generalski Stol,15.372,45.339,79
28,Donje Dubrave,15.361,45.308,24
24,Višnjevec,15.721,46.155,20
46,Potok Tounjski,15.349,45.269,20
33,Stajnica,15.252,45.037,33
33,Donje Stative,15.458,45.515,24
24,Jaškovo,15.48,45.564,24
94,Krašić,15.517,45.653,79
46,Mali Erjavec,15.488,45.576,28
28,Novigrad na Dobri,15.444,45.472,28
39,Lišnica,15.439,45.459,33
24,Donji Zbilj,15.719,46.116,24
33,Bregi Kostelski,15.752,46.195,24
28,Jarušje,15.578,45.774,28
28,Kamenica Skradnička,15.348,45.229,20
39,Bošana,15.017,44.467,24
39,Bukovje Netretićko,15.462,45.492,28
24,Paljugi,15.563,45.722,24
28,Dubravčani,15.446,45.446,28
55,Lipice,15.261,45.009,55
46,Zadobarje,15.485,45.53,39
79,Pregrada,15.752,46.165,66
33,Lipovlje,15.187,44.835,28
28,Polje Ozaljsko,15.522,45.607,24
28,Beder,15.609,45.812,28
39,Višnjevec Podvrški,15.606,45.798,39
24,Donji Zvečaj,15.443,45.408,24
24,Vajin Vrh,15.334,45.152,24
33,Zorkovac na Kupi,15.523,45.592,28
28,Brlenić,15.542,45.635,20
24,Donja Plemenšćina,15.773,46.175,20
24,Rastoki,15.571,45.69,24
24,Gornje Pokupje,15.517,45.561,24
230,Lipovo Polje,15.175,44.765,94
112,Karlobag,15.073,44.526,112
24,Mrežnički Brest,15.429,45.34,24
33,Draga Svetojanska,15.591,45.72,33
39,Glogovec Zagorski,15.751,46.103,24
39,Božava,14.905,44.141,39
46,Svojić,15.414,45.294,33
24,Mateško Selo,15.429,45.327,24
28,Lipnica Zagorska,15.751,46.088,20
24,Petrovina,15.579,45.674,24
66,Klanjec,15.736,46.047,66
160,Otočac,15.234,44.869,160
134,Velika Plana,15.15,44.671,112
46,Novi Dvori Klanječki,15.73,46.026,20
39,Mrežničko Dvorište,15.477,45.424,20
28,Hromec,15.808,46.208,20
94,Pag,15.055,44.446,94
55,Cigrovec,15.774,46.123,33
24,Vukovo Selo,15.684,45.904,24
39,Mali Lipovec,15.62,45.75,39
28,Maršići,15.523,45.52,20
55,Vijenac Barilovićki,15.456,45.362,46
24,Gornja Kupčina,15.571,45.633,24
33,Goršćaki,15.548,45.572,28
33,Mrežnica,15.415,45.26,33
79,Kraljevec na Sutli,15.725,45.991,79
94,Pothum Plaščanski,15.361,45.126,39
46,Glavace,15.27,44.914,39
33,Međeđak,15.35,45.095,20
397,Duga Resa,15.501,45.447,331
94,Bakovac Kosinjski,15.194,44.711,94
24,Cerovac Barilovićki,15.48,45.372,24
66,Gornji Macelj,15.857,46.264,46
160,Dabar,15.303,44.954,66
230,Dragove,14.933,44.113,134
28,Benkovo,15.805,46.134,28
276,Dubravica,15.731,45.955,79
33,Donji Macelj,15.844,46.226,24
24,Črnilovec,15.615,45.673,20
28,Otruševec,15.676,45.816,20
66,Popovača Pazariška,15.171,44.638,66
24,Goljak Klanječki,15.76,46.013,20
28,Tuheljske Toplice,15.785,46.067,20
66,Đurmanec,15.839,46.196,28
24,Sušanj Cesarički,15.126,44.526,24
397,Plaški,15.367,45.077,160
66,Glibodol,15.331,44.994,66
46,Maurovići,15.47,45.317,46
39,Prozor,15.269,44.849,20
28,Lučica,15.483,45.346,28
46,Podum,15.287,44.888,28
94,Marija Gorica,15.725,45.911,46
24,Ponorac Perjasički,15.48,45.329,24
79,Perjasica,15.465,45.294,55
112,Draganić,15.597,45.603,55
112,Karlovac,15.554,45.495,112
55,Novaki Petrovinski,15.619,45.645,24
28,Donje Pazarište,15.192,44.65,28
39,Miloševac,15.466,45.274,39
24,Bobovec Rozganski,15.753,45.943,20
24,Gornji Poloj,15.467,45.263,24
28,Lokošin Dol,15.661,45.709,28
55,Dubrovčan,15.804,46.049,33
33,Kalinovača,15.195,44.621,33
24,Podgora Krapinska,15.861,46.181,20
46,Donji Kosinj,15.256,44.757,46
331,Jastrebarsko,15.651,45.672,192
28,Strmec,15.792,46,28
33,Domagović,15.639,45.628,24
28,Lapat,15.399,45.066,20
28,Žutnica,15.878,46.196,20
79,Sestrunj,15,44.151,79
33,Škarićevo,15.85,46.126,28
24,Veliki Kozinac,15.527,45.357,20
685,Krapina,15.867,46.162,276
134,Krapinske Toplice,15.838,46.092,55
28,Čovići,15.3,44.829,28
33,Ježovec,15.903,46.243,28
24,Donje Mekušje,15.59,45.496,20
134,Donje Primišlje,15.469,45.209,79
28,Merenje,15.785,45.953,20
46,Baške Oštarije,15.175,44.526,46
33,Štirkovac,15.511,45.298,33
33,Blata,15.398,45.033,33
112,Barilović,15.548,45.381,55
24,Slivonja Jarek,15.857,46.103,20
79,Vir,15.084,44.302,79
66,Novo Selo Okićko,15.707,45.739,33
46,Jamno,15.935,46.283,39
28,Dubrava Pušćanska,15.777,45.899,24
24,Stankovo,15.7,45.714,24
28,Velika Crkvina,15.529,45.311,28
33,Brdovec,15.767,45.871,24
39,Gornje Jesenje,15.907,46.208,39
55,Jezero I Dio,15.429,45.072,33
33,Konšćica,15.724,45.764,28
33,Vadina,15.813,45.975,20
33,Gornji Kosinj,15.276,44.716,33
28,Donja Visočka,15.511,45.259,28
33,Vrtnjakovec,15.857,46.076,20
24,Ponorac,15.542,45.321,24
39,Brbinj,15,44.08,39
55,Sinac,15.332,44.829,46
24,Aleksinica,15.251,44.639,24
79,Begovac,15.418,45.015,46
46,Luka,15.819,45.959,46
24,Šinkovica Šaška,15.943,46.254,24
39,Vaganac,15.261,44.651,39
66,Ladvenjak,15.593,45.413,28
46,Zalužnica,15.355,44.859,39
24,Velika Ves,15.893,46.126,24
33,Viča Sela,15.861,46.049,28
28,Donji Desinec,15.708,45.682,24
24,Klanac Perjasički,15.515,45.228,24
46,Veliko Trgovišće,15.845,46.002,46
39,Mlakva,15.288,44.699,39
33,Kobilić Pokupski,15.626,45.482,33
24,Pojatno,15.806,45.908,24
28,Cerovac Vukmanićki,15.606,45.427,28
24,Falašćak,15.743,45.75,24
24,Mlakovac,15.584,45.371,20
39,Tržić,15.73,45.714,20
28,Dvorište,15.552,45.294,28
39,Radoboj,15.919,46.166,28
94,Savar,15.015,44.061,94
28,Stara Vas,15.157,44.376,28
33,Gubaševo,15.864,46.019,20
55,Krš,15.318,44.729,55
46,Jazbina Višnjička,15.985,46.298,46
24,Meljan,15.974,46.268,24
55,Sveta Nedelja,15.777,45.796,55
94,Lukovo Šugarje,15.194,44.437,79
160,Privlaka,15.118,44.262,112
134,Zaprešić,15.806,45.856,94
39,Popović Brdo,15.643,45.463,39
24,Pustodol Začretski,15.898,46.066,20
33,Oteš,15.28,44.617,33
28,Sveti Križ Začretje,15.905,46.08,28
28,Jagnjić Dol,15.781,45.78,20
24,Luka Pokupska,15.67,45.515,24
33,Donja Šemnica,15.928,46.12,24
55,Klinča Sela,15.749,45.693,55
28,Mala Gorica,15.78,45.765,24
79,Krnjak,15.599,45.335,79
24,Rastoka,15.283,44.6,24
55,Veljun,15.567,45.253,55
46,Kaluđerovac,15.31,44.654,46
134,Bednja,15.985,46.23,66
55,Dinjiška,15.186,44.36,39
24,Bestovje,15.81,45.806,20
66,Donja Bistra,15.854,45.904,39
112,Zabok,15.911,46.031,112
39,Studenci,15.349,44.711,39
24,Ivanec Bistranski,15.836,45.849,20
46,Brebornica,15.605,45.301,28
39,Rakov Potok,15.794,45.746,39
28,Bukovje Bistransko,15.858,45.891,20
66,Zimić,15.642,45.373,33
94,Brušane,15.266,44.502,66
28,Donja Zdenčina,15.769,45.67,20
33,Gornji Budački,15.606,45.286,33
94,Novi Golubovec,15.983,46.173,66
39,Gornji Nikšić,15.547,45.138,24
24,Bandino Selo,15.581,45.216,24
28,Oborovo Bistransko,15.879,45.917,20
28,Veljunski Ponorac,15.6,45.255,28
79,Mihovljan,15.971,46.134,66
33,Kosijer Selo,15.58,45.203,33
24,Gornja Trebinja,15.681,45.44,24
66,Lipje,15.702,45.483,66
79,Rava,15.066,44.022,66
33,Oroslavje,15.917,45.993,33
24,Malo Polje,15.349,44.659,20
46,Slunjska Selnica,15.712,45.503,46
24,Kotarice,15.945,46.051,20
33,Donji Cerovac,15.565,45.152,28
79,Ramljani,15.398,44.766,66
55,Smiljan,15.312,44.566,39
24,Mali Lovrečan,16.078,46.367,24
39,Gregurovec,15.989,46.151,20
24,Rijeka Voćanska,16.055,46.311,24
46,Stupnički Obrež,15.829,45.764,20
33,Zaton,15.164,44.22,20
39,Debelo Brdo I,15.309,44.544,39
33,Orehovica,15.975,46.101,24
24,Strmec Stubički,15.918,45.963,24
28,Očura,16.016,46.199,20
112,Funtana,15.499,44.975,112
39,Klenovac,15.375,44.688,28
79,Tupčevići,15.792,45.656,28
28,Selci Križovljanski,16.082,46.35,20
28,Ježdovec,15.846,45.777,28
28,Skakavac,15.715,45.463,28
28,Živković Kosa,15.672,45.361,28
33,Bukovica Utinjska,15.68,45.381,33
24,Kebel,15.97,46.069,20
55,Nin,15.183,44.235,55
33,Vukovoj,16.062,46.29,20
66,Petrčane,15.162,44.185,39
24,Vulišinec,16.035,46.22,20
28,Rizvanuša,15.299,44.492,28
24,Grobnik,15.623,45.237,24
39,Veli Iž,15.108,44.05,39
39,Cvijanović Brdo,15.606,45.184,39
28,Frkuljevec Mihovljanski,16.002,46.119,20
66,Mandić Selo,15.701,45.4,55
46,Pila,15.935,45.95,28
39,Rudopolje,15.472,44.862,33
33,Gornje Vrhovine,15.461,44.834,24
24,Križanče,16.097,46.337,24
24,Petrova Gora,16.027,46.163,24
39,Šišljavić,15.758,45.519,33
55,Lepoglava,16.046,46.208,46
230,Perušić,15.384,44.65,79
39,Knežević Kosa,15.684,45.345,20
46,Barić Draga,15.268,44.376,46
24,Bedenec,16.063,46.237,24
66,Klenovnik,16.078,46.269,33
46,Hruševec,15.968,46.003,20
33,Kutanja,15.616,45.168,33
112,Donji Stupnik,15.859,45.739,46
192,Cestica,16.122,46.372,112
55,Kupljensko,15.674,45.3,20
24,Rajić Brdo,15.657,45.257,24
39,Lukoran,15.153,44.102,20
39,Konjsko Brdo,15.403,44.668,20
33,Petrova Poljana,15.653,45.239,33
79,Donja Stubica,15.967,45.981,79
55,Kablar,15.757,45.479,55
79,Bedekovčina,15.994,46.043,66
39,Dubravec,16.08,46.25,20
94,Vrsi,15.233,44.264,94
134,Vojnić,15.695,45.325,112
33,Prvan Selo,15.396,44.632,20
28,Kožino,15.193,44.17,28
28,Lumbardenik,15.6,45.098,20
28,Ninski Stanovi,15.216,44.218,20
39,Kupinečki Kraljevec,15.852,45.688,39
24,Mali Vuković,15.615,45.128,20
66,Otok Virje,16.149,46.401,24
46,Donja Voća,16.108,46.299,46
112,Miholjsko,15.677,45.27,46
66,Bratina,15.826,45.62,24
79,Mali Iž,15.138,44.029,39
66,Žman,15.114,43.965,33
24,Fotez Breg,16.109,46.28,20
33,Banski Kovačevac,15.782,45.494,33
24,Kljaić Brdo,15.745,45.405,24
28,Bukovac Perušićki,15.42,44.649,20
571,Gospić,15.377,44.545,571
24,Donja Kupčina,15.81,45.548,20
24,Gečkovec,16.093,46.218,20
33,Vratno Otok,16.162,46.384,24
24,Jame,15.617,45.086,24
39,Mače,16.043,46.093,39
112,Broćanac,15.609,45.062,46
28,Podsedlo,15.75,45.392,28
24,Utinja Vrelo,15.746,45.38,24
39,Gačeša Selo,15.738,45.361,33
66,Dugo Selo,15.822,45.559,66
24,Jurga,15.715,45.308,20
28,Donje Vratno,16.155,46.353,20
66,Vinica,16.151,46.339,66
39,Preko,15.185,44.08,28
28,Ponor,15.66,45.167,28
24,Poznanovec,16.034,46.052,20
28,Starjak,15.877,45.672,28
24,Prkos Lasinjski,15.808,45.505,24
28,Hudi Bitek,15.897,45.71,24
28,Lički Osik,15.422,44.604,28
24,Mali Bukovec,16.049,46.074,20
28,Sertić Poljana,15.564,44.927,28
46,Gojkovac,15.683,45.2,33
94,Divoselo,15.377,44.493,39
55,Lađevačko Selište,15.646,45.108,33
134,Tribanj,15.316,44.35,55
24,Ribić Breg,16.128,46.247,20
24,Gornja Stubica,16.016,45.978,24
24,Klokoč,15.692,45.211,24
24,Gornji Lađevac,15.643,45.096,24
112,Žerava,15.254,44.203,46
24,Orehova Gorica,16.023,45.991,20
28,Gornja Žrvnica,15.683,45.185,28
134,Turjanski,15.511,44.782,55
24,Martinšćina,16.089,46.14,20
160,Pisarovina,15.859,45.587,112
192,Ivanec,16.125,46.224,192
46,Ratkovec,16.083,46.117,20
28,Slani Potok,16.021,45.962,20
46,Rtina,15.305,44.293,24
94,Zlatar,16.077,46.093,66
39,Ćuić Brdo,15.633,45.042,39
112,Kali,15.204,44.062,39
331,Zadar,15.228,44.113,331
39,Botinec,15.933,45.743,39
39,Donje Ladanje,16.167,46.305,20
33,Ljubač,15.295,44.26,28
39,Ključar,15.763,45.331,39
39,Druškovec,16.151,46.257,20
28,Jamnica Pisarovinska,15.878,45.599,20
66,Široka Kula,15.456,44.615,46
46,Selakova Poljana,15.739,45.269,46
39,Poljica,15.285,44.22,33
24,Vitešinec,16.138,46.211,20
33,Prigorec,16.136,46.2,20
331,Sali,15.165,43.938,134
24,Gusakovec,16.057,46.007,24
100000,Zagreb,15.977,45.813,100000
39,Lički Čitluk,15.404,44.474,39
66,Donja Brusovača,15.727,45.219,46
112,Gornji Sjeničak,15.81,45.414,46
55,Lasinja,15.859,45.529,55
46,Odranski Obrež,15.94,45.717,46
28,Ornice,15.417,44.499,28
33,Gradec Pokupski,15.87,45.547,20
39,Selnica,16.072,46.023,20
46,Zlatar Bistrica,16.084,46.049,33
24,Strmačka,15.707,45.149,20
66,Ostrvica,15.453,44.561,46
94,Maruševec,16.185,46.281,46
33,Belec,16.126,46.138,33
28,Dvoranci,15.889,45.572,20
24,Zelendvor,16.208,46.333,20
33,Gornji Furjan,15.675,45.063,33
24,Ruševica,15.73,45.191,24
46,Krneza,15.317,44.242,33
55,Korana,15.618,44.928,33
33,Šagudovec,16.07,45.994,24
55,Sveti Urban,16.271,46.473,24
24,Salopek Luke,15.695,45.099,24
230,Rakovica,15.65,44.994,230
94,Lipnica,15.922,45.631,39
79,Donji Trpuci,15.938,45.665,55
46,Opasanjek,16.108,46.07,20
28,Slavsko Polje,15.813,45.364,28
33,Gornji Dragonožec,15.936,45.645,33
28,Mala Mlaka,15.975,45.731,28
39,Petruševec,16.138,46.121,33
33,Štakorovica,15.766,45.233,33
55,Kukljica,15.244,44.034,55
28,Petrijanec,16.233,46.344,28
66,Kozjan,15.541,44.708,66
79,Plitvički Ljeskovac,15.601,44.844,33
66,Buzin,15.988,45.75,46
79,Briševo,15.304,44.164,39
28,Irinovac,15.656,44.964,24
46,Ivanečka Željeznica,16.18,46.205,33
134,Cetingrad,15.741,45.159,134
822,Plitvička Jezera,15.622,44.883,276
33,Ostrožin,15.857,45.429,33
46,Dugo Selo Lasinjsko,15.88,45.48,39
39,Crno,15.291,44.113,33
28,Stipan,15.874,45.458,28
33,Nova Ves Petrijanečka,16.234,46.318,20
24,Martinuševec,16.289,46.45,20
33,Preseka,16.278,46.421,24
55,Planina Gornja,16.079,45.939,39
46,Cerje Tužno,16.21,46.254,20
33,Lički Ribnik,15.459,44.487,33
24,Gačice,16.202,46.232,24
46,Desni Štefanki,15.899,45.506,24
28,Prhovec,16.288,46.437,20
28,Vukomerić,15.949,45.615,28
28,Laz Bistrički,16.104,45.978,24
28,Lukavec,15.99,45.702,28
39,Kruškovača,15.735,45.1,39
46,Bibinje,15.285,44.071,33
276,Marija Bistrica,16.118,46.007,160
24,Visočane,15.346,44.205,20
33,Maljevac,15.78,45.201,33
24,Petravec,15.946,45.59,24
24,Planina Donja,16.087,45.927,24
33,Murvica,15.322,44.146,24
28,Mašvina,15.71,45.024,28
39,Vidovec,16.243,46.286,39
66,Radovin,15.368,44.234,24
39,Lukinić Brdo,15.944,45.561,39
46,Bogovolja,15.74,45.081,46
66,Šljivovac,15.897,45.442,55
28,Gudci,15.988,45.657,28
39,Gradiščak,16.34,46.506,20
276,Vrginmost,15.862,45.357,192
24,Podgorje Bistričko,16.132,45.995,20
94,Osečka,16.229,46.229,39
46,Babindub,15.316,44.093,20
46,Svibovec Podravski,16.282,46.353,20
24,Vugrišinec,16.328,46.46,20
94,Koranski Lug,15.736,45.048,46
24,Margečan,16.228,46.213,24
24,Kašinska Sopnica,16.103,45.912,24
66,Jerebić,15.963,45.578,46
39,Velika Mlaka,16.03,45.736,28
39,Lipovača,15.703,44.963,33
24,Prekopa,16.337,46.472,20
39,Gejkovac,15.813,45.215,39
192,Lovinac,15.375,44.203,79
66,Gornji Mihaljevec,16.324,46.429,39
66,Homoljac,15.625,44.77,66
24,Malička,15.856,45.302,24
33,Sušobreg (Donji Sušobreg),16.164,46.035,20
112,Budinščina,16.203,46.128,79
28,Smoković,15.347,44.13,20
28,Trnovec,16.311,46.382,28
66,Konjščina,16.176,46.053,39
134,Sukošan,15.313,44.046,55
33,Vuger Selo,16.104,45.878,33
24,Sušobreg Bistrički,16.166,46.023,24
66,Pecka,15.85,45.272,66
33,Banj,15.297,44.001,33
24,Đurin Potok,15.786,45.119,24
28,Donji Kraljevec,16.206,46.115,28
39,Mičevec,16.056,45.754,28
39,Petrovina Turopoljska,16.031,45.693,24
33,Galovec,16.191,46.073,20
28,Čujića Krčevina,15.661,44.823,28
28,Blaguša,16.131,45.927,28
46,Nova Kršlja,15.742,45.005,46
28,Prijeboj,15.671,44.841,28
39,Perna,15.866,45.289,39
24,Črešnjevo,16.271,46.254,20
55,Sadilovac,15.718,44.941,39
33,Medak,15.508,44.456,33
28,Zaklopača,15.695,44.885,28
134,Zemunik Donji,15.359,44.116,79
112,Brezik,15.502,44.439,79
79,Starigrad,15.44,44.295,79
28,Rešetar,15.703,44.897,28
94,Šestak Brdo,15.973,45.527,33
28,Kozarac,15.906,45.369,24
28,Škriljevec,16.268,46.233,20
28,Maretić,16.209,46.09,20
33,Pavlovac Vrebački,15.539,44.511,33
55,Šiljakovina,16.021,45.634,39
46,Bović,15.931,45.419,46
28,Čakanec,16.002,45.584,24
55,Pleškovec,16.364,46.455,55
39,Črečan,16.343,46.394,24
24,Domovec,16.223,46.101,20
112,Sesvete,16.112,45.827,79
24,Mala Kosnica,16.085,45.757,24
24,Zgurić Brdo,15.983,45.514,24
94,Dobropoljana,15.323,43.992,39
66,Donji Vaganac,15.729,44.912,55
39,Jagodnje,15.597,44.606,39
24,Gajec,16.144,45.883,24
28,Islam Latinski (Rupalj),15.413,44.183,24
230,Crni Potok,15.873,45.238,55
39,Suhovare,15.403,44.158,20
24,Desni Degoj,15.965,45.452,24
192,Velika Gorica,16.076,45.715,79
33,Plešivica,16.39,46.47,20
24,Novaki Ščitarjevski,16.105,45.78,24
39,Slivnica,15.443,44.24,20
33,Kukljić,15.524,44.422,33
46,Novo Selo Koreničko,15.721,44.87,46
28,Ključić Brdo,16.042,45.62,28
46,Beretinec,16.304,46.249,46
33,Vrbovo,16.232,46.075,24
28,Gornja Trstenica,15.944,45.388,28
39,Debeljak,15.364,44.051,20
112,Adamovec,16.164,45.904,55
46,Donja Drenova,16.178,45.936,39
24,Rudanovac,15.688,44.781,24
46,Zemunik Gornji,15.407,44.138,28
33,Vrelo Koreničko,15.684,44.769,33
28,Slakovec,16.374,46.407,20
79,Pokupsko,15.992,45.485,79
33,Bapča,16.101,45.743,24
331,Varaždin,16.336,46.307,331
28,Pretetinec,16.373,46.394,20
79,Soblinec,16.155,45.864,33
94,Vinjerac,15.465,44.257,28
55,Šalamunić,15.636,44.647,55
28,Neviđane,15.342,43.977,28
24,Kobilići,16.101,45.731,20
28,Rakovica,16.39,46.425,28
39,Ponikvari,15.922,45.302,28
66,Beletinec,16.309,46.222,24
33,Pušćine,16.362,46.345,24
112,Kravarsko,16.047,45.586,112
66,Galovac,15.392,44.072,66
55,Donja Bučica,15.981,45.428,46
24,Bosna,16.237,46.038,20
66,Hrušćica,16.135,45.79,28
28,Zasadbreg,16.409,46.449,20
39,Gornji Kuršanec,16.361,46.329,20
24,Mrljane,15.352,43.966,20
24,Šašinovec,16.165,45.852,24
39,Nedelišće,16.382,46.375,39
685,Mursko Središće,16.439,46.513,94
46,Breznički Hum,16.277,46.106,46
28,Vrpile,15.691,44.722,28
28,Podlapača,15.631,44.583,28
24,Strezojevo,16.037,45.527,24
134,Mogorić,15.591,44.489,79
28,Sveti Petar na Moru,15.375,43.999,28
55,Vorkapić,15.929,45.27,24
55,Donje Makojišće,16.297,46.147,20
39,Mraclin,16.097,45.667,39
94,Lekneno,16.136,45.756,33
39,Dumovec,16.16,45.811,28
46,Gladovec Kravarski,16.058,45.564,20
24,Bukovec Zelinski,16.206,45.915,24
33,Katinovac,15.923,45.241,33
276,Kompolje Koreničko,15.713,44.751,94
33,Kalinje,16.235,45.982,20
28,Lazina Čička,16.132,45.727,28
94,Breštane,15.639,44.561,79
28,Jales Breznički,16.275,46.052,20
66,Bedenica,16.264,46.022,66
28,Donje Raštane,15.402,44.015,28
33,Zadrkovec,16.258,46.005,20
24,Debelo Brdo,15.688,44.659,24
46,Hotnja,16.053,45.511,33
46,Drenovac Radučki,15.585,44.419,46
79,Vratišinec,16.456,46.477,79
55,Tolić,15.662,44.594,55
24,Staro Selo Topusko,15.949,45.258,24
33,Krbava,15.671,44.613,33
33,Donji Hruševec,16.068,45.537,33
39,Paukovec,16.218,45.891,39
33,Gradina Korenička,15.726,44.734,33
33,Donji Kašić,15.471,44.152,33
28,Blaževdol,16.235,45.931,28
55,Sveti Ivan Zelina,16.249,45.965,55
24,Podgradina,15.485,44.183,24
46,Gornje Podotočje,16.132,45.683,33
33,Jagodno,16.142,45.705,33
33,Novi Marof,16.335,46.165,33
39,Pašman,15.387,43.956,39
112,Gornji Kneginec,16.372,46.254,39
79,Buševec,16.115,45.634,39
33,Gornji Kućan,16.383,46.277,20
39,Paka,16.321,46.126,24
46,Turčenica,16.009,45.382,46
46,Raduč,15.586,44.398,46
55,Krištanovec,16.452,46.442,28
94,Topusko,15.975,45.296,94
24,Strmec Bukevski,16.165,45.745,24
28,Savska Ves,16.425,46.371,20
39,Kraj,15.387,43.938,39
79,Grabušić,15.719,44.689,79
46,Glavničica,16.213,45.849,33
46,Trnovec,16.398,46.293,33
55,Škabrnja,15.456,44.086,55
33,Velika Vranovina,15.974,45.275,20
46,Tuk Bjelopoljski,15.732,44.711,46
192,Čakovec,16.44,46.388,192
33,Donji Mekinjar,15.675,44.575,33
24,Možđenec,16.346,46.151,20
39,Gornje Raštane,15.436,44.027,33
24,Marinovec Zelinski,16.261,45.944,20
39,Rakitovec,16.142,45.657,39
39,Šatornja,16.008,45.335,33
24,Tkalec,16.299,46.027,20
33,Struga Nartska,16.192,45.765,24
28,Gornji Selkovac,16.037,45.394,28
28,Visoko,16.328,46.09,28
28,Novo Selo Rok,16.471,46.427,28
55,Gračanica Šišinečka,16.066,45.451,46
24,Križevčec,16.249,45.886,24
28,Novo Selo na Dravi,16.432,46.329,28
55,Pećane,15.722,44.645,55
28,Donje Biljane,15.482,44.099,20
28,Tomaševec,16.296,45.995,20
33,Bukevje,16.247,45.873,28
24,Polonje Tomaševečko,16.294,45.983,24
33,Donji Vukojevac,16.139,45.611,33
24,Hrvatsko Selo,16.007,45.299,20
39,Brezovec Zelinski,16.264,45.909,28
55,Srednja Gora,15.67,44.509,55
39,Sveti Filip i Jakov,15.429,43.962,20
33,Miklavec,16.505,46.483,24
28,Smilčić,15.505,44.126,28
28,Ivanovo Polje,16.378,46.16,20
28,Bartolovec,16.436,46.297,20
28,Kik,15.643,44.427,28
28,Drašković,16.329,46.036,28
46,Tkon,15.42,43.92,20
28,Pribislavec,16.478,46.394,20
39,Paljuv,15.526,44.157,20
39,Petkovec Toplički,16.395,46.191,20
33,Vrtlinovec,16.41,46.228,20
24,Sudovec,16.359,46.103,20
24,Baničevec,16.285,45.922,20
24,Gornji Viduševac,16.047,45.354,24
24,Celine,16.507,46.458,24
276,Ljubešćica,16.391,46.173,112
28,Brežane Lekeničke,16.147,45.583,28
28,Stankovac,16.085,45.431,28
33,Nadin,15.499,44.073,24
39,Vedašić,15.768,44.678,39
160,Novigrad,15.551,44.181,160
33,Cerje Letovanićko,16.142,45.549,33
28,Majkovec,16.283,45.88,28
112,Palanjek Pokupski,16.131,45.518,55
94,Jasenice,15.578,44.228,94
79,Varaždinske Toplice,16.422,46.21,79
822,Biograd na Moru,15.452,43.941,571
79,Rugvica,16.231,45.743,55
39,Donje Selište,16.055,45.322,20
24,Puhovo,16.253,45.789,20
24,Kolarec,16.371,46.072,24
33,Zrinšćina,16.35,46.016,33
55,Donji Viduševac,16.077,45.364,20
112,Gornja Rijeka,16.391,46.11,94
94,Gornje Biljane,15.539,44.114,46
39,Balinac,16.053,45.295,39
39,Valetić,16.334,45.961,24
46,Kakma,15.489,43.995,20
46,Preseka Oborovska,16.231,45.709,20
24,Sveti Rok,15.654,44.361,24
24,Goli Vrh,16.316,45.91,20
24,Donje Dvorišće,16.329,45.942,20
79,Jošan,15.749,44.576,33
46,Veliki Obljaj,16.027,45.219,46
24,Gornje Selište,16.066,45.309,24
55,Podturen,16.547,46.465,55
79,Fodrovec Riječki,16.381,46.059,33
24,Ljubelj,16.425,46.164,20
39,Rebić,15.741,44.551,20
39,Kurjak,15.714,44.487,39
39,Črnec Rugvički,16.259,45.76,20
24,Stančić,16.297,45.85,20
94,Gornje Jame,16.11,45.405,55
33,Frkašić,15.806,44.693,33
24,Vinkovec,16.353,45.981,20
46,Vranik,15.692,44.431,33
24,Samoborec,16.317,45.893,24
55,Zaistovec,16.376,46.033,39
66,Brckovljani,16.293,45.834,33
28,Pehardovac,16.526,45.799,28
24,Selnica Miholečka,16.427,46.069,20
46,Kaldrma,16.189,44.312,20
160,Glina,16.091,45.338,94
66,Korlat,15.55,44.081,39
24,Buković,15.642,44.027,20
46,Štikada,15.794,44.316,33
28,Gardinovec,16.552,46.424,20
33,Gornja Obreška,16.469,45.78,33
79,Kostadinovac,16.622,46.071,39
55,Bojna,16.047,45.192,55
55,Haganj,16.578,45.913,28
55,Poljana Lekenička,16.208,45.562,24
46,Jalžabet,16.473,46.26,46
33,Dijaneš,16.355,45.902,24
79,Orle,16.235,45.685,79
28,Žabjak,16.733,45.93,20
66,Jagnjedovec,16.808,46.104,46
230,Brotnja,16.121,44.442,79
55,Pogančec,16.385,45.945,24
28,Greda Sunjska,16.559,45.381,20
160,Polača,15.516,44.015,66
55,Hlebine,16.967,46.154,55
28,Donje Jame,16.124,45.417,28
55,Sveti Petar Orehovec,16.454,46.08,55
24,Buzeta,16.111,45.249,24
79,Gojlo,16.859,45.487,46
46,Martijanec,16.544,46.264,46
28,Slana,16.137,45.442,28
112,Orehovica,16.505,46.326,46
192,Kijevo,16.358,43.979,94
28,Brnjeuška,16.176,45.35,28
55,Raštević,15.534,44.047,24
24,Lovrečka Varoš,16.421,45.909,20
46,Mala Ostrna,16.282,45.782,28
276,Lovinac,15.687,44.392,192
66,Mala Subotica,16.527,46.374,46
476,Daruvar,17.224,45.594,476
46,Koljane,16.511,43.883,46
28,Čojluk,15.744,44.519,20
79,Podkuk,15.86,44.518,55
79,Desni Dubrovčak,16.341,45.642,55
28,Donja Jagodnja,15.517,44,20
39,Pridraga,15.583,44.149,24
46,Lijevo Željezno,16.337,45.618,46
55,Bijele Vode,16.197,45.283,55
28,Radošinovci,15.614,43.919,28
28,Sela,16.305,45.509,28
192,Ludbreg,16.615,46.254,112
134,Gradec,16.478,45.914,94
55,Cepeliš,16.268,45.412,24
160,Ivanić Grad,16.394,45.706,160
24,Zamlaka,16.497,46.29,24
66,Repinec,16.494,45.945,28
79,Brestik,16.194,45.221,79
39,Peskovec,16.325,45.871,33
39,Hađer,16.12,45.382,39
28,Gornji Fodrovec,16.398,46.045,28
55,Zabrđe,16.497,45.885,20
24,Lubena,16.513,45.919,20
28,Smokrić,15.701,44.406,20
39,Koritna,16.5,45.864,24
28,Stari Brod,16.167,45.487,28
28,Birovača,15.959,44.585,28
331,Lekenik,16.212,45.591,94
33,Banjevci,15.662,43.891,20
28,Paruževac,16.498,45.835,24
24,Gornji Štrbci,15.984,44.623,24
66,Čuntić,16.305,45.363,66
24,Stari Glog,16.538,45.908,24
46,Ledina,16.383,45.996,20
28,Stara Marča,16.491,45.762,28
55,Habjanovac,16.553,45.875,33
66,Pirovac,15.67,43.821,66
79,Dvorište,16.6,45.984,28
24,Krkač,16.352,45.914,20
39,Grab,15.893,44.29,24
28,Palovec,16.548,46.387,20
24,Prekopa,16.124,45.368,24
55,Blinja,16.369,45.356,55
66,Ličko Cerje,15.691,44.361,24
331,Udbina,15.767,44.532,230
39,Stružec Posavski,16.251,45.664,20
79,Parčić,15.841,44.073,55
24,Ruševac,16.679,46.028,24
79,Lovča,16.354,45.249,66
33,Gornja Greda,16.317,45.815,20
33,Donji Prnjarovec,16.544,45.677,20
24,Cirkvena,16.658,45.935,24
94,Farkaševac,16.636,45.881,94
24,Majske Poljane,16.116,45.333,20
39,Zablatje,16.811,46.266,28
24,Vinarec,16.439,46.102,20
24,Dekanovec,16.581,46.447,24
46,Gaćelezi,15.786,43.843,46
94,Preseka,16.387,45.975,79
33,Prelošćica,16.481,45.443,33
33,Drenovec,16.474,46.184,33
46,Ljubelj Kalnički,16.464,46.16,24
28,Nunić,15.878,44.02,28
39,Donji Markovac,16.669,45.858,20
66,Pobjenik,16.614,45.706,24
230,Ervenik,15.942,44.108,160
39,Zečevo,15.881,43.971,39
66,Komić,15.742,44.451,46
24,Gornja Suvaja,16.075,44.401,24
55,Draškovac,16.397,45.143,39
24,Srima,15.802,43.745,20
28,Letovanić,16.199,45.508,28
24,Kobiljak,16.059,45.179,24
28,Svinica,16.494,45.306,28
24,Donja Oraovica,16.431,45.151,24
39,Gornji Martijanec,16.504,46.24,20
46,Vučani,16.679,45.733,39
28,Bosanci,16.765,45.938,20
39,Pirakovec,16.358,45.887,33
33,Stančići,16.756,45.904,33
39,Prognaničko naselje Dumače,16.185,45.472,39
112,Prijeka,16.106,45.285,39
55,Pakoštane,15.508,43.91,33
24,Podbrest,16.541,46.327,20
39,Bratiškovci,15.902,43.889,33
66,Gračac,15.888,43.851,66
28,Mutilić,15.772,44.505,20
46,Srb,16.124,44.363,46
94,Kistanje,15.961,43.98,94
79,Bilice,15.88,43.785,39
46,Čičkovina,16.528,46.287,20
55,Ježevo,16.3,45.736,39
24,Majur,16.531,45.256,24
66,Narta,16.786,45.834,39
24,Gornja Jelenska,16.69,45.598,24
397,Šibenik,15.896,43.734,331
24,Čigoč,16.631,45.414,24
46,Srdinac,16.912,46.079,46
66,Domašinec,16.594,46.435,66
28,Pribudić,16.1,44.142,28
55,Bogatić,16.014,43.945,33
39,Roviška,16.129,45.314,24
46,Kalnik,16.47,46.128,46
28,Kapela Ravenska,16.429,46.028,28
28,Turčišće,16.595,46.416,20
24,Miholec,16.446,46.055,20
33,Leskovec Toplički,16.512,46.215,33
33,Katoličke Čaire,16.793,45.551,33
39,Kutinska Slatina,16.782,45.52,33
33,Oglavci,15.962,43.563,24
24,Kozarevac Račanski,16.923,45.789,20
79,Mičetinac,17.023,46.008,28
33,Golubić,16.216,44.105,33
46,Dužica,16.237,45.539,39
46,Gornji Karin,15.631,44.133,46
79,Melinovac,15.898,44.742,79
112,Ondić,15.784,44.479,39
28,Beketinec,16.436,46.013,28
33,Kninsko Polje,16.221,44.059,20
33,Trebež,16.782,45.36,33
39,Podglavica,15.996,43.545,20
28,Srednja Velika,16.426,45.988,20
33,Slivno,16.093,43.694,33
46,Gora,16.191,45.418,46
28,Slovinska Kovačica,16.982,45.758,28
24,Zaton Obrovački,15.671,44.212,20
28,Potok Kalnički,16.482,46.113,20
28,Palinovec,16.598,46.395,28
33,Zbjegovača,16.873,45.457,33
46,Kruševo,15.658,44.179,20
28,Hrgovec,16.477,46.093,20
79,Biočić,16.226,43.896,39
79,Riđane,16.248,43.936,46
33,Donji Cerovljani,16.797,45.209,20
39,Gornje Mokrice,16.205,45.439,39
55,Suša,16.286,45.63,39
28,Maja,16.14,45.284,28
33,Donja Velika,16.428,45.969,24
24,Donji Pustakovec,16.596,46.376,24
24,Šopot,15.594,44.022,20
46,Molvice,17.181,46.026,20
24,Višnjica,16.866,45.258,24
46,Donji Karin,15.632,44.103,46
24,Miranje,15.586,43.998,24
28,Sibić,16.196,45.404,28
160,Brubno,16.108,45.197,79
33,Visoka,16.218,43.688,33
33,Blagorodovac,17.037,45.554,33
79,Gornje Utore,16.269,43.706,55
79,Obrovac,15.682,44.201,79
46,Dabrina,16.141,45.259,46
39,Seget Gornji,16.209,43.541,24
39,Turnašica,17.218,45.887,39
79,Benkovac,15.61,44.033,79
46,Ričice,15.743,44.335,46
28,Hrženica,16.577,46.299,20
55,Prečec,16.354,45.759,39
94,Čavoglave,16.336,43.783,46
28,Lovska,17.043,45.411,28
33,Goveđe Polje,17.088,45.516,33
28,Čvrljevo,16.315,43.706,28
230,Grubišno Polje,17.173,45.702,79
24,Donji Hrašćan,16.625,46.409,20
28,Visuć,15.833,44.53,28
28,Gornji Klasnić,16.138,45.237,28
55,Maslinica,16.206,43.396,46
46,Stari Gradac,17.293,45.925,33
24,Golubinjak,17.159,45.561,24
28,Podlug,15.607,44.009,20
24,Žedno,16.289,43.505,20
331,Komiža,16.09,43.045,331
28,Bračević,16.403,43.74,28
94,Gornja Obrijež,17.172,45.482,33
28,Greda Breška,16.344,45.707,28
28,Brdo Orehovečko,16.493,46.063,24
160,Lipik,17.16,45.412,94
66,Vrbovec,16.419,45.885,66
46,Lončarica,17.3,45.744,46
24,Čehovec,16.618,46.361,20
66,Donje Ceranje,15.596,43.963,46
24,Donji Tkalec,16.452,45.954,24
28,Tedrovec,16.365,45.744,28
24,Žibrinovec,16.514,46.1,24
55,Prelog,16.612,46.338,55
55,Petrovec,16.266,45.503,55
33,Strašnik,16.224,45.404,33
24,Hrastovsko,16.575,46.244,20
39,Greda,16.278,45.526,39
28,Podolec,16.443,45.919,20
33,Zaklepica,16.349,45.693,24
24,Tarno,16.366,45.733,20
28,Hodošan,16.641,46.395,20
24,Gornje Ceranje,15.614,43.981,24
55,Prilesje,16.422,45.858,24
39,Podgajec,16.493,46.025,28
24,Dragotina,16.174,45.264,24
39,Brezovo Polje,16.137,45.175,39
55,Luščani,16.217,45.36,55
33,Osijek Vojakovački,16.539,46.127,33
66,Vlahović,16.2,45.315,66
24,Brest Pokupski,16.258,45.452,20
112,Rudopolje Bruvanjsko,15.815,44.42,79
46,Sveti Đurđ,16.604,46.284,46
79,Mali Raven,16.485,45.988,33
55,Perušić Benkovački,15.636,44.007,20
24,Topolje,16.346,45.653,24
66,Poljanski Lug,16.419,45.825,46
24,Sveta Helena,16.528,46.083,24
28,Drenovac Banski,16.2,45.298,28
33,Veliki Brezovec,16.467,45.931,20
28,Selnik,16.606,46.267,20
46,Muškovci,15.737,44.22,33
79,Donji Kraljevec,16.65,46.364,79
55,Vinogradci,16.598,46.229,20
79,Gornji Žirovac,16.134,45.122,79
28,Donji Žirovac,16.147,45.151,28
28,Donja Brckovčina,16.51,46.01,20
28,Cirkovljan,16.646,46.343,20
55,Pecki,16.25,45.383,46
33,Vurot,16.287,45.466,20
55,Čemernica Lonjska,16.415,45.768,24
33,Apatovec,16.573,46.147,33
66,Marinovec,16.557,46.108,55
331,Petrinja,16.279,45.44,276
28,Nebljusi,15.945,44.658,28
112,Desno Trebarjevo,16.345,45.595,66
28,Konak,16.459,45.865,24
55,Kruge,15.941,44.644,55
46,Goričan,16.674,46.384,46
46,Kozaperovica,16.2,45.243,46
28,Gornja Glogovnica,16.556,46.093,28
24,Podgrađe,15.67,44.018,24
24,Sveti Martin,16.519,45.998,24
46,Ludbreški Ivanac,16.59,46.166,46
24,Šćapovec,16.419,45.75,20
24,Pokasin,16.509,45.964,24
55,Dnopolje,15.921,44.578,24
66,Kloštar Ivanić,16.417,45.738,28
55,Lisičić,15.682,44.03,39
134,Zelengrad,15.73,44.137,46
39,Mali Gradac,16.219,45.263,39
46,Kolarina,15.662,43.98,39
46,Velika Rasinjica,16.608,46.188,46
230,Murter,15.592,43.817,94
192,Križevci,16.545,46.025,192
39,Veliki Šušnjar,16.251,45.318,39
24,Ivanec Križevački,16.569,46.077,24
46,Dobra Voda,15.65,43.93,28
24,Sigetec Ludbreški,16.644,46.257,20
24,Oporovec,16.674,46.329,24
24,Hrastovica,16.289,45.399,24
46,Tomingaj,15.84,44.353,39
33,Stara Drenčina,16.322,45.475,28
39,Mali Potočec,16.56,46.044,20
33,Komora,16.18,45.136,33
24,Grabrić,16.505,45.901,20
66,Bilišane,15.765,44.172,46
28,Odra Sisačka,16.339,45.502,20
28,Globočec Ludbreški,16.644,46.236,20
39,Nova Drenčina,16.323,45.456,24
28,Buzadovac,16.529,45.947,28
33,Poljana Križevačka,16.539,45.969,33
33,Veliki Poganac,16.615,46.149,33
39,Oraovac,15.934,44.532,20
28,Kožlovac,15.704,44.006,28
24,Segovina,16.644,46.206,24
28,Veliki Gradac,16.261,45.283,28
134,Dragotinci,16.283,45.335,79
33,Donji Lepuri,15.705,43.986,33
160,Donji Štrbci,15.999,44.651,79
160,Gračac,15.85,44.3,160
33,Rijeka Koprivnička,16.623,46.116,33
79,Tišina Kaptolska,16.378,45.527,33
112,Bruška,15.755,44.082,79
160,Donji Lapac,15.961,44.551,160
28,Fuka,16.529,45.886,28
39,Donja Budičina,16.317,45.38,39
24,Remetinec,16.546,45.926,24
39,Gvozdansko,16.215,45.136,39
28,Lemeš Križevački,16.585,46.017,24
24,Radeljevo Selo,16.648,46.169,24
24,Majurec,16.591,46.027,24
46,Ljeskovac,16.235,45.178,46
24,Belanovo Selo,16.658,46.188,24
39,Graberje Ivanićko,16.462,45.713,28
46,Mahovo,16.403,45.569,46
39,Đurđic,16.584,46.003,24
28,Zvekovac,16.51,45.821,20
33,Novi Bošnjani,16.622,46.087,33
46,Tisno,15.641,43.798,46
94,Golubić,15.821,44.2,79
39,Majdan,16.216,45.112,39
112,Sisak,16.376,45.487,112
94,Brgud,15.75,44.036,46
28,Bulić,15.722,43.971,24
79,Mačkovo Selo,16.296,45.294,79
39,Kašić,15.679,43.871,28
39,Bolfan,16.683,46.218,28
112,Stankovci,15.696,43.906,112
24,Lukovec,16.679,46.198,20
33,Kestenovac,16.019,44.633,33
39,Rodaljice,15.768,44.053,39
46,Deanovec,16.473,45.692,28
55,Kijani,15.897,44.342,33
24,Gornja Mlinoga,16.327,45.341,24
160,Dubrava,16.537,45.838,112
28,Kloštar Vojakovački,16.624,46.042,28
28,Novo Pračno,16.371,45.436,28
33,Novo Selo Podravsko,16.72,46.275,20
55,Sveta Marija,16.744,46.33,55
46,Bruvno,15.927,44.394,46
28,Bogatnik,15.823,44.155,28
39,Medviđa,15.798,44.097,39
66,Mišljenovac,16.011,44.581,28
66,Mali Bukovec,16.736,46.292,66
33,Crljenik,15.712,43.884,20
55,Bušević,16.03,44.606,46
79,Mazin,15.966,44.453,79
24,Ušljebrke,15.831,44.144,24
46,Vrhovac Sokolovački,16.687,46.15,28
66,Gornji Lapac,15.996,44.515,28
24,Širinec,16.491,45.676,20
24,Petkovac,16.363,45.368,24
160,Lišane Ostrovičke,15.759,43.973,160
79,Sveti Ivan Žabno,16.605,45.946,66
28,Nadvoda,15.846,44.169,28
79,Rasinja,16.704,46.183,79
24,Gornji Lipovčani,16.537,45.775,24
39,Marčani,16.525,45.746,28
28,Ljubina,16.238,45.063,28
39,Omsica,15.935,44.361,39
79,Gornja Stupnica,16.277,45.153,33
94,Putičanje,15.718,43.862,33
39,Sovari,16.523,45.728,28
28,Mala Hrastilnica,16.493,45.652,20
24,Lepavina,16.679,46.097,20
33,Bađinec,16.561,45.812,20
46,Prović,15.75,43.925,28
79,Gorica,16.733,46.226,33
46,Jošavica,16.361,45.328,46
24,Vojvodinec,16.74,46.237,24
28,Grdak,16.695,46.125,20
79,Kaštel Žegarski,15.858,44.155,55
39,Boričevac,16.024,44.531,39
39,Donja Stupnica,16.283,45.132,28
33,Dubrava kod Tisna,15.709,43.813,24
24,Donji Vidovec,16.787,46.33,24
33,Žabnica,16.614,45.909,20
24,Bijelnik,16.378,45.344,24
94,Crnac,16.419,45.442,33
46,Dazlina,15.726,43.839,33
28,Kotarani,16.246,45.03,28
66,Gornji Dragičevci,16.57,45.796,33
33,Velike Sesvete,16.677,46.053,33
46,Gornji Vukšinac,16.591,45.844,28
66,Budaševo,16.439,45.476,28
24,Donji Dragičevci,16.569,45.785,24
28,Grbaševec,16.746,46.212,24
28,Subotica Podravska,16.738,46.19,20
33,Kostanj,16.589,45.828,28
94,Gubavčevo Polje,15.954,44.34,55
79,Križ,16.521,45.663,66
39,Komazeci,15.866,44.137,39
39,Trgovi,16.287,45.106,24
24,Selnica Podravska,16.783,46.294,20
33,Topolovac,16.437,45.459,20
134,Sokolovac,16.709,46.108,66
46,Gornje Komarevo,16.419,45.411,24
28,Prokljuvani,16.565,45.758,20
28,Novi Glog,16.648,45.956,24
28,Novo Selo Palanječko,16.455,45.49,28
55,Glogovo,15.951,44.314,55
66,Vučipolje,15.93,44.266,46
24,Ostrovica,15.795,43.96,20
24,Općevac,16.556,45.729,20
276,Kotoriba,16.815,46.357,160
24,Kutnjak,16.781,46.271,24
66,Krupa,15.901,44.197,66
79,Sočanica,16.274,45.056,46
46,Dobropoljci,15.813,43.994,28
55,Bjelina,15.837,44.043,55
24,Većeslavec,16.696,46.04,24
112,Bosiljevo,16.572,45.74,94
33,Donja Dubrava,16.81,46.315,33
33,Cicvare,15.788,43.914,33
28,Praščevac,16.648,45.917,24
33,Blinjska Greda,16.43,45.394,33
66,Okoli,16.514,45.589,39
46,Vezišće,16.525,45.613,33
46,Čista Mala,15.777,43.88,46
55,Srijem,16.72,46.078,24
55,Dobroselo,16.045,44.485,55
46,Žažvić,15.802,43.929,33
24,Konšćani,16.551,45.665,20
24,Gošić,15.828,43.981,24
55,Zut,16.285,45.03,55
33,Brezovac Dobroselski,16.035,44.447,33
134,Duboki Dol,15.941,44.231,55
46,Pustakovec,16.795,46.23,20
33,Lađevci,15.799,43.895,33
24,Cepidlak,16.691,45.974,24
571,Bansko Vrpolje,16.329,45.111,276
28,Glavičani,16.34,45.136,20
28,Obedišće,16.551,45.634,20
79,Zrinska Draga,16.363,45.185,66
33,Povelić,16.711,46.011,20
24,Tribunj,15.744,43.757,20
33,Paukovac,16.352,45.149,33
94,Velika Gradusa,16.428,45.329,46
55,Knezovljani,16.42,45.304,39
28,Ćore,16.332,45.096,20
28,Modrino Selo,15.88,44.043,28
33,Reka,16.769,46.129,33
28,Čazma,16.612,45.748,28
24,Donji Draganec,16.626,45.781,24
24,Razljev,16.57,45.644,24
24,Gornji Javoranj,16.349,45.121,20
24,Bolč,16.676,45.89,20
39,Vanići,16.339,45.082,24
66,Kovačevac,16.718,45.984,28
39,Đevrske,15.851,43.954,39
39,Donji Dobretin,16.316,45.02,39
46,Donja Jelenska,16.543,45.552,46
79,Koprivnički Ivanec,16.814,46.205,33
55,Dabašnica,16.038,44.366,55
112,Vodice,15.775,43.764,112
112,Legrad,16.856,46.297,112
28,Umetić,16.438,45.29,28
24,Brđani Kosa,16.478,45.382,24
94,Bribir,15.849,43.923,55
39,Vukoševac,16.472,45.364,39
134,Zrinski Topolovac,16.749,46.025,94
24,Mala Gradusa,16.464,45.338,24
39,Suhaja,16.628,45.724,20
28,Vrtlinska,16.614,45.686,28
28,Peščenik,16.778,46.078,28
33,Zaklopac,16.079,44.427,33
33,Šegestin,16.394,45.159,33
79,Kolašac,15.905,44.028,33
24,Milaševac,16.648,45.761,20
24,Buinjski Riječani,16.407,45.187,24
46,Stružec,16.552,45.529,39
79,Velika Ludina,16.586,45.609,33
28,Grabrov Potok,16.584,45.597,20
66,Ždrapanj,15.846,43.886,28
24,Varivode,15.878,43.955,24
33,Mustafina Klada,16.612,45.659,33
55,Rovišće,16.732,45.947,55
55,Biovičino Selo,15.925,44.055,46
28,Grabričina,16.609,45.646,28
46,Rajić,16.715,45.898,39
28,Zdenčec,16.68,45.811,20
55,Prvić Šepurine,15.786,43.734,24
28,Andigola,16.623,45.672,28
94,Đelekovec,16.864,46.25,79
66,Velika Popina,16.032,44.281,66
46,Vagovina,16.672,45.78,24
28,Vaćani,15.864,43.898,28
33,Struga Banska,16.39,45.108,28
822,Koprivnica,16.832,46.163,476
39,Zamlača,16.384,45.088,20
28,Stanić Polje,16.35,45.004,28
24,Donja Vlahinička,16.596,45.583,20
79,Dvor,16.38,45.071,79
33,Breza,16.719,45.878,33
33,Domankuš,16.767,45.993,24
134,Bukovsko,16.537,45.437,55
66,Lukavec Posavski,16.524,45.407,33
55,Zaton,15.823,43.787,28
39,Unčani,16.406,45.123,39
46,Draganovec,16.831,46.134,24
39,Gornja Velešnja,16.46,45.242,20
66,Bojana,16.682,45.757,39
66,Donja Suvaja,16.109,44.41,55
46,Smrdelje,15.9,43.934,39
33,Kakinac,16.772,45.97,20
24,Daskatica,16.699,45.795,20
28,Staro Štefanje,16.713,45.822,20
230,Donji Kukuruzari,16.481,45.266,134
24,Kostreši Bjelovački,16.488,45.278,20
79,Gornja Velika,16.816,46.066,39
24,Golubovac Divuški,16.428,45.136,24
46,Veliko Svinjičko,16.568,45.458,46
39,Herešin,16.867,46.178,20
39,Raslina,15.855,43.805,20
230,Štefanje,16.718,45.806,79
24,Torčec,16.889,46.22,20
28,Gornja Vlahinićka,16.638,45.613,28
24,Tvrda Reka,16.804,46.01,24
39,Srednje Selo,16.599,45.517,39
39,Prgomelje,16.756,45.888,39
55,Neteka,16.117,44.384,46
46,Četvrtkovac,16.532,45.348,20
134,Kom,16.022,44.164,46
28,Sredice Gornje,16.82,46.035,28
55,Volinja,16.472,45.198,39
571,Popovača,16.628,45.568,397
33,Peteranec,16.891,46.194,33
33,Radonja Luka,16.531,45.327,33
55,Ićevo,15.919,43.91,46
46,Otrić,16.067,44.244,46
66,Kupirovo,16.106,44.315,55
24,Reškovci,16.818,45.99,20
55,Malo Krčevo,16.529,45.294,24
66,Zrmanja Vrelo,16.056,44.194,66
79,Zlarin,15.836,43.697,33
24,Štaglinec,16.875,46.123,20
94,Prekobrdo,16.806,45.947,33
33,Donja Letina,16.586,45.419,33
24,Čukur,16.507,45.23,20
39,Drnje,16.916,46.214,39
33,Kobasičari,16.813,45.961,24
230,Sunja,16.566,45.367,112
24,Bićine,15.902,43.831,20
39,Ivoševci,15.994,44.032,39
55,Nadvrelo,16.078,44.22,55
46,Martinac,16.732,45.742,39
24,Vedro Polje,16.569,45.349,20
55,Koprivnički Bregi,16.901,46.133,39
28,Graboštani,16.546,45.279,20
28,Donji Mosti,16.868,46.049,28
55,Zrmanja,16.065,44.156,55
39,Donja Šušnjara,16.755,45.764,28
24,Krivaj Sunjski,16.59,45.366,20
33,Voloder,16.669,45.552,24
39,Starine,16.774,45.802,20
66,Kapela,16.851,45.988,66
24,Gornje Zdelice,16.866,46.022,24
192,Skradin,15.923,43.818,66
46,Dubravice,15.94,43.85,28
39,Sigetec,16.94,46.192,20
55,Veliko Korenovo,16.804,45.858,39
79,Mokro Polje,16.046,44.081,66
39,Vlaislav,16.904,46.1,28
66,Hrvatska Kostajnica,16.541,45.228,66
33,Osredci,16.167,44.351,20
46,Selišće Sunjsko,16.62,45.398,28
28,Stara Diklenica,16.86,45.967,20
79,Pobrđani,16.592,45.318,39
28,Gornje Plavnice,16.856,45.942,28
397,Bjelovar,16.841,45.901,397
94,Samarica,16.759,45.698,39
39,Selište Kostajničko,16.573,45.251,20
24,Gornja Petrička,16.78,45.738,24
39,Bogatić,15.994,43.906,39
55,Gotalovo,16.98,46.219,33
24,Bistrač,16.635,45.386,24
28,Utiskani,16.811,45.806,20
28,Zvijerci,16.863,45.927,24
39,Puljane,16.033,43.976,28
66,Ivanska,16.807,45.782,66
55,Gornja Gračenica,16.696,45.513,39
822,Dugopolje,16.194,44.333,230
28,Lozovac,15.962,43.805,24
55,Donje Zdjelice,16.912,46.025,33
66,Radučić,16.073,44.045,66
24,Donja Petrička,16.792,45.726,20
46,Kolarevo Selo,16.834,45.818,33
79,Mikleuška,16.724,45.547,55
112,Brodarica,15.917,43.68,39
33,Pađene,16.099,44.087,33
66,Oton,16.111,44.11,55
28,Mratovo,16.044,43.959,20
39,Delovi,16.961,46.11,33
55,Rakitnica,16.915,45.999,33
46,Komatnica,16.989,46.176,20
66,Timarci,16.618,45.282,46
112,Brištani,16.006,43.867,46
24,Galovac,16.855,45.843,24
28,Rausovac,16.613,45.262,28
55,Šimljanik,16.784,45.668,55
112,Podgarić,16.775,45.641,66
24,Puričani,16.894,45.927,24
33,Nos Kalik,15.991,43.817,33
33,Kostreši Šaški,16.635,45.298,33
28,Đurđic,16.841,45.789,20
33,Miholjanec,16.945,46.039,24
33,Ždralovi,16.883,45.884,24
33,Drinovci,16.013,43.85,33
79,Višnjevac,16.921,45.972,28
28,Mužilovčica,16.68,45.392,28
24,Ljubotić,16.078,43.986,20
28,Martinac,16.916,45.95,20
112,Berek,16.83,45.741,112
33,Otočka,17.018,46.196,20
33,Repušnica,16.728,45.495,28
46,Karalić,16.038,43.887,46
28,Srijedska,16.845,45.768,24
46,Prokljuvani,16.906,45.904,28
24,Jadrtovac,15.95,43.677,24
33,Žaborić,15.945,43.663,33
39,Šimljana,16.821,45.695,39
94,Oklaj,16.079,43.962,66
39,Gabajeva Greda,17.013,46.156,24
24,Kutinica,16.775,45.576,24
46,Suvoj,16.691,45.373,46
39,Oćestovo,16.125,44.059,39
112,Plavno,16.175,44.171,112
134,Primošten,15.925,43.588,112
94,Virje,16.988,46.066,55
46,Krajiška Kutinica,16.79,45.586,46
55,Matase,16.118,44.017,46
79,Veliko Trojstvo,16.937,45.936,55
66,Bobodol,16.107,43.991,24
24,Oštri Zid,16.828,45.667,24
33,Maglenča,16.933,45.918,20
46,Kokinac,16.904,45.848,33
24,Konjevrate,16.02,43.783,24
24,Strmen,16.699,45.353,24
24,Dominkovica,16.953,45.96,20
94,Brnjica,16.039,43.819,66
55,Šimljanica,16.852,45.712,24
24,Međurača,16.89,45.803,24
160,Radljevac,16.17,44.113,55
94,Danilo Biranj,15.999,43.724,66
134,Gola,17.055,46.197,112
39,Nevinac,16.904,45.816,28
55,Prespa,16.929,45.871,24
39,Šemovci,16.995,46.029,28
55,Šaš,16.681,45.272,55
46,Kaočine,16.069,43.855,46
46,Stara Plošćica,16.887,45.761,33
24,Čaire,16.805,45.562,24
94,Molve,17.031,46.107,55
66,Razvođe,16.106,43.928,24
46,Lukar,16.123,43.962,24
46,Veliki Prokop,16.841,45.634,39
160,Kutina,16.776,45.479,160
134,Crkveni Bok,16.723,45.349,94
33,Dautan,16.927,45.831,24
28,Primošten Burnji,15.973,43.61,28
39,Trnovitički Popovac,16.854,45.651,39
66,Žagrović,16.182,44.078,33
33,Čingi-Lingi,17.055,46.136,24
66,Begovača,16.865,45.671,46
112,Radonić,16.047,43.769,79
24,Pokrovnik,16.069,43.805,24
66,Vrpolje,16.011,43.676,66
33,Pakovo Selo,16.08,43.823,33
46,Trbounje,16.109,43.884,28
24,Sasovac,16.928,45.77,24
79,Slabinja,16.692,45.204,66
28,Husain,16.81,45.476,20
33,Velušić,16.137,43.911,33
94,Rogoznica,15.968,43.529,94
331,Knin,16.195,44.038,331
66,Nova Ploščica,16.922,45.736,39
55,Grebaštica,16.017,43.632,55
24,Stupovača,16.84,45.536,24
46,Molve Grede,17.076,46.105,24
33,Mišinka,16.822,45.491,24
24,Vadalj,15.992,43.572,24
112,Severin,16.967,45.84,79
112,Živaja,16.72,45.247,46
79,Nova Rača,16.953,45.799,79
79,Strmica,16.261,44.171,79
55,Vrbnik,16.192,44.01,24
28,Vrpolje,16.219,44.072,28
46,Dišnik,16.877,45.608,20
55,Grkine,17.074,46.078,28
33,Danilo,16.059,43.702,33
66,Široke,16.014,43.595,55
24,Ražanj,15.976,43.51,20
66,Rogoža,16.86,45.55,28
24,Mlinski Vinogradi,16.917,45.676,20
79,Ždala,17.118,46.157,39
66,Kašljavac,17.001,45.872,28
39,Bulinac,16.979,45.817,20
39,Mala Trnovitica,16.934,45.706,20
160,Đurđevac,17.074,46.041,160
55,Ilova,16.839,45.463,39
39,Mali Pašijan,16.909,45.63,39
39,Budrovac,17.056,45.985,33
28,Velika Mlinska,16.923,45.659,24
33,Podine,16.056,43.646,33
192,Garešnica,16.892,45.583,94
46,Danilo Kraljice,16.093,43.726,46
24,Vrsno,16.051,43.629,24
276,Drniš,16.155,43.861,134
39,Ramljane,16.204,43.972,20
55,Šandrovac,17.029,45.904,55
46,Uzdolje,16.191,43.938,46
55,Žitnić,16.145,43.832,24
33,Sapina Doca,16.025,43.56,33
39,Puska,16.791,45.32,39
66,Kanica,16,43.497,24
33,Dvornica,16.011,43.522,24
46,Baćin,16.75,45.211,28
55,Jasenik,17.05,45.929,20
24,Sirova Katalena,17.064,45.961,24
94,Velika Trnovitica,16.952,45.686,94
55,Ostrogašica,16.13,43.771,33
33,Biskupija,16.229,43.991,33
33,Severovci,17.114,46.073,24
28,Zvjerinac,16.214,43.955,28
39,Veliko Vukovje,16.887,45.52,39
24,Badanj,16.179,43.866,20
33,Bedenik,17.019,45.83,28
24,Podorljak,16.031,43.532,24
28,Donje Planjane,16.144,43.785,28
33,Lasovac,17.03,45.852,33
66,Piljenice,16.856,45.435,28
39,Boraja,16.081,43.628,39
39,Siverić,16.193,43.878,20
24,Kraljeva Velika,16.845,45.392,24
39,Podumci,16.137,43.745,28
28,Kalinovac,17.113,46.025,24
46,Mala Pisanica,17.015,45.78,20
39,Mravnica,16.104,43.654,33
66,Garešnički Brestovac,16.95,45.609,28
39,Mitlo,16.079,43.585,39
39,Lasovac Brdo,17.06,45.867,28
134,Novo Virje,17.155,46.098,46
39,Sevid,16.044,43.502,39
33,Garešnica,16.941,45.576,33
24,Kaniška Iva,16.923,45.53,24
79,Sitno Donje,16.127,43.683,33
24,Sedramić,16.178,43.795,24
79,Krapje,16.829,45.3,46
55,Markovac,16.254,43.963,20
33,Plesmo,16.84,45.317,33
79,Blizna Gornja,16.104,43.602,33
55,Drenov Bok,16.827,45.267,46
39,Palešnik,16.982,45.635,20
33,Ladislav,17.008,45.697,33
39,Ribnjačka,17.088,45.89,33
28,Banova Jaruga,16.902,45.441,28
39,Prugovac,17.12,45.966,20
160,Hrvatska Dubica,16.798,45.192,134
39,Kričke,16.211,43.829,28
28,Miočić,16.235,43.881,28
112,Lipovljani,16.893,45.398,55
24,Sigetac,16.873,45.35,24
33,Kajgana,16.975,45.592,20
33,Krivaj,16.905,45.42,20
33,Međurić,16.921,45.458,33
230,Unešić,16.182,43.742,134
79,Velika Pisanica,17.065,45.802,79
39,Gornje Planjane,16.195,43.768,20
79,Kozarevac,17.123,45.935,39
94,Veliki Grđevac,17.05,45.756,94
66,Hercegovac,17.007,45.653,66
66,Pavlovac,17.039,45.717,33
46,Gustirna,16.103,43.537,20
33,Velika Trnava,17.028,45.678,20
66,Kanjane,16.249,43.857,24
28,Ljubitovica,16.143,43.616,20
55,Kloštar Podravski,17.157,45.984,46
66,Moseć,16.224,43.795,24
230,Primorski Dolac,16.155,43.637,94
192,Bačkovica,17.102,45.843,33
79,Ferdinandovac,17.192,46.06,66
39,Cera - Bošnjaci,16.188,43.707,28
28,Stara Subocka,16.904,45.359,28
160,Marino Selo,16.965,45.502,55
24,Tomašica,17.013,45.611,24
134,Marina,16.108,43.514,79
66,Hrastovac,16.989,45.551,28
134,Drvenik Mali,16.081,43.449,55
24,Nova Subocka,16.922,45.372,20
112,Ružić,16.256,43.825,112
39,Čađavac,17.113,45.824,24
39,Tanac,16.872,45.244,24
24,Nova Pisanica,17.109,45.81,24
33,Nevest,16.217,43.726,20
46,Bristivica,16.155,43.577,39
39,Dinjevac,17.173,45.951,24
55,Vinišće,16.118,43.487,20
55,Štikovo,16.309,43.904,46
39,Gornja Kovačica,17.107,45.772,24
33,Grabrovnica,17.174,45.934,33
33,Vrsine,16.147,43.527,24
39,Duhovi,17.009,45.517,39
46,Podravske Sesvete,17.213,46.002,39
160,Jasenovac,16.909,45.27,66
28,Prapatnica,16.187,43.6,24
28,Kladare,17.2,45.968,20
39,Velika Jasenovača,17.102,45.725,33
39,Janja Lipa,16.987,45.449,39
33,Uljanik,17.023,45.534,33
33,Velika Črešnjevica,17.18,45.906,33
33,Brestača,16.956,45.359,20
39,Imsovac,17.061,45.61,33
46,Veliki Zdenci,17.08,45.655,39
24,Kozarice,16.975,45.39,24
33,Umljanović,16.291,43.801,24
39,Kreštelovac,17.059,45.576,33
39,Zrinska,17.149,45.793,39
39,Donje Vinovo,16.281,43.754,39
55,Bročice,16.955,45.314,24
39,Drvenik Veliki,16.147,43.448,39
24,Velika Barna,17.134,45.736,24
55,Stražanac,17.089,45.628,33
66,Novi Grabovac,16.997,45.401,46
39,Brodić,17.255,46.018,24
46,Prgomet,16.229,43.611,46
397,Novska,16.979,45.341,397
66,Divojevići,16.26,43.676,46
55,Mali Zdenci,17.125,45.681,24
230,Pitomača,17.237,45.951,230
28,Košutarica,16.953,45.262,24
33,Greda,17.247,45.967,20
24,Mali Grđevac,17.167,45.768,24
55,Bujavica,17.027,45.428,55
66,Labin,16.232,43.587,20
24,Boriš,17.121,45.646,24
55,Brekinska,17.064,45.502,55
55,Civljane,16.401,43.951,55
66,Mirlović Polje,16.34,43.813,46
66,Gornje Vinovo,16.307,43.734,66
39,Vukosavljevica,17.223,45.866,39
33,Kaštel Dežanovački,17.098,45.554,24
134,Vrlika,16.395,43.909,134
66,Cremušina,17.207,45.806,46
46,Bair,17.029,45.375,28
28,Okrug Donji,16.219,43.498,20
39,Kosore,16.412,43.93,20
66,Dežanovac,17.121,45.583,55
33,Cetina,16.433,43.967,20
46,Maovice,16.4,43.885,20
33,Kladnjice,16.307,43.671,28
39,Brestovačka Brda,17.138,45.601,20
79,Mala Jasenovača,17.202,45.753,46
28,Trojeglava,17.115,45.537,28
33,Otkopi,17.167,45.661,20
24,Kapetanovo Polje,17.102,45.502,24
192,Trogir,16.251,43.52,112
79,Končanica,17.165,45.638,39
39,Kukunjevac,17.09,45.451,39
24,Vinalić,16.438,43.929,24
160,Biševo,16.011,42.975,55
24,Ramljane,16.352,43.732,24
33,Mala Barna,17.212,45.736,28
24,Podosoje,16.426,43.895,20
55,Voćarica,17.04,45.32,39
28,Crivac,16.375,43.763,28
28,Plano,16.281,43.544,20
79,Radošić,16.309,43.598,33
33,Lozan,17.291,45.893,28
79,Mlaka,17.019,45.238,66
39,Lipovac Majur,17.179,45.617,20
46,Okrug Gornji,16.265,43.495,20
28,Rogovac,17.304,45.906,28
46,Pribude,16.398,43.775,46
55,Livađani,17.091,45.384,39
33,Divulje,16.29,43.531,24
66,Ježević,16.467,43.926,39
46,Starogradački Marof,17.326,45.944,46
46,Garjak,16.459,43.903,39
46,Jagma,17.11,45.418,28
55,Velika Peratovica,17.26,45.774,55
94,Lećevica,16.348,43.64,66
39,Novi Antunovac,17.305,45.875,20
46,Gornji Sređani,17.161,45.528,39
39,Špišić Bukovica,17.302,45.855,39
94,Otišić,16.451,43.857,39
28,Dapčevački Brđani,17.251,45.72,28
94,Križnica,17.358,45.971,66
28,Šuplja Lipa,17.224,45.644,28
24,Šibovac,17.197,45.567,24
39,Treglava,17.248,45.69,39
33,Nisko,16.383,43.666,24
33,Kip,17.193,45.541,33
39,Klisa,17.154,45.436,20
33,Ivanovo Selo,17.253,45.673,33
28,Stari Majur,17.17,45.47,24
46,Bušetina,17.35,45.898,39
46,Rajić,17.105,45.305,46
39,Golo Brdo,17.327,45.829,20
24,Badljevina,17.197,45.514,24
66,Donje Ogorje,16.438,43.746,66
24,Mala Milešina,16.444,43.757,24
33,Korušce,16.385,43.62,24
28,Gornje Postinje,16.425,43.702,28
134,Grohote,16.287,43.391,94
33,Podhumlje,16.121,43.021,20
66,Kaštel Lukšić,16.364,43.554,55
46,Brštanovo,16.413,43.658,39
46,Donji Čaglić,17.161,45.39,20
28,Kovačevac,17.155,45.376,28
55,Rajčići,17.138,45.336,39
24,Miljanovac,17.221,45.529,20
79,Donja Vrijeska,17.271,45.645,46
46,Žena Glava,16.14,43.035,24
24,Mala Dapčevica,17.304,45.718,24
66,Pakrac,17.195,45.44,66
46,Batinjska Rijeka,17.27,45.613,24
28,Dereza,17.221,45.493,28
24,Sveti Đurađ,17.358,45.82,20
79,Vučevica,16.411,43.597,39
55,Dugobabe,16.423,43.622,46
28,Gornja Vrijeska,17.287,45.631,28
28,Rogačić,16.183,43.074,20
33,Turanovac,17.4,45.894,20
24,Bijela,17.293,45.557,24
79,Vis,16.185,43.06,79
28,Nečujam,16.325,43.384,24
33,Brezik,17.394,45.861,20
24,Gornji Čaglić,17.187,45.377,24
46,Sičane,16.582,43.658,20
24,Trnava,17.282,45.268,20
39,Čitluk,16.656,43.739,24
24,Gizdavac,16.472,43.645,24
33,Maljkovo,16.52,43.818,33
112,Milanovac,17.586,45.392,46
33,Čovac,17.169,45.236,33
33,Laktac,16.535,43.85,33
39,Cage,17.208,45.288,20
94,Sutina,16.531,43.694,46
39,Kusonje,17.228,45.46,20
79,Seona,18.015,45.47,20
55,Đurđenovac,18.047,45.543,39
476,Virovitica,17.384,45.833,476
134,Sirač,17.257,45.526,55
24,Bačevac,17.479,45.861,20
28,Donji Bitelić,16.619,43.819,28
28,Novi Varoš,17.214,45.195,28
24,Borova,17.461,45.785,20
28,Markovac,17.284,45.583,28
46,Klis,16.523,43.561,20
94,Gornji Bitelić,16.64,43.803,39
79,Suhopolje,17.496,45.803,66
39,Rumin,16.642,43.777,20
28,Skenderovci,17.209,45.397,28
112,Pivare,17.257,45.197,39
39,Lađevac,17.162,45.281,24
24,Dragalić,17.289,45.246,24
24,Karakašica,16.643,43.729,20
397,Sinj,16.638,43.704,160
55,Šeovica,17.217,45.409,24
94,Lukač,17.412,45.875,33
46,Trnava Cabunska,17.532,45.742,46
24,Vladimirovac,17.587,45.856,24
24,Mali Bastaji,17.32,45.65,24
46,Bijela Stijena,17.193,45.343,28
28,Veliki Miletinac,17.334,45.681,28
24,Donje Sitno,16.596,43.507,24
28,Vrbovljani,17.156,45.25,28
33,Gornji Muć,16.484,43.691,33
28,Podselje,16.195,43.046,20
55,Cernik,17.382,45.283,20
28,Golobrdac,17.427,45.37,28
39,Popovac,17.557,45.65,24
24,Kometnik-Jorgići,17.567,45.613,20
33,Kaštel Sućurac,16.427,43.547,24
24,Kamenski Vučjak,17.531,45.488,24
33,Dijakovac,17.351,45.701,33
33,Veliki Bročanac,16.454,43.604,33
94,Dabar,16.555,43.832,55
94,Golenić,17.636,45.663,33
28,Deževci,17.519,45.372,28
46,Gornji Vrhovci,17.569,45.474,46
55,Stomorska,16.353,43.369,39
24,Gornji Dolac,16.732,43.496,24
33,Bakić,17.693,45.742,33
66,Gornje Bazje,17.442,45.906,28
24,Zrinj Lukački,17.457,45.94,24
39,Gornji Meljani,17.658,45.577,39
55,Nova Šarovka,17.749,45.757,39
33,Podašpilje,16.756,43.432,33
55,Starci,17.55,45.254,20
55,Potravlje,16.549,43.791,39
276,Davor,17.516,45.111,112
28,Pitve,16.668,43.15,20
134,Benkovac,17.202,45.307,112
55,Podstražje,16.212,43.031,24
46,Prugovo,16.482,43.633,46
55,Rezovačke Krčevine,17.402,45.783,39
46,Rezovac,17.412,45.805,20
33,"Žižići
Žižići",16.458,43.573,24
55,Dragović,17.275,45.47,46
192,Požega,17.677,45.331,192
134,Mikleuš,17.801,45.617,66
24,Alaginci,17.699,45.362,24
24,Taborište,17.423,45.822,24
79,Donji Borki,17.318,45.567,39
79,Povlja,16.837,43.334,28
39,Vasine Laze,17.72,45.307,24
66,Tekić,17.754,45.385,24
79,Jakšić,17.761,45.352,46
39,Brezovljani Vojlovički,17.88,45.635,28
66,Vetovo,17.791,45.417,39
46,Koreničani,17.361,45.651,39
66,Zelovo,16.549,43.752,39
94,Lipovac,17.271,45.432,46
33,Hrnjevac,17.829,45.425,33
55,Krčenik,17.968,45.753,28
5079,Split,16.447,43.516,1702
55,Studenci,17.03,43.53,33
24,Dugo Selo Lukačko,17.457,45.874,24
33,Duga Međa,17.931,45.568,20
28,Neorić,16.523,43.674,28
33,Karlovac Feričanački,17.962,45.55,20
33,Kula,17.897,45.382,24
28,Veliko Brdo,17.02,43.319,20
39,Veliko Polje,17.487,45.927,39
24,Dobrinče,17.083,43.423,24
33,Beljevina,18.013,45.563,20
39,Dubovac,17.205,45.24,20
33,Gornji Grahovljani,17.309,45.487,33
134,Smokvica,16.894,42.929,134
46,Tučepi,17.06,43.263,24
39,Donja Motičina,18.019,45.495,39
134,Jasenaš,17.421,45.752,46
39,Donje Cjepidlake,17.396,45.687,24
28,Satrić,16.58,43.775,24
24,Vranjic,16.472,43.531,20
55,Slobodnica,17.93,45.16,20
79,Gornji Slatinik,17.975,45.262,28
28,Klokočevci,18.103,45.569,28
230,Podbablje Gornje,17.177,43.393,94
28,Kamenmost,17.193,43.43,20
55,Skrivena Luka,16.887,42.737,55
28,Glavina Gornja,17.214,43.463,20
28,Dobra Voda,18.048,45.389,28
46,Rakitovica,18.192,45.716,33
24,Podosoje,17.204,43.379,20
28,Donja Šumetlica,17.309,45.46,28
33,Beničanci,18.178,45.639,20
134,Podcrkavlje,18.008,45.224,46
94,Removac,17.413,45.71,33
33,Širinci,17.252,45.321,28
24,Dobrogošće,18.07,45.332,24
33,Novi Zdenkovac,18.088,45.373,33
24,Živogošće,17.163,43.185,24
28,Podvinje,18.028,45.19,24
39,Čenkovo,18.106,45.338,39
55,Imrijevci,18.097,45.31,46
55,Solin,16.49,43.542,24
24,Ježevik,18.075,45.212,20
39,Lipovac,17.474,45.837,20
66,Gornji Bogićevci,17.235,45.258,66
66,Marijanci,18.293,45.667,66
134,Korčula,17.137,42.956,134
28,Ordanja,18.281,45.532,20
24,Katinac,17.405,45.654,20
66,Ravča,17.303,43.209,39
28,Gornja Šumetlica,17.316,45.434,28
24,Žlebina,17.51,45.9,24
24,Bistrinci,18.397,45.695,20
33,Gornji Borki,17.373,45.564,33
24,Smrtić,17.254,45.276,20
28,Velika Babina Gora,17.441,45.723,28
33,Mala Trapinska,17.46,45.749,33
39,Lučane,16.596,43.721,24
24,Žuberkovac,17.281,45.313,24
24,Kričke,17.336,45.445,24
39,Koprivno,16.549,43.604,28
112,Hrvace,16.618,43.759,46
134,Đulovac,17.433,45.665,112
28,Mravince,16.518,43.532,20
79,Gradina,17.511,45.854,66
24,Kravljak,17.449,45.692,24
24,Kamen,16.515,43.514,20
39,Donji Bogićevci,17.258,45.228,20
55,Rušani,17.532,45.886,28
28,Radošić,16.603,43.697,20
24,Dvorska,17.474,45.737,24
55,Novi Gradac,17.551,45.918,55
28,Stobreč,16.522,43.501,20
134,Kraj,16.585,43.637,55
46,Mala Klisa,17.469,45.705,33
134,Stara Gradiška,17.238,45.148,94
397,Milna,16.449,43.33,134
46,Pčelić,17.506,45.775,24
112,Sutivan,16.484,43.383,79
39,Osoje,16.589,43.619,20
160,Ožegovci,17.387,45.474,79
33,Bobovišća,16.475,43.345,20
79,Rogulje,17.379,45.439,79
24,Prisoje,16.607,43.631,20
28,Bajagić,16.664,43.761,28
94,Dugopolje,16.595,43.58,55
112,Podstrana,16.554,43.485,66
39,Mašić,17.327,45.266,20
46,Detkovac,17.588,45.891,39
39,Naudovac,17.553,45.801,33
28,Žubrica,17.542,45.765,28
55,Brnaze,16.655,43.678,20
33,Mirca,16.521,43.377,20
33,Glavice,16.668,43.706,20
28,Prgomelje,17.417,45.446,28
33,Koturić,17.434,45.483,33
28,Obrovac Sinjski,16.688,43.737,28
66,Lisičine,17.51,45.657,28
46,Giletinci,17.366,45.308,20
331,Hvar,16.441,43.173,230
55,Gaćište,17.586,45.826,46
39,Ercegovci,16.637,43.596,24
28,Jugovo Polje,17.57,45.779,28
46,Visoka Greda,17.333,45.205,33
24,Orešac,17.586,45.814,24
79,Gornje Sitno,16.609,43.518,28
24,Krušvar,16.65,43.607,24
33,Srinjine,16.603,43.493,28
66,Supetar,16.556,43.385,66
39,Cabuna,17.575,45.76,39
33,Prvča,17.362,45.244,20
55,Turjaci,16.674,43.646,33
39,Mačkovac,17.553,45.7,39
24,Šumetlica,17.395,45.318,24
24,Gala,16.712,43.724,24
28,Žiroslavlje,17.596,45.79,28
331,Nova Gradiška,17.378,45.259,331
46,Mačkovac,17.334,45.151,46
55,Brusje,16.488,43.19,28
46,Kotlenice,16.655,43.563,39
79,Budakovac,17.633,45.851,66
160,Novo Zvečevo,17.513,45.544,66
94,Voćin,17.546,45.62,79
33,Ljupina,17.379,45.219,24
55,Milna,16.487,43.163,28
24,Košute,16.701,43.631,20
66,Kamenska,17.48,45.444,66
24,Opatovac,17.433,45.33,24
33,Bisko,16.683,43.58,33
79,Višnjica,17.622,45.774,55
112,Otok,16.734,43.686,55
94,Nerežišća,16.576,43.331,94
55,Baćin Dol,17.431,45.305,24
94,Gljev,16.763,43.732,39
24,Sičice,17.389,45.184,20
39,Donji Dolac,16.681,43.542,39
55,Tugare,16.651,43.473,24
46,Donje Kusonje,17.606,45.704,46
24,Rešetari,17.423,45.262,24
46,Dugi Rat,16.64,43.445,33
79,Jeminovac,17.47,45.369,79
24,Španat,17.633,45.762,24
46,Škrip,16.603,43.354,20
24,Amatovci,17.508,45.454,24
33,Velo Grablje,16.524,43.172,33
33,Zaraće,16.516,43.153,33
39,Udovičić,16.745,43.666,20
46,Donji Meljani,17.627,45.73,39
33,Koprivna,17.484,45.385,33
24,Orljavac,17.496,45.413,24
160,Trilj,16.727,43.617,66
66,Banićevac,17.467,45.336,46
39,Dolina,17.385,45.139,39
28,Vaška,17.666,45.815,28
24,Vranić,17.509,45.425,24
160,Postira,16.63,43.374,55
24,Kujnik,17.504,45.401,24
39,Čaporice,16.73,43.596,20
24,Kruševo,17.537,45.474,24
112,Vrbje,17.418,45.188,55
28,Gornji Miholjac,17.659,45.761,28
39,Jabuka,16.756,43.635,20
55,Murvica,16.593,43.267,39
33,Lukavac,17.633,45.686,33
24,Putišići,16.701,43.506,24
24,Podsreće,17.526,45.411,24
46,Adžamovci,17.461,45.252,24
46,Gunjavci,17.47,45.272,24
39,Kapinci,17.693,45.81,28
28,Ruda,16.785,43.673,28
66,Sekulinci,17.605,45.588,39
24,Bodovaljci,17.443,45.197,20
28,Markovac,17.542,45.427,28
39,Sloboština,17.528,45.395,39
46,Zapolje,17.46,45.23,24
24,Selca kod Starog Grada,16.566,43.166,24
46,Macute,17.625,45.622,46
46,Josipovo,17.688,45.775,28
46,Gata,16.702,43.465,20
24,Smude,17.622,45.609,24
24,Strmendolac,16.762,43.596,24
276,Omiš,16.697,43.442,160
55,Podi,16.792,43.655,33
94,Rudina,16.593,43.201,55
55,Srijane,16.733,43.514,55
24,Ugljane,16.761,43.572,24
55,Smoljanovci,17.562,45.439,55
33,Nova Sela,16.752,43.539,33
24,Žigerovci,17.549,45.374,24
79,Velić,16.799,43.62,39
46,Donji Crnogovci,17.483,45.206,20
28,Poljanska,17.585,45.451,28
66,Orubica,17.462,45.148,28
55,Sveta Nedjelja,16.592,43.138,55
230,Slatina,17.695,45.701,230
33,Krivodol,16.819,43.642,33
24,Bokane,17.664,45.621,24
230,Sopje,17.74,45.805,79
33,Oljasi,17.58,45.409,33
39,Vinine,16.791,43.569,39
192,Bol,16.655,43.262,160
24,Čačvina,16.808,43.604,24
28,Grabić,17.728,45.746,28
66,Rože,16.844,43.662,66
66,Pražnica,16.696,43.321,24
55,Rijenci,17.678,45.608,55
79,Staro Petrovo Selo,17.521,45.229,79
46,Skenderovci,17.575,45.355,20
55,Čelina,16.74,43.412,28
134,Nova Sela,16.796,43.524,66
79,Zvečanje,16.765,43.453,39
39,Trnbusi,16.784,43.496,39
28,Vrbanj,16.642,43.166,28
24,Ugarci,17.598,45.376,24
46,Strizirep,16.836,43.591,46
79,Pučišća,16.73,43.349,79
66,Biorine,16.828,43.552,66
24,Ivan Dolac,16.641,43.131,24
24,Gornje Predrijevo,17.785,45.791,24
39,Antunovac,17.63,45.414,33
55,Brestovac,17.596,45.33,46
39,Vrboska,16.668,43.184,20
46,Gornji Humac,16.72,43.297,33
28,Novi Senkovac,17.769,45.743,28
24,Kozice,17.746,45.679,20
134,Štivica,17.541,45.181,39
28,Kunovci,17.625,45.376,28
276,Velika,17.664,45.452,94
39,Slatinski Drenovac,17.71,45.552,39
33,Emovački Lug,17.627,45.352,20
39,Seoca,16.816,43.461,39
24,Blažević Dol,17.582,45.236,24
331,Voštane,16.901,43.649,94
46,Blato na Cetini,16.831,43.486,46
33,Kučiće,16.809,43.433,33
66,Nova Bukovica,17.766,45.665,46
33,Prekoračani,17.728,45.571,33
276,Jelsa,16.692,43.161,192
24,Završje,17.629,45.328,20
28,Cista Velika,16.862,43.539,28
28,Vrbova,17.583,45.215,28
24,Trenkovo,17.665,45.402,24
24,Novi Štitnjak,17.651,45.365,24
112,Mimice,16.812,43.406,55
28,Četekovac,17.757,45.611,24
79,Zavala,16.688,43.125,28
24,Gornje Viljevo,17.795,45.696,24
24,Starin,17.817,45.747,24
66,Noskovačka Dubrava,17.831,45.777,24
28,Škrabutnik,17.625,45.278,28
24,Kostanje,16.835,43.44,24
112,Tijarica,16.904,43.592,66
39,Novi Mihaljevci,17.676,45.39,39
24,Mihaljevci,17.676,45.378,24
33,Krasković,17.762,45.583,28
24,Bili Brig,17.613,45.211,20
39,Antunovac,17.792,45.636,20
66,Crkveni Vrhovci,17.65,45.289,33
24,Kreševo,16.877,43.488,24
55,Magić Mala,17.607,45.174,20
39,Donja Bukovica,17.818,45.682,28
66,Dobranje,16.914,43.559,39
55,Kaptol,17.723,45.432,55
33,Podgrađe,16.866,43.435,24
66,Čađavica,17.859,45.744,66
46,Pisak,16.859,43.4,39
24,Donje Bazije,17.845,45.705,24
24,Šeovci,17.713,45.375,24
39,Gornji Lipovac,17.663,45.255,39
55,Nova Kapela,17.64,45.197,55
33,Doljanovci,17.746,45.446,20
55,Donji Lipovac,17.653,45.222,20
66,Humac,16.758,43.142,39
112,Krajna,17.803,45.561,39
46,Humljani,17.812,45.582,28
24,Seoce,17.645,45.174,20
39,Zvonimirovac,17.871,45.714,24
55,Katuni,16.923,43.481,20
24,Eminovci,17.727,45.354,20
192,Šestanovac,16.912,43.454,112
28,Ilmin Dvor,17.899,45.764,20
39,Svib,16.963,43.553,39
66,Potirna,16.688,42.933,24
160,Selca,16.851,43.297,94
79,Gornja Brela,16.908,43.416,33
55,Cista Provo,16.949,43.505,55
33,Martinci Miholjački,17.918,45.776,28
28,Bjelkovac,17.874,45.665,28
33,Poljica,16.794,43.149,33
39,Dervišaga,17.737,45.329,20
986,Vela Luka,16.718,42.96,276
24,Dragovci,17.7,45.216,24
39,Živike,17.675,45.15,33
79,Aržano,17.003,43.58,66
33,Bukvik,17.853,45.571,24
24,Sumartin,16.874,43.287,20
24,Pričac,17.677,45.139,24
33,Ovčare,17.787,45.397,33
33,Brela,16.921,43.375,33
66,Čačinci,17.873,45.6,66
33,Ciglenik,17.706,45.183,28
24,Rajino Polje,17.899,45.646,24
46,Požeška Koprivnica,17.738,45.255,33
46,Lužani,17.701,45.167,33
24,Radnovac,17.783,45.362,20
24,Viškovci,17.768,45.322,24
28,Lovreć,16.985,43.49,28
33,Krivaja Pustara,17.921,45.667,24
39,Duzluk,17.864,45.515,20
192,Crnac,17.938,45.693,112
160,Zastražišće,16.845,43.142,94
33,Žabnjača,17.947,45.708,20
46,Brodski Drenovac,17.75,45.222,39
66,Moslavina Podravska,17.983,45.786,66
112,Baška Voda,16.949,43.358,46
39,Vesela,17.788,45.307,20
66,Orahovica,17.882,45.532,66
28,Sulkovci,17.774,45.266,20
24,Šumanovci,17.826,45.372,24
112,Pleternica,17.801,45.288,79
28,Bučje,17.779,45.233,28
94,Bjeliševac,17.844,45.381,39
192,Oriovac,17.756,45.166,134
33,Obradovci,17.943,45.615,24
55,Blato,16.792,42.938,55
66,Sesvete,17.833,45.34,39
24,Bast,16.985,43.355,20
24,Slavonske Bare,17.947,45.603,20
28,Ašikovci,17.835,45.326,28
46,Slavonski Kobaš,17.744,45.106,46
24,Veliki Rastovac,17.974,45.658,24
33,Breštanovci,17.987,45.676,28
94,Kutjevo,17.884,45.426,94
55,Krvavica,16.986,43.327,24
24,Zagrađe,17.811,45.244,20
160,Zdenci,17.952,45.583,94
79,Staro Petrovo Polje,17.978,45.646,33
33,Frkljevci,17.82,45.262,20
33,Crkvari,17.929,45.52,24
28,Šumeđe,17.925,45.506,28
28,Lovčić,17.801,45.203,28
28,Dolića Draga,17.07,43.49,20
46,Medovdolac,17.051,43.444,24
55,Ričice,17.102,43.517,39
28,Gazije,17.945,45.491,28
94,Bilice,17.841,45.237,94
46,Brodski Stupnik,17.812,45.167,46
94,Zagvozd,17.056,43.397,79
66,Gdinj,16.942,43.132,66
46,Ciglenik,17.9,45.354,39
55,Viljevo,18.064,45.751,55
112,Lokvičići,17.092,43.463,112
55,Kalinić,17.883,45.306,46
79,Feričanci,17.976,45.524,66
571,Makarska,17.021,43.295,331
39,Tulnik,17.894,45.324,39
33,Valenovac,17.969,45.503,20
55,Zokov Gaj,18.013,45.606,33
39,Stupnički Kuti,17.821,45.121,20
46,Vrčin Dol,17.88,45.258,20
55,Postranje,17.122,43.488,20
55,Gradište,17.945,45.4,55
33,Jakačina Mala,17.875,45.224,20
24,Nova Lipovica,17.933,45.362,24
28,Grgurevići,17.883,45.237,24
28,Blanje,18.082,45.716,28
33,Bokšić,18.032,45.588,33
28,Veliki Bilač,17.927,45.327,28
134,Bebrina,17.833,45.098,94
46,Poljica,17.114,43.42,33
397,Pasadur,16.823,42.766,134
28,Vučjak Feričanački,18.017,45.529,20
33,Krivodol,17.128,43.444,20
24,Vukojevica,17.96,45.384,20
33,Bokšić Lug,18.061,45.62,33
39,Ivanovo,18.106,45.728,24
55,Bogomolje,16.998,43.131,55
24,Latinovac,17.955,45.347,20
46,Ubli,16.828,42.744,46
28,Donji Proložac,17.156,43.464,28
28,Šaptinovci,18.06,45.579,28
24,Djedina Rijeka,17.949,45.309,24
28,Milanlug,17.977,45.366,20
55,Sibinj,17.908,45.188,55
28,Čara,16.933,42.936,24
46,Krunoslavje,18.119,45.689,39
33,Ivanbegovina,17.152,43.417,20
28,Grubine,17.16,43.43,28
112,Podgora,17.077,43.237,46
24,Gornji Proložac,17.185,43.477,20
39,Jurkovac,17.998,45.38,24
331,Čaglin,17.989,45.351,112
28,Teodorovac,18.077,45.558,20
134,Donji Miholjac,18.161,45.761,134
46,Šumeće,17.877,45.071,28
79,Župa Srednja,17.139,43.354,33
24,Brezik Našički,18.062,45.513,20
66,Gradac Našički,18.036,45.438,46
33,Zoljan,18.06,45.476,20
24,Martin,18.067,45.492,20
55,Župa,17.139,43.321,55
33,Migalovci,18.003,45.333,20
24,Darkovac,18.017,45.366,20
39,Kućanci,18.136,45.654,28
66,Lastovo,16.895,42.772,66
79,Ruševo,17.995,45.31,33
24,Glogovica,17.975,45.232,20
24,Londžica,18.055,45.425,24
33,Drašnice,17.11,43.218,20
46,Selca kod Bogomolja,17.068,43.123,46
28,Golinci,18.166,45.69,24
94,Imotski,17.216,43.448,94
24,Rašćane Gornje,17.168,43.338,24
39,Velimirovac,18.103,45.524,28
28,Lila,18.119,45.554,28
331,Našice,18.093,45.491,331
66,Gornji Vinjani,17.236,43.48,28
112,Lovište,17.033,43.022,66
24,Kneževac,18.039,45.347,24
33,Zmijavci,17.212,43.406,33
94,Račišće,17.021,42.976,66
28,Brodski Varoš,17.976,45.181,24
134,Lipine,18.144,45.579,55
33,Malinovac,18.164,45.626,28
55,Sibokovac,18.055,45.361,39
24,Crna Klada,18.086,45.426,24
24,Miholjački Poreč,18.198,45.698,24
28,Ceremošnjak,18.094,45.445,28
134,Magadenovac,18.187,45.661,79
28,Markovac Našički,18.124,45.496,20
79,Igrane,17.139,43.196,39
66,Gornje Igrane,17.157,43.236,46
33,Makloševac,18.116,45.472,20
66,Rašćane,17.186,43.298,55
46,Pupnat,17.037,42.95,46
28,Runović,17.233,43.389,28
24,Donji Vinjani,17.26,43.45,24
28,Oriovčić,18.032,45.252,24
46,Slivno,17.217,43.341,39
66,Polubaše,18.099,45.399,55
33,Jelisavac,18.155,45.525,33
46,Paka,18.059,45.29,46
28,Rastušje,18.034,45.207,20
28,Kindrovo,18.047,45.235,20
986,Slavonski Brod,18.019,45.162,397
24,Lacići,18.215,45.636,20
39,Nakovanj,17.086,43,33
39,Čamagajevci,18.25,45.689,24
55,Podgajci Podravski,18.268,45.731,55
24,Viganj,17.099,42.984,24
24,Breznica Našička,18.195,45.533,24
39,Bočkinci,18.271,45.712,33
28,Kršinci,18.167,45.449,28
55,Borojevci,18.1,45.285,46
28,Stipanovci,18.181,45.473,24
55,Crni Potok,18.088,45.244,46
55,Bukovlje,18.067,45.185,24
28,Paučje,18.141,45.36,28
55,Duge Njive,17.219,43.206,55
230,Sućuraj,17.184,43.126,134
192,Poljica Kozička,17.262,43.297,66
46,Kučišta,17.122,42.979,20
24,Korduševci,18.091,45.223,24
24,Žrnovo,17.111,42.948,20
24,Gornja Vrba,18.067,45.156,24
46,Dragljane,17.24,43.232,46
55,Niza,18.234,45.543,28
28,Slobodna Vlast,18.137,45.303,24
55,Šušnjevci,18.104,45.21,24
55,Ostrošinci,18.2,45.433,20
28,Breznica Đakovačka,18.164,45.33,20
55,Duba Pelješka,17.169,43.018,33
39,Podgorje Bračevačko,18.199,45.415,33
79,Borovik,18.194,45.394,55
112,Podgorač,18.222,45.456,79
66,Marjanski Ivanovci,18.29,45.619,39
39,Gat,18.326,45.706,33
33,Zavojane,17.278,43.246,33
28,Donja Vrba,18.109,45.165,24
28,Drvenik,17.247,43.157,28
24,Musić,18.167,45.289,20
112,Levanjska Varoš,18.18,45.315,112
94,Torjanci,18.365,45.758,55
66,Stilja,17.305,43.264,46
39,Tiborjanci,18.338,45.683,24
33,Andrijevac,18.269,45.511,28
46,Orebić,17.181,42.975,46
28,Klokočevik,18.149,45.22,28
160,Koška,18.286,45.545,94
28,Gornja Bebrina,18.108,45.114,20
33,Bijela Loza,18.265,45.478,24
33,Mijaca,17.327,43.28,33
28,Bučje Gorjansko,18.244,45.426,24
24,Stanković,17.197,42.987,20
28,Hrkanovci Đakovački,18.182,45.266,28
46,Višnjica,17.291,43.188,46
66,Lumbarda,17.173,42.922,66
28,Slatinik Drenjski,18.24,45.397,24
66,Zaostrog,17.279,43.141,39
24,Donja Vrućica,17.221,43.008,24
24,Gorica Valpovačka,18.351,45.647,24
24,Selna,18.163,45.185,20
46,Zadubravlje,18.154,45.163,20
33,Vinogradci,18.363,45.666,20
55,Harkanovci,18.333,45.59,39
112,Klakar,18.134,45.098,66
46,Prapatnice,17.346,43.23,20
79,Garčin,18.186,45.182,79
66,Lug Subotički,18.321,45.509,28
66,Trnjanski Kuti,18.163,45.126,24
24,Novo Nevesinje,18.415,45.734,24
28,Gornja Vrućica,17.267,42.994,20
24,Lapovci,18.225,45.25,20
79,Drenje,18.282,45.38,79
33,Paljevina,18.285,45.408,24
33,Majar,18.239,45.293,28
46,Kondrić,18.28,45.288,24
39,Kućanci Đakovački,18.325,45.376,24
66,Vera,18.892,45.459,33
28,Staro Topolje,18.249,45.18,24
66,Umčani,17.387,43.166,33
66,Rajevo Selo,18.777,44.924,28
33,Svetoblažje,18.295,45.267,24
230,Belišće,18.404,45.684,160
33,Apševci,19.074,45.072,33
55,Luč,18.536,45.785,20
55,Petlovac,18.527,45.759,46
28,Ivanovci,18.38,45.621,28
33,Sredanci,18.287,45.154,28
79,Čokadinci,18.442,45.501,46
24,Satnica,18.49,45.615,20
24,Jurjevac Punitovački,18.447,45.435,20
160,Trpanj,17.267,43.008,94
39,Grabik,18.495,45.517,39
192,Beli Manastir,18.606,45.767,160
39,Marjančaci,18.393,45.633,24
192,Pomena,17.344,42.787,112
79,Budimci,18.323,45.461,46
24,Mala Kopanica,18.369,45.147,20
39,Viškovci,18.459,45.345,28
28,Popova Luka,17.429,42.912,20
24,Brist,17.323,43.119,20
33,Pržinovac,17.482,43.009,33
46,Hrastovac,18.529,45.443,20
24,Sapci,18.211,45.179,20
28,Novi Čeminac,18.641,45.676,20
39,Jaruge,18.419,45.116,28
112,Vladislavci,18.572,45.461,46
79,Vrgorac,17.369,43.205,79
79,Opuzen,17.565,43.018,46
46,Valpovo,18.416,45.659,46
55,Darda,18.688,45.628,55
55,Topoline,18.377,45.562,46
571,Draž,18.787,45.844,94
46,Donja Bebrina,18.186,45.095,28
112,Trnava,18.255,45.259,79
55,Brijest,18.674,45.522,28
24,Zavala,17.584,42.95,24
94,Zmajevac,18.808,45.8,33
33,Novo Topolje,18.239,45.207,28
24,Laslovo,18.696,45.415,24
79,Ivankovo,18.688,45.289,79
94,Gradac,17.342,43.106,55
55,Novi Bezdan,18.465,45.738,33
134,Andrijaševci,18.737,45.225,46
46,Ostrovo,18.79,45.339,24
331,Županja,18.696,45.072,331
28,Preslatinci,18.319,45.36,24
39,Pačetin,18.851,45.376,33
46,Oprisavci,18.234,45.15,46
46,Gašinci,18.311,45.336,33
112,Saplunara,17.737,42.701,79
46,Podobuče,17.288,42.948,46
39,Lipovača,18.904,45.388,24
55,Privlaka,18.838,45.194,55
79,Donja Banda,17.3,42.97,28
39,Orah,17.42,43.215,28
134,Negoslavci,18.997,45.279,55
55,Ladimirevci,18.45,45.625,24
33,Krndija,18.381,45.451,20
33,Podprolog,17.417,43.194,28
33,Poganovci,18.399,45.487,33
24,Vinkovački Banovci,19.045,45.18,24
66,Podgrađe,19.034,45.105,28
55,Soljani,18.974,44.951,28
33,Šag,18.467,45.639,33
55,Lovas,19.17,45.224,55
160,Gorjani,18.375,45.399,66
66,Nard,18.484,45.663,33
192,Bizovac,18.457,45.592,55
39,Mohovo,19.218,45.249,24
55,Donji Andrijevci,18.293,45.19,55
33,Veliki Prolog,17.432,43.177,20
46,Baćina,17.389,43.081,28
55,Novaki Bizovački,18.45,45.564,24
33,Selci Đakovački,18.346,45.309,33
94,Bapska,19.262,45.198,55
79,Satnica Đakovačka,18.369,45.354,28
28,Kuna Pelješka,17.346,42.968,28
28,Potomje,17.335,42.941,28
46,Brođanci,18.449,45.542,39
39,Staševica,17.425,43.139,20
79,Punitovci,18.41,45.434,79
24,Josipovac Punitovački,18.412,45.421,20
46,Novi Bolman,18.537,45.724,24
28,Novi Perkovci,18.347,45.252,28
55,Svilaj,18.295,45.124,39
24,Širine,18.56,45.767,20
24,Stružani,18.306,45.14,24
192,Otrić-Seoci,17.458,43.159,79
33,Tomašanci,18.414,45.386,24
33,Samatovci,18.501,45.592,24
28,Stari Perkovci,18.349,45.22,28
33,Ivanovci Gorjanski,18.411,45.366,24
39,Pijavičino,17.37,42.94,39
33,Sudaraž,18.571,45.749,20
46,Peračko Blato,17.437,43.077,20
33,Šećerana,18.591,45.785,20
230,Ploče,17.433,43.057,230
28,Čajkovci,18.355,45.195,28
24,Kuševac,18.42,45.35,24
24,Kupina,18.339,45.137,24
39,Osobjava,17.399,42.956,24
24,Mali Prolog,17.484,43.146,20
66,Petrijevci,18.537,45.616,46
46,Kobiljača,17.481,43.134,20
28,Selci,18.512,45.552,28
397,Đakovo,18.415,45.314,230
66,Jagodnjak,18.577,45.7,55
33,Beketinci,18.479,45.456,20
39,Piškorevci,18.398,45.255,33
46,Kneževo,18.643,45.846,33
46,Široko Polje,18.466,45.405,28
94,Novi Grad,18.357,45.109,39
55,Vrpolje,18.406,45.21,55
46,Rogotin,17.476,43.045,28
24,Vuka,18.506,45.436,24
160,Janjina,17.43,42.925,112
79,Duboševica,18.69,45.888,55
33,Sreser,17.441,42.948,20
160,Velika Kopanica,18.395,45.156,134
79,Popovac,18.664,45.804,33
33,Polače,17.378,42.785,33
24,Josipovac,18.585,45.578,20
28,Forkuševci,18.497,45.35,20
94,Čepin,18.569,45.522,55
46,Branjina,18.693,45.824,20
28,Vučevci,18.496,45.329,24
160,Strizivojna,18.459,45.232,66
33,Lipovac Hrastinski,18.538,45.418,20
55,Žuljana,17.455,42.891,24
24,Dopsin,18.559,45.451,20
28,Kremeno,17.5,42.973,24
39,Karanac,18.686,45.756,28
33,Desne,17.54,43.059,33
46,Komin,17.533,43.043,20
94,Nova Sela,17.56,43.101,55
39,Topolje,18.733,45.866,33
66,Kozarac,18.676,45.72,28
79,Đurđanci,18.502,45.292,33
55,Tuštevac,17.512,42.986,24
39,Višnjevac,18.617,45.567,33
160,Čeminac,18.67,45.687,66
28,Kamenac,18.706,45.768,20
39,Buk-Vlaka,17.531,43.002,20
28,Podolje,18.728,45.816,28
39,Livana,18.611,45.53,24
94,Semeljci,18.542,45.361,66
46,Koritna,18.561,45.388,24
39,Švajcarnica,18.68,45.649,20
55,Kotlina,18.738,45.789,33
24,Hrastin,18.597,45.434,20
24,Komarna,17.533,42.945,20
46,Sikirevci,18.466,45.11,46
46,Gundinci,18.489,45.161,46
94,Slivno Ravno,17.541,42.956,79
79,Kozarica,17.463,42.776,55
66,Kneževi Vinogradi,18.735,45.751,66
39,Podrujnica,17.592,43.06,24
39,Mitrovac,18.722,45.71,28
46,Ropa,17.46,42.753,46
39,Vrbica,18.559,45.305,20
39,Prud,17.618,43.095,33
112,Tomislavovac,17.517,42.868,55
24,Paulin Dvor,18.622,45.443,20
79,Brijesta,17.536,42.906,39
24,Stari Mikanovci,18.56,45.286,24
2450,Osijek,18.676,45.56,1419
28,Kruševica,18.481,45.079,20
33,Kula Norinska,17.604,43.03,24
28,Vid,17.626,43.08,24
33,Suza,18.775,45.782,28
112,Šodolovci,18.62,45.399,79
66,Mrzović,18.592,45.327,33
24,Mece,18.713,45.623,20
94,Slavonski Šamac,18.49,45.064,94
24,Divoš,18.657,45.463,20
55,Petrova Slatina,18.643,45.424,20
46,Antunovac,18.671,45.489,39
55,Ernestinovo,18.659,45.451,46
66,Mislina,17.606,42.981,28
28,Dančanje,17.565,42.875,28
476,Metković,17.649,43.051,476
66,Babina Greda,18.536,45.117,66
33,Badžula,17.611,42.963,33
28,Mirkovac,18.798,45.736,28
94,Bilje,18.745,45.604,39
66,Vođinci,18.611,45.276,46
28,Dubravica,17.653,43.024,20
79,Bijeli Vir,17.654,43.011,20
33,Vidonje,17.644,42.983,33
55,Vardarac,18.771,45.627,20
66,Prkovci,18.61,45.213,46
230,Babino Polje,17.551,42.736,230
33,Podrinje,18.692,45.392,20
112,Kozjak,18.812,45.676,55
39,Sparagovići,17.611,42.855,39
39,Kopačevo,18.785,45.602,24
112,Tenja,18.745,45.502,46
28,Karadžićevo,18.685,45.334,28
79,Nemetin,18.77,45.54,33
66,Markušica,18.707,45.373,66
28,Podunavlje,18.812,45.63,28
46,Dobranje,17.689,42.986,28
46,Retkovci,18.653,45.233,33
66,Duba Stonska,17.641,42.874,33
24,Metohija,17.633,42.841,24
33,Šiškovci,18.647,45.199,24
28,Tikveš,18.845,45.671,28
28,Sobra,17.599,42.737,28
46,Korođ,18.745,45.408,28
94,Imotica,17.687,42.914,55
39,Gaboš,18.737,45.353,20
24,Česvinica,17.667,42.851,20
66,Jarmina,18.73,45.318,24
39,Silaš,18.775,45.423,39
55,Štitar,18.641,45.096,33
79,Cerna,18.689,45.192,79
55,Prožura,17.641,42.73,55
134,Ćelije,18.805,45.438,46
28,Sarvaš,18.842,45.525,28
397,Ston,17.697,42.838,160
79,Klisa,18.832,45.476,46
160,Tordinci,18.795,45.37,66
46,Ošlje,17.735,42.889,46
160,Gradište,18.707,45.149,66
24,Okuklje,17.668,42.727,24
28,Maranovići,17.668,42.715,28
55,Ludvinci,18.825,45.403,28
112,Bijelo Brdo,18.873,45.518,66
331,Vinkovci,18.801,45.291,192
39,Bobota,18.856,45.422,24
66,Zaton Doli,17.758,42.827,39
66,Nuštar,18.842,45.332,33
94,Visočani,17.787,42.857,55
66,Trpinja,18.899,45.419,46
39,Cerić,18.857,45.311,20
46,Aljmaš,18.948,45.528,46
46,Bošnjaci,18.753,45.05,33
39,Mirkovci,18.851,45.271,28
79,Trnovica,17.839,42.89,79
39,Čepikuće,17.837,42.856,39
24,Marinci,18.9,45.34,20
46,Bršadin,18.911,45.362,20
28,Podgora,17.845,42.84,28
66,Dalj,18.987,45.485,39
46,Bogdanovci,18.93,45.338,39
55,Mravnica,17.856,42.818,24
55,Stari Jankovci,18.91,45.261,55
28,Kručica,17.855,42.789,20
112,Borovo,18.977,45.401,112
134,Otok,18.883,45.147,94
39,Petrovci,18.946,45.288,24
112,Srijemske Laze,18.932,45.23,24
46,Šipanska Luka,17.862,42.73,46
79,Slano,17.89,42.787,79
331,Erdut,19.062,45.525,230
39,Posavski Podgajci,18.831,44.947,39
160,Vukovar,18.999,45.348,160
28,Svinjarevci,18.966,45.251,24
79,Gunja,18.825,44.886,79
28,Majkovi,17.918,42.773,20
55,Komletinci,18.949,45.15,39
33,Suđurađ,17.907,42.711,28
28,Orolik,18.985,45.215,28
33,Berak,19.003,45.231,33
160,Dubravica,17.94,42.745,94
24,Brsečine,17.958,42.729,20
192,Vrbanja,18.928,44.982,134
79,Đeletovci,19.012,45.182,33
134,Drenovci,18.909,44.92,134
39,Grabovo,19.06,45.276,33
28,Čakovci,19.059,45.236,20
55,Trsteno,17.979,42.715,24
276,Nijemci,19.032,45.14,134
66,Sotin,19.097,45.295,55
39,Mikluševci,19.084,45.251,20
39,Bokšić,19.075,45.214,20
39,Gromača,18.014,42.729,39
79,Tompojevci,19.091,45.233,79
28,Orašac,18.01,42.703,28
112,Račinovci,18.956,44.863,39
79,Zaton,18.039,42.691,39
160,Lipovac,19.072,45.056,66
55,Osojnik,18.069,42.714,28
112,Opatovac,19.17,45.261,28
33,Lozica,18.069,42.673,20
94,Tovarnik,19.152,45.164,94
112,Strošinci,19.064,44.916,79
1702,Dubrovnik,18.097,42.65,986
55,Nova Mokošica,18.109,42.675,55
46,Donji Brgat,18.169,42.648,20
28,Močići,18.246,42.565,20
79,Srebreno,18.195,42.625,55
276,Mikulići,18.411,42.48,94
112,Cavtat,18.218,42.581,79
685,Ilok,19.379,45.222,397
46,Jasenice,18.271,42.597,46
28,Uskoplje,18.263,42.578,20
24,Brotnice,18.299,42.594,20
24,Čilipi,18.285,42.55,24
33,Šilješki,18.313,42.581,28
28,Drvenik,18.314,42.567,28
55,Duba Konavoska,18.337,42.599,39
79,Komaji,18.309,42.538,46
46,Lovorno,18.361,42.545,46
192,Kuna Konavoska,18.382,42.571,66
66,Gruda,18.374,42.518,66
24,Dunave,18.402,42.54,24
28,Zastolje,18.402,42.527,28
24,Palje Brdo,18.412,42.516,24
24,Pločice,18.413,42.493,24
39,Molunat,18.436,42.453,39
