rs,name,lon,lat,r1
100000,Amsterdam,4.871,52.382,100000
986,Rotterdam,4.497,51.917,331
276,Den Haag,4.327,52.052,112
230,Leiden,4.47,52.17,94
2042,Eindhoven,5.457,51.445,476
160,Haarlem,4.639,52.385,112
230,Almere,5.233,52.373,192
822,Arnhem,5.915,51.968,331
1183,Heerlen,5.983,50.906,476
571,Breda,4.772,51.593,160
33,Amersfoort,5.39,52.174,20
230,'s-Hertogenbosch,5.315,51.711,134
24,Zoetermeer,4.502,52.056,20
134,Spijkenisse,4.357,51.85,79
160,Sittard-Geleen,5.826,50.976,79
33,Alkmaar,4.754,52.643,20
134,Deventer,6.182,52.259,112
276,Beverwijk/Heemskerk,4.67,52.498,66
397,Venlo,6.155,51.364,230
230,Hoorn,5.065,52.654,112
79,Bergen op Zoom,4.284,51.498,79
160,Maassluis,4.245,51.923,46
112,Bussum,5.164,52.281,46
24,Houten,5.173,52.027,20
160,Zutphen,6.211,52.135,94
822,Vlissingen,3.579,51.459,331
66,Huizen,5.254,52.296,46
160,Waalwijk,5.058,51.675,94
160,Kampen,5.914,52.556,94
46,Ridderkerk,4.612,51.877,39
66,De Bilt-Bilthoven,5.194,52.123,28
24,Emmen,6.891,52.768,20
55,Edam-Volendam,5.062,52.501,46
134,Hoogezand,6.762,53.157,94
66,Lisse,4.56,52.255,39
192,Valkenswaard,5.451,51.353,55
112,Veendam,6.869,53.103,46
94,Mijdrecht,4.87,52.204,33
112,Castricum,4.673,52.551,28
24,Heerenveen,5.919,52.958,20
79,Geertruidenberg,4.87,51.7,55
94,Surhuisterveen/Harkema/Opende,6.139,53.187,66
55,Laren,5.244,52.254,33
46,Glanerbrug,6.966,52.214,39
55,Scharwoude,4.808,52.694,24
160,Zuidlaren,6.691,53.078,66
39,Werkendam,4.89,51.811,28
66,Bemmel,5.901,51.893,28
39,Nieuw-Lekkerland,4.682,51.891,20
276,Middelharnis,4.156,51.756,66
112,Gendringen,6.375,51.881,66
134,Heythuysen,5.905,51.25,55
55,Rucphen,4.592,51.547,33
112,Staphorst,6.202,52.639,46
94,Burgum,5.994,53.193,66
55,Buren,5.479,51.957,46
79,Gennep,5.977,51.697,39
276,Woensdrecht,4.321,51.426,55
112,Elburg,5.846,52.447,55
134,Monnickendam,5.038,52.454,39
134,De Westereen,6.056,53.255,46
112,Grave,5.74,51.752,46
66,Bergeijk,5.356,51.319,33
79,Opmeer,4.945,52.707,55
66,Zwanenburg,4.745,52.38,33
112,Panningen,5.988,51.324,46
79,Terborg,6.35,51.926,28
112,Gorredijk,6.072,53.01,66
28,Blankenstein,6.224,52.697,20
66,Borculo,6.519,52.117,46
112,Axel,3.913,51.267,46
112,Born,5.809,51.033,33
192,Spijk,6.124,51.857,66
46,Heeswijk-Dinther,5.479,51.651,24
79,Lith,5.431,51.814,46
33,Dronten (Noord),5.696,52.535,20
66,Mill en Sint Hubert,5.784,51.685,46
79,Zelhem,6.347,52.007,33
112,Olst,6.115,52.338,46
55,Ruurlo,6.455,52.088,33
24,Millingen aan de Rijn,6.054,51.859,24
79,Avenhorn,4.945,52.626,46
79,Bunde,5.731,50.895,33
33,Bloemendaal-Vogelenzang,4.59,52.322,20
39,Hulsen,6.481,52.379,20
28,Oosterhout,5.844,51.877,20
79,Gulpen-Wittem,5.911,50.809,55
94,Nieuwe Niedorp,4.901,52.75,39
79,Sevenum,6.021,51.414,33
28,Herten,5.965,51.18,20
112,Aa en Hunze,6.756,53.009,55
55,Hurdegaryp,5.931,53.216,28
112,Hippolytushoef,4.962,52.907,66
112,Broekhuizenvorst-Broekhuizen-Arcen-Lottum-Lomm,6.17,51.472,55
46,Buitenpost,6.148,53.251,24
33,Haelen,5.964,51.237,28
66,Maasbree,6.05,51.358,24
33,Feanwâlden,5.989,53.234,28
94,Oentsjerk,5.896,53.25,28
33,Retranchement,3.385,51.348,20
94,Cadzand,3.408,51.366,39
39,Domburg,3.498,51.562,28
66,Zoutelande,3.486,51.501,24
66,Westkapelle,3.441,51.529,55
94,Sluis,3.388,51.31,55
79,Roelofarendsveen,4.634,52.207,39
24,Meliskerke,3.51,51.514,20
33,Zuidzande,3.452,51.342,20
33,Aagtekerke,3.51,51.547,20
94,Nieuw Namen,4.161,51.293,55
39,Lutjewinkel,4.886,52.767,20
39,Aalsmeer,4.766,52.261,28
33,Vrouwenpolder,3.617,51.576,20
112,Burgh-Haamstede,3.742,51.696,79
33,Goedereede,3.977,51.819,20
192,Zierikzee,3.913,51.65,112
55,Kats,3.883,51.568,28
160,Oostkapelle,3.553,51.566,55
24,Biggekerke,3.526,51.499,20
46,Oudelande,3.854,51.408,20
112,Rockanje,4.068,51.874,28
46,Ouwerkerk,3.982,51.625,20
33,Hoek van Holland,4.135,51.975,33
24,Dishoek,3.523,51.475,20
24,Biezelinge,3.961,51.474,20
79,Aardenburg,3.442,51.273,33
24,Vierpolders,4.18,51.879,20
46,'s-Gravenhage,4.288,52.073,20
39,Zwartewaal,4.222,51.882,20
24,Walsoorden,4.028,51.383,20
39,Waarde,4.066,51.417,24
55,Eede,3.444,51.246,24
55,Schipluiden,4.315,51.976,24
94,De Koog,4.762,53.099,33
134,Noordwijk,4.447,52.235,39
39,Groede,3.507,51.378,24
28,Noordwijkerhout,4.494,52.258,24
46,'t Horntje,4.785,53.005,20
46,Den Bommel,4.284,51.716,20
55,'t Zand,4.756,52.836,33
33,Koudekerke,3.554,51.482,20
230,Oostburg,3.49,51.327,112
33,Bath,4.211,51.402,20
33,Breezand,4.803,52.888,24
112,Zoetermeer,4.498,52.067,79
46,Velserbroek,4.659,52.434,28
24,Zwaanshoek,4.619,52.312,20
46,Abbenes,4.59,52.234,20
476,Alkmaar,4.75,52.627,160
24,Uitgeest,4.712,52.53,20
24,Rijpwetering,4.584,52.193,24
28,Haarlemmerliede,4.679,52.392,20
39,Vijfhuizen,4.679,52.348,28
33,Zuidschermer,4.779,52.585,20
24,Heerle,4.361,51.519,20
39,Serooskerke,3.595,51.55,20
46,Woubrugge,4.636,52.168,28
66,Ossendrecht,4.329,51.396,24
55,Markenbinnen,4.783,52.53,20
33,Kruisland,4.407,51.569,28
24,Oostknollendam,4.792,52.517,20
79,Nieuwerkerk aan den IJssel,4.606,51.963,24
33,Grootschermer,4.85,52.583,20
24,Hoogwoud,4.933,52.717,20
28,Noordschans,4.525,51.678,20
33,Spierdijk,4.944,52.651,20
55,Hendrik-Ido-Ambacht,4.64,51.845,20
66,Sint Laurens,3.603,51.527,20
39,Purmerland,4.925,52.482,20
39,De Hoef,4.817,52.202,20
94,Purmerend,4.961,52.507,79
33,Sint Kruis,3.501,51.274,28
134,Breskens,3.555,51.394,55
79,Middelburg,3.612,51.496,28
33,Nieuw-Haamstede,3.701,51.711,20
46,Schoondijke,3.556,51.354,28
24,Groot-Abeele,3.606,51.475,20
24,Waterlandkerkje,3.555,51.318,24
39,Westenschouwen,3.708,51.675,20
24,Ritthem,3.624,51.451,24
33,Veere,3.667,51.548,20
28,Nieuw- en Sint Joosland,3.658,51.481,20
39,Arnemuiden,3.674,51.507,33
55,Kamperland,3.705,51.573,46
66,Renesse,3.773,51.732,28
79,IJzendijke,3.616,51.322,66
33,Noordwelle,3.793,51.718,20
24,Wissenkerke,3.746,51.584,20
39,Driewegen,3.649,51.342,20
66,Hoofdplaat,3.662,51.37,39
33,Serooskerke,3.815,51.703,24
33,Scharendijke,3.841,51.737,33
46,Nieuwdorp,3.739,51.469,20
66,Lewedorp,3.751,51.496,28
39,Biervliet,3.684,51.326,33
94,Borssele,3.736,51.423,24
112,Kortgene,3.802,51.558,46
24,'s-Heerenhoek,3.772,51.453,20
79,Colijnsplaat,3.847,51.599,33
160,Ouddorp,3.935,51.81,79
55,Wolphaartsdijk,3.822,51.531,24
79,Brouwershaven,3.911,51.727,66
55,Kerkwerve,3.898,51.685,28
66,Heinkenszand,3.81,51.467,46
24,'s-Heer Arendskerke,3.824,51.492,20
46,Philippine,3.759,51.28,24
55,Ovezande,3.821,51.429,24
66,Hoek,3.779,51.309,33
24,Noordgouwe,3.939,51.694,20
33,Ellewoutsdijk,3.816,51.389,20
33,Zonnemaire,3.949,51.712,20
28,Nisse,3.852,51.455,20
24,Havenhoofd,4.006,51.831,20
33,Wilhelminadorp,3.894,51.53,20
192,Goes,3.892,51.505,134
28,'s-Heer Abtskerke,3.882,51.471,20
33,Stellendam,4.028,51.804,33
39,Kwadendamme,3.877,51.433,20
66,Dreischor,3.983,51.689,33
28,Zandstraat,3.811,51.265,20
66,Sas van Gent,3.796,51.228,66
28,'s-Gravenpolder,3.901,51.458,28
331,Terneuzen,3.845,51.321,134
55,Sluiskil,3.834,51.28,28
39,Oostvoorne,4.095,51.91,33
24,Kattendijke,3.945,51.523,24
46,Nieuwerkerk,4.002,51.649,46
33,Sirjansland,4.031,51.676,20
55,Melissant,4.07,51.77,20
33,Spui,3.878,51.298,20
66,Kapelle,3.957,51.485,33
66,Monster,4.176,52.025,24
55,Stavenisse,4.012,51.586,33
24,Tinte,4.135,51.886,20
28,Reuzenhoek,3.913,51.327,20
46,Wemeldinge,3.993,51.515,24
39,Zaamslag,3.912,51.312,33
94,Hellevoetsluis,4.133,51.834,66
33,Dirksland,4.1,51.748,28
46,Herkingen,4.087,51.711,28
66,Brielle,4.163,51.894,46
112,Naaldwijk,4.206,51.994,55
28,Poeldijk,4.218,52.024,20
39,Zuiddorpe,3.901,51.233,28
55,Overslag,3.891,51.204,24
33,Schore,3.999,51.463,20
24,Honselersdijk,4.23,52.008,20
79,Bruinisse,4.091,51.661,46
46,Ossenisse,3.981,51.389,20
33,Maasdijk,4.216,51.959,20
79,Vogelwaarde,3.972,51.327,33
160,Yerseke,4.046,51.494,46
94,Kruiningen,4.034,51.448,39
39,De Lier,4.25,51.976,20
94,Sint-Maartensdijk,4.078,51.55,39
33,Hengstdijk,3.997,51.344,20
94,Sint-Annaland,4.103,51.601,55
46,Wateringen,4.276,52.023,28
112,Kloosterzande,4.017,51.371,55
46,Anna Jacobapolder,4.128,51.639,20
79,Koewacht,3.966,51.23,33
46,Nieuwe-Tonge,4.165,51.713,24
33,Rozenburg,4.245,51.907,20
39,Heenvliet,4.241,51.865,33
24,Maasland,4.27,51.935,20
24,Oostdijk,4.078,51.443,20
33,Abbenbroek,4.245,51.849,20
33,Terhole,4.036,51.316,24
28,Sint Philipsland,4.166,51.618,28
39,Lamswaarde,4.055,51.344,24
66,Katwijk aan Zee,4.401,52.201,28
28,Voorburg,4.353,52.077,20
24,Poortvliet,4.144,51.545,24
55,Zuidland,4.257,51.82,55
134,Oude-Tonge,4.214,51.692,55
46,Krabbendijke,4.111,51.43,39
134,Hulst,4.054,51.285,112
46,Wassenaar,4.401,52.142,39
46,Stad aan 't Haringvliet,4.243,51.739,39
55,Den Hoorn,4.752,53.025,24
46,Sint Jansteen,4.053,51.262,20
94,Petten,4.662,52.77,39
55,Leidschendam,4.396,52.09,24
94,Delft,4.363,52.007,39
28,Callantsoog,4.697,52.837,28
46,Oud-Vossemeer,4.199,51.571,28
33,Bergen aan Zee,4.633,52.661,33
33,Vlaardingen,4.338,51.911,33
986,Den Helder,4.746,52.95,230
66,Graauw,4.104,51.329,33
46,Nootdorp,4.394,52.043,20
24,Zuidzijde,4.258,51.701,20
46,Groote Keeten,4.718,52.862,20
33,Nieuw-Vossemeer,4.217,51.586,20
46,Egmond aan Zee,4.63,52.619,33
230,Den Burg,4.799,53.056,79
55,Zandvoort,4.534,52.372,39
24,Sint Maartensvlotbrug,4.699,52.787,20
112,Julianadorp,4.741,52.891,46
28,Delfgauw,4.395,52.002,20
79,Piershil,4.312,51.793,20
39,Voorschoten,4.447,52.126,24
28,Voorhout,4.486,52.223,20
39,Wijk aan Zee,4.592,52.493,24
33,De Waal,4.82,53.073,20
33,Oegstgeest,4.476,52.188,20
39,Achthuizen,4.281,51.687,24
39,Tholen,4.219,51.534,24
79,Schoorl,4.689,52.711,33
24,Burgerbrug,4.703,52.748,20
24,Langstraat,4.281,51.675,20
39,Hekelingen,4.343,51.826,20
24,Nieuwendijk,4.317,51.756,24
28,Nieuw-Beijerland,4.34,51.81,28
39,Rilland,4.183,51.416,33
192,De Cocksdorp,4.871,53.156,55
39,Pijnacker,4.43,52.019,28
79,IJmuiden,4.602,52.455,33
28,De Zilk,4.545,52.302,20
55,De Heen,4.271,51.609,24
28,Bakkum,4.654,52.566,20
39,Stompwijk,4.469,52.095,20
24,Sassenheim,4.521,52.225,20
66,Schiedam,4.399,51.917,46
55,Pernis,4.388,51.889,24
94,Bergen,4.703,52.672,24
28,Leiden,4.503,52.159,20
28,Sint Maarten,4.744,52.772,24
39,Oudeschild,4.847,53.039,24
33,Schagerbrug,4.761,52.802,20
55,Oosterend,4.873,53.085,39
24,Zoeterwoude-Dorp,4.498,52.118,24
33,Zuidzijde,4.365,51.781,24
33,Warmenhuizen,4.738,52.724,24
28,Velsen-Noord,4.641,52.472,20
39,Lepelstraat,4.274,51.548,20
28,Aerdenhout,4.6,52.362,20
46,Bloemendaal,4.62,52.406,20
28,Tuitjenhorn,4.75,52.739,20
66,Stroet,4.756,52.756,20
66,Halsteren,4.27,51.528,24
24,Driehuis,4.638,52.448,20
55,Heiloo,4.698,52.6,28
39,Limmen,4.69,52.571,20
33,Zuid-Beijerland,4.368,51.75,33
39,Heemskerk,4.673,52.516,20
55,Hillegom,4.585,52.289,24
24,Leiderdorp,4.53,52.148,20
28,Koedijk,4.741,52.685,20
39,Kaag,4.559,52.214,20
79,Ooltgensplaat,4.35,51.683,39
33,Rhoon,4.421,51.856,33
79,Heemstede,4.618,52.348,28
33,Oudesluis,4.807,52.833,24
331,Schagen,4.791,52.788,94
79,Berkel en Rodenrijs,4.487,52.002,46
55,Oud-Beijerland,4.414,51.818,28
112,Steenbergen,4.32,51.583,39
66,Anna Paulowna,4.826,52.862,39
24,Cruquius,4.634,52.335,20
33,Bergschenhoek,4.501,51.988,20
24,Benthuizen,4.542,52.077,20
33,Akersloot,4.733,52.56,20
94,Dinteloord,4.368,51.635,39
33,Hoogmade,4.583,52.169,20
33,Spaarndam,4.686,52.414,20
28,Sint Pancras,4.783,52.66,20
39,Oudkarspel,4.805,52.713,20
33,Moerstraten,4.342,51.54,20
55,Nieuw-Vennep,4.633,52.266,33
39,Van Ewijcksluis,4.876,52.882,24
28,Nieuwebrug,4.678,52.373,20
66,Heimolen,4.319,51.469,24
55,Wieringerwaard,4.863,52.837,20
66,Klaaswaal,4.444,51.768,24
24,Hazerswoude-Rijndijk,4.59,52.128,24
24,Waarland,4.829,52.727,20
28,Heinenoord,4.476,51.825,24
112,Hoofddorp,4.668,52.308,66
134,Numansdorp,4.439,51.731,66
66,Rotte,4.536,51.971,20
33,Heijningen,4.411,51.657,20
55,Hazerswoude-Dorp,4.592,52.097,24
28,Calfven,4.316,51.409,20
39,Moerkapelle,4.574,52.045,28
33,Helwijk,4.432,51.675,20
112,Oost-Vlieland,5.065,53.295,79
33,'t Veld,4.854,52.739,20
46,Willemstad,4.442,51.69,33
33,Mijnsheerenland,4.489,51.797,33
33,Zevenhuizen,4.578,52.012,33
79,Heerhugowaard,4.84,52.667,46
66,Kolhorn,4.889,52.793,33
39,Stompetoren,4.82,52.612,33
46,Wouw,4.388,51.523,33
24,Westerland,4.932,52.894,20
24,Blaaksedijk,4.51,51.814,20
33,Leimuiden,4.673,52.223,20
39,Oterleek,4.834,52.636,20
39,Burgerveen,4.68,52.24,20
94,Barendrecht,4.533,51.852,55
33,Oude Niedorp,4.876,52.719,20
39,Stampersgat,4.44,51.613,20
28,Wouwse Plantage,4.389,51.482,28
24,Nieuwe Niedorp,4.892,52.737,20
28,Huijbergen,4.377,51.433,28
24,Oudemolen,4.466,51.65,20
134,Alphen aan den Rijn,4.662,52.137,79
46,Wormer,4.806,52.496,46
55,Fijnaart,4.465,51.637,39
28,Rijsenhout,4.713,52.258,20
55,Capelle aan den IJssel,4.591,51.931,46
24,Lijnden,4.758,52.351,20
46,Oud Gastel,4.458,51.588,39
33,Bolnes,4.582,51.892,20
39,Heerjansdam,4.562,51.836,20
39,De Rijp,4.85,52.56,28
55,Waddinxveen,4.651,52.048,28
28,Langeraar,4.71,52.194,24
33,Krimpen aan den IJssel,4.603,51.916,20
39,Slootdorp,4.969,52.845,28
55,Boskoop,4.67,52.076,24
28,Obdam,4.905,52.676,24
28,Aalsmeerderbrug,4.749,52.274,20
55,Ter Aar,4.707,52.166,24
134,Zaanstad,4.815,52.439,46
28,Maasdam,4.558,51.788,20
46,Ursem,4.892,52.629,24
192,Roosendaal,4.457,51.532,160
66,Badhoevedorp,4.781,52.34,39
55,Puttershoek,4.569,51.805,24
134,Putte,4.393,51.363,28
33,Jisp,4.85,52.508,24
33,Schermerhorn,4.889,52.6,24
24,Papenveer,4.727,52.183,20
39,Kudelstaart,4.75,52.237,20
66,Strijen,4.554,51.743,33
24,Rijsoord,4.597,51.849,20
46,Den Oever,5.028,52.93,33
46,Standdaarbuiten,4.513,51.613,20
79,Nispen,4.461,51.483,33
24,Oude Meer,4.783,52.286,20
46,Klundert,4.537,51.665,33
24,Aarlanderveen,4.728,52.142,20
46,Moordrecht,4.667,51.988,28
24,Reeuwijk-Dorp,4.694,52.055,20
24,Westbeemster,4.899,52.574,20
39,Noordhoek,4.533,51.643,20
46,Nieuwveen,4.756,52.198,24
39,Zandwerven,4.945,52.683,20
24,Tempel,4.705,52.067,20
66,Zwammerdam,4.724,52.106,24
94,Middenmeer,4.999,52.809,33
397,West-Terschelling,5.213,53.358,160
24,Zegge,4.516,51.556,20
79,Middenbeemster,4.911,52.548,33
112,Wieringerwerf,5.031,52.853,46
33,Schenkeldijk,4.597,51.745,20
112,Oudenbosch,4.534,51.588,39
28,Strijensas,4.585,51.715,20
192,Gouda,4.712,52.024,94
55,'s-Gravendeel,4.616,51.781,28
24,Oostzaan,4.877,52.44,20
39,Reeuwijk-Brug,4.723,52.045,20
28,Sijbekarspel,4.985,52.71,20
39,Zevenhoven,4.783,52.18,20
24,Zwijndrecht,4.644,51.818,20
24,Zuidermeer,4.976,52.664,20
46,Neck,4.916,52.507,24
28,Alblasserdam,4.664,51.866,20
39,Nieuwkoop,4.778,52.152,39
55,Bodegraven,4.751,52.08,46
33,Bosschenhoofd,4.544,51.561,24
24,Amsterdam,4.874,52.371,20
39,Berkenwoude,4.708,51.946,33
112,Uithoorn,4.827,52.244,39
24,Den Ilp,4.908,52.452,20
28,Oudendijk,4.967,52.602,20
39,Abbekerk,5.021,52.731,24
160,Amstelveen,4.857,52.297,55
134,Zevenbergen,4.601,51.645,55
24,Bobeldijk,4.999,52.653,20
55,Moerdijk,4.627,51.702,28
28,Rucphen,4.558,51.533,20
28,Beets,4.978,52.588,20
66,Landsmeer,4.917,52.432,39
39,Berkhout,5.002,52.641,28
24,Papendrecht,4.686,51.833,20
28,Kreileroord,5.081,52.841,24
55,Wognum,5.022,52.685,20
230,Dordrecht,4.682,51.809,94
46,Midsland,5.292,53.384,39
28,Noorden,4.825,52.164,24
79,Schijf,4.559,51.498,28
24,Hobrede,4.98,52.545,20
24,Eindhoven,5.472,51.457,20
24,Twisk,5.06,52.743,20
46,Oosthuizen,4.997,52.575,46
55,Ilpendam,4.951,52.464,24
55,Sliedrecht,4.767,51.825,39
55,Haastrecht,4.776,52,24
28,Nes aan de Amstel,4.871,52.26,24
28,Kimswerd,5.435,53.142,20
46,Scharwoude,5.014,52.622,20
24,Hemelum,5.458,52.881,20
66,Baarn,5.288,52.21,28
28,Est,5.313,51.852,20
134,Woerden,4.876,52.084,79
112,Lunteren,5.62,52.085,39
55,Abcoude,4.964,52.273,24
55,Polsbroek,4.851,51.977,20
39,Kwadijk,4.984,52.527,20
28,Hooge Zwaluwe,4.741,51.689,20
46,Heetveld,6.01,52.662,20
33,Prinsenbeek,4.709,51.6,33
134,Zundert,4.658,51.47,66
24,Wagenberg,4.748,51.665,20
33,Driebruggen,4.799,52.044,28
24,Cabauw,4.897,51.965,24
24,Streefkerk,4.743,51.9,24
46,Stolwijk,4.773,51.972,33
55,Lopik,4.949,51.975,46
66,Vleuten,5.014,52.107,24
39,Hoornaar,4.945,51.882,24
28,Nibbixwoud,5.061,52.69,20
24,Enkhuizen,5.283,52.702,24
112,Nieuwendijk,4.92,51.774,28
39,Zegveld,4.838,52.115,28
46,Tienhoven,5.081,52.169,20
24,Hogebrug,4.804,52.027,20
33,Uppel,4.94,51.79,20
94,Midwoud,5.072,52.713,20
39,Naarden,5.152,52.299,20
46,Achlum,5.485,53.149,20
39,Waarder,4.82,52.061,20
192,Gorinchem,4.984,51.835,134
46,Lexmond,5.036,51.963,33
33,Molkwerum,5.4,52.9,20
33,Ouderkerk aan de Amstel,4.914,52.296,28
66,Chaam,4.862,51.505,39
55,Dussen,4.961,51.732,33
160,Hollum,5.639,53.442,94
94,Koudum,5.451,52.913,55
28,Hekendorp,4.809,52.015,20
33,Woerdense Verlaat,4.865,52.155,20
28,Meeuwen,5.014,51.728,20
33,Hoorn,5.341,53.397,24
46,Achtmaal,4.586,51.454,28
24,Zwaag,5.065,52.665,20
94,Medemblik,5.104,52.767,66
46,Zunderdorp,4.966,52.408,20
33,Langeweg,4.665,51.647,20
24,Middelie,5.016,52.536,20
33,Wjelsryp,5.607,53.168,20
79,Alphen,4.955,51.483,33
24,Oostwoud,5.091,52.725,20
39,Everdingen,5.157,51.964,24
55,Schalkwijk,5.185,51.995,28
24,Warder,5.031,52.565,20
39,Menaam,5.658,53.215,20
79,Zeist,5.231,52.089,55
33,Bergambacht,4.785,51.934,33
24,Zevenbergschen Hoek,4.681,51.672,24
55,Schellingwoude,4.963,52.385,39
94,Goirle,5.058,51.521,33
46,Marsum,5.727,53.212,20
79,Driebergen-Rijsenburg,5.285,52.052,33
28,Jutrijp,5.651,52.996,20
28,Boksum,5.726,53.176,20
46,Deil,5.244,51.885,20
66,Lage Zwaluwe,4.704,51.708,39
66,Etten-Leur,4.651,51.574,66
39,Beusichem,5.293,51.948,24
28,Bruchem,5.237,51.788,20
39,Broek in Waterland,4.995,52.434,24
39,Wijngaarden,4.763,51.845,20
66,Diemen,4.956,52.333,39
397,Leeuwarden,5.807,53.204,397
46,Esbeek,5.136,51.462,20
33,Leusden-Zuid,5.407,52.116,20
55,Buren,5.334,51.911,24
39,Goingarijp,5.775,53.012,24
39,Baarschot,5.187,51.458,24
46,Bleskensgraaf,4.781,51.872,39
28,'s-Hertogenbosch,5.296,51.697,20
24,Vlist,4.823,51.975,20
28,Papekop,4.854,52.047,20
46,Esch,5.292,51.612,20
28,Spoordonk,5.271,51.519,20
24,Horst,5.593,52.311,20
39,Aldeboarn,5.89,53.047,28
79,Oosterend,5.381,53.405,20
39,Dalem,5.259,51.352,20
33,Huinen,5.607,52.223,20
79,Berlicum,5.401,51.679,28
24,Wâlterswâld,6.03,53.301,20
28,Kanis,4.895,52.126,20
39,Vinkeveen,4.93,52.213,28
24,Duizel,5.296,51.371,20
46,Scherpenzeel,5.875,52.831,20
46,Vinkel,5.461,51.705,20
24,Groot-Ammers,4.819,51.923,20
24,Oudeschoot,5.955,52.937,20
55,Kamerik,4.895,52.111,20
24,Edam,5.053,52.511,20
134,Megen,5.563,51.822,39
46,Loosbroek,5.507,51.681,24
28,Nijnsel,5.484,51.553,20
46,Oosterblokker,5.119,52.669,20
24,Molenhoek,5.616,51.865,20
33,Wekerom,5.718,52.114,20
112,Elspeet,5.788,52.292,66
134,Wageningen,5.666,51.973,55
55,Oudewater,4.869,52.025,39
33,Wernhout,4.642,51.454,20
33,Katwoude,5.047,52.47,20
33,Holysloot,5.025,52.413,20
24,Basse,6.033,52.805,20
28,Zwaagdijk-Oost,5.14,52.707,20
24,Overlangel,5.672,51.775,20
39,Herveld-Noord,5.739,51.91,20
66,Schoonhoven,4.849,51.95,66
28,Westwoud,5.137,52.685,20
55,Giethoorn,6.079,52.741,39
39,Volkel,5.658,51.643,20
33,Wervershoof,5.156,52.73,28
24,Houwerzijl,6.341,53.336,20
33,Gastel,5.554,51.285,20
46,Makkinga,6.218,52.981,28
39,Linschoten,4.914,52.062,20
55,Kockengen,4.949,52.147,28
94,Rijsbergen,4.7,51.517,33
33,Baambrugge,4.992,52.247,20
33,Nieuwpoort,4.869,51.935,20
28,Portengensebrug,4.959,52.161,20
55,Terheijden,4.754,51.644,24
39,Hardinxveld-Giessendam,4.831,51.828,33
33,Polsbroekerdam,4.902,51.995,24
24,Nieuwer Ter Aa,4.98,52.191,20
28,Uitdam,5.071,52.421,24
33,Hoogkarspel,5.179,52.695,28
66,Wijdenes,5.157,52.635,28
55,Effen,4.733,51.553,28
94,Weesp,5.038,52.31,39
134,Ottoland,4.874,51.892,28
94,Made,4.79,51.677,33
33,Marken,5.104,52.459,33
39,Drimmelen,4.807,51.707,24
28,Hem,5.183,52.661,20
33,Harmelen,4.962,52.088,28
79,Breukelen,5.001,52.181,33
66,Andijk,5.222,52.745,39
79,Montfoort,4.951,52.045,33
46,Muiden,5.067,52.333,20
39,Loenen aan de Vecht,5.021,52.211,24
39,Vreeland,5.029,52.231,20
39,Nederhorst den Berg,5.046,52.265,33
46,Giessenburg,4.89,51.851,33
33,Haarzuilens,4.999,52.122,20
33,Den Hout,4.815,51.657,20
66,Venhuizen,5.216,52.668,24
160,Stede Broec,5.238,52.698,94
55,Zurich,5.396,53.112,24
39,Galder,4.775,51.513,28
66,Benschop,4.98,52.009,28
46,Teteringen,4.821,51.61,20
28,Ulvenhout,4.799,51.55,20
33,Noordeloos,4.942,51.904,20
39,Ameide,4.963,51.957,20
66,Maarssen,5.04,52.139,33
230,Harlingen,5.437,53.17,112
39,Muiderberg,5.118,52.328,20
160,Makkum,5.404,53.058,55
39,Wijnaldum,5.461,53.195,20
66,Hank,4.896,51.734,28
79,Oosterhout,4.858,51.637,46
55,De Meern,5.036,52.081,20
39,Wons,5.423,53.084,20
66,Bavel,4.831,51.566,28
24,Oud-Loosdrecht,5.087,52.207,24
28,Pingjum,5.44,53.116,20
94,Sexbierum,5.483,53.218,24
79,Gaast,5.408,53.017,28
33,Almere-Poort,5.153,52.347,33
33,Stavoren,5.359,52.882,33
46,Dorst,4.856,51.59,20
46,Uitweg,5.014,51.984,20
39,Kortenhoef,5.115,52.239,28
39,Sleeuwijk,4.951,51.813,20
66,Meerkerk,4.997,51.921,46
24,Herbaijum,5.494,53.184,20
66,Hindeloopen,5.404,52.942,24
28,Arum,5.475,53.13,20
66,Witmarsum,5.466,53.104,33
24,Oosteind,4.901,51.646,20
24,Ferwoude,5.433,53.006,20
24,Lopikerkapel,5.044,51.991,20
66,Arkel,4.996,51.864,24
24,Nieuwland,5.013,51.902,20
28,Molenschot,4.883,51.573,20
24,Almkerk,4.964,51.772,24
39,Exmorra,5.465,53.057,28
46,Nieuw-Loosdrecht,5.14,52.198,20
160,Workum,5.443,52.979,66
33,Westbroek,5.124,52.152,24
39,Schettens,5.483,53.083,20
134,Nieuwegein,5.079,52.03,55
33,Hitzum,5.518,53.166,20
28,Tzummarum,5.546,53.238,24
33,Waspik,4.947,51.687,33
397,Utrecht,5.111,52.099,230
39,Warns,5.412,52.873,24
46,Ulicoten,4.858,51.458,33
55,Franeker,5.534,53.188,46
33,Woudrichem,5.004,51.817,20
46,'s Gravenmoer,4.941,51.659,24
33,Dongjum,5.542,53.208,20
134,Rijen,4.916,51.588,28
160,Hilversum,5.17,52.223,94
24,Bikbergen,5.197,52.288,20
39,Parrega,5.479,53.017,24
46,Dongen,4.938,51.626,39
33,Leerbroek,5.051,51.907,20
66,Almere-Haven,5.223,52.343,24
39,Lollum,5.532,53.126,20
33,Tjerkwerd,5.501,53.042,20
28,Crailo,5.206,52.273,20
94,Vianen,5.097,51.988,33
24,Hei- en Boeicop,5.082,51.944,20
39,Rijswijk,5.024,51.798,20
39,Hollandsche Rading,5.174,52.176,20
33,Vaart,4.965,51.645,20
24,Groenekan,5.155,52.123,20
24,Kedichem,5.052,51.86,20
46,Almere-Buiten,5.264,52.398,20
79,Bolsward,5.524,53.066,66
28,Minnertsga,5.594,53.251,28
39,Maartensdijk,5.176,52.158,20
66,Tzum,5.562,53.157,24
28,Vuren,5.05,51.824,20
33,Hulten,4.95,51.573,20
46,Bakhuizen,5.457,52.87,33
55,Ried,5.592,53.224,20
94,Gilze,4.94,51.542,39
24,Heukelum,5.076,51.872,20
24,Babyloniënbroek,5.025,51.743,20
28,De Bilt,5.17,52.108,20
39,Burgwerd,5.547,53.087,20
39,Peins,5.595,53.205,20
39,Blaricum,5.24,52.273,20
33,Ballum,5.686,53.445,24
112,Leerdam,5.091,51.892,55
79,Blauwhuis,5.532,53.023,24
24,Kûbaard,5.571,53.119,20
46,Houten,5.161,52.038,39
39,Andel,5.061,51.782,24
55,Schoonrewoerd,5.116,51.92,24
79,Baarle-Nassau,4.93,51.444,66
66,Nij Altoenae,5.653,53.296,20
24,Bilthoven,5.212,52.136,20
79,Wommels,5.587,53.109,33
28,Eethen,5.054,51.732,20
46,Zijderveld,5.139,51.943,20
28,Asperen,5.114,51.88,20
46,De Moer,5.013,51.624,24
66,Brakel,5.092,51.82,33
39,Almere-Hout,5.299,52.342,33
55,Oudega,5.55,52.993,28
39,Sint-Annaparochie,5.657,53.276,39
28,Drongelen,5.056,51.716,20
33,Nijland,5.576,53.051,24
33,Kaatsheuvel,5.035,51.657,20
39,Gaastmeer,5.545,52.964,24
46,Oudega,5.522,52.904,20
66,Berltsum,5.65,53.242,24
46,Bunnik,5.203,52.066,20
24,Abbega,5.571,53.019,20
46,Elahuizen,5.541,52.925,24
112,Dronryp,5.645,53.196,55
66,Winsum,5.632,53.153,33
28,Genderen,5.09,51.737,20
28,Easterein,5.617,53.097,20
39,Veen,5.108,51.777,20
94,Oudemirdum,5.529,52.85,39
28,Herwijnen,5.13,51.825,20
33,Rhenoy,5.154,51.883,20
33,Zuilichem,5.134,51.81,20
94,Soest,5.278,52.173,55
28,Odijk,5.233,52.055,20
33,Easterlittens,5.649,53.136,20
33,Riel,5.023,51.524,20
46,Tirns,5.625,53.059,20
28,Oudebildtzijl,5.717,53.301,28
94,Nes,5.771,53.446,66
46,Loon op Zand,5.074,51.627,24
39,Reahûs,5.637,53.077,20
94,Wijk en Aalburg,5.127,51.758,55
24,'t Goy,5.224,52.001,20
28,Eemdijk,5.33,52.254,20
28,Ysbrechtum,5.632,53.042,20
134,Heeg,5.607,52.968,33
39,Bitgummole,5.708,53.235,20
24,Alde Leie,5.728,53.288,20
39,IJlst,5.624,53.01,20
55,Werkhoven,5.244,52.025,20
94,Balk,5.583,52.897,55
79,Beesd,5.193,51.888,39
33,Soesterberg,5.289,52.116,28
55,Hellouw,5.176,51.829,24
66,Oudheusden,5.135,51.725,28
33,Buren,5.801,53.449,20
134,Culemborg,5.229,51.95,66
276,Tilburg,5.077,51.566,192
24,Nieuwaal,5.179,51.81,20
331,Lelystad,5.456,52.507,112
33,Elshout,5.142,51.702,20
39,Sondel,5.597,52.871,20
55,Drunen,5.137,51.687,39
39,Wiuwert,5.689,53.109,20
55,Woudsend,5.628,52.944,20
331,Sneek,5.661,53.03,134
24,Hilaard,5.712,53.165,20
55,Scharnegoutum,5.678,53.06,24
55,Deinum,5.729,53.19,33
39,Hommerts,5.65,52.978,20
46,Bunschoten-Spakenburg,5.371,52.245,46
112,Stiens,5.759,53.261,46
79,Boazum,5.696,53.088,24
55,Austerlitz,5.313,52.078,20
94,Hallum,5.783,53.307,39
33,Gameren,5.205,51.8,24
79,Mantgum,5.717,53.128,39
28,Boswijk,5.301,52.04,20
28,Hedikhuizen,5.187,51.734,20
28,Marrum,5.801,53.324,20
79,Udenhout,5.142,51.609,28
28,Jellum,5.744,53.163,20
55,Sloten,5.645,52.894,28
24,Hoogland,5.374,52.184,20
33,Weidum,5.742,53.144,20
39,Oppenhuizen,5.696,53.012,20
24,Kerkwijk,5.22,51.775,20
46,Cothen,5.31,51.999,20
28,Jelsum,5.785,53.235,20
66,Ferwert,5.824,53.338,24
28,Haarsteeg,5.199,51.711,20
55,Waardenburg,5.256,51.835,20
24,Langbroek,5.327,52.012,20
192,Amersfoort,5.385,52.158,134
28,Biezenmortel,5.179,51.624,20
160,Zaltbommel,5.253,51.809,79
24,Tjerkgaast,5.678,52.903,20
24,Poppenwier,5.747,53.085,20
46,Doorn,5.345,52.034,28
24,Raerd,5.758,53.098,20
33,Meteren,5.284,51.865,20
33,Asch,5.31,51.931,20
66,Vlijmen,5.218,51.698,39
79,Hilvarenbeek,5.138,51.486,39
28,Blije,5.861,53.352,20
28,Maarn,5.37,52.066,24
66,Geldermalsen,5.299,51.883,55
66,Wijk bij Duurstede,5.338,51.978,55
55,Goutum,5.802,53.179,20
46,Lekkum,5.821,53.227,20
39,Reduzum,5.78,53.116,24
46,Langweer,5.723,52.958,28
160,Urk,5.611,52.662,66
46,Biest-Houtakker,5.159,51.508,20
66,Moergestel,5.178,51.545,24
79,Espel,5.642,52.726,33
55,Hedel,5.261,51.745,20
33,Wirdum,5.804,53.15,20
79,Oisterwijk,5.194,51.575,55
79,Creil,5.659,52.764,46
39,Cromvoirt,5.232,51.661,24
28,Stoutenburg,5.432,52.154,20
39,Hooge Mierde,5.129,51.387,20
39,Rijswijk,5.358,51.961,20
192,Lemmer,5.704,52.849,94
33,Jirnsum,5.792,53.08,24
33,Engelen,5.266,51.721,20
55,Holwerd,5.9,53.369,39
33,Helvoirt,5.233,51.633,24
33,Terherne,5.78,53.04,28
55,Leusden,5.432,52.133,24
39,Maarsbergen,5.404,52.059,20
55,Haaren,5.227,51.604,24
46,Woudenberg,5.417,52.081,39
39,Reitsum,5.89,53.321,24
79,Burdaard,5.88,53.293,33
79,Lage Mierde,5.149,51.406,33
79,Rutten,5.697,52.805,33
79,Sint Nicolaasga,5.742,52.922,33
28,Hempens,5.839,53.179,20
24,Erichem,5.349,51.9,20
39,Hoevelaken,5.458,52.176,33
24,Hurwenen,5.315,51.812,20
55,Nijkerkerveen,5.469,52.195,20
66,Zeewolde,5.524,52.336,46
134,Nijkerk,5.485,52.225,46
112,Wergea,5.847,53.152,24
33,Aldtsjerk,5.89,53.265,20
28,Haghorst,5.206,51.496,24
24,Brantgum,5.93,53.352,20
46,Rossum,5.336,51.802,28
55,Tollebeek,5.678,52.679,33
33,Scharsterbrug,5.779,52.944,20
160,Grou,5.835,53.094,79
46,Reusel,5.164,51.361,28
134,Leersum,5.427,52.012,39
28,Wadenoijen,5.374,51.874,24
94,Swifterbant,5.643,52.566,28
134,Vught,5.283,51.645,39
33,Alem,5.34,51.787,20
28,Hulsel,5.181,51.389,20
28,Hoenzadriel,5.329,51.755,20
79,Joure,5.798,52.965,55
94,Kerkdriel,5.337,51.769,39
94,Akkrum,5.835,53.049,39
39,Empel,5.326,51.731,20
39,Maurik,5.42,51.962,28
28,Zwartebroek,5.505,52.179,20
46,Raard,5.944,53.326,20
39,Varik,5.368,51.823,20
46,Ternaard,5.966,53.383,33
39,Zoelen,5.404,51.91,20
46,Achterveld,5.494,52.136,33
39,Hantum,5.965,53.363,20
28,Ophemert,5.388,51.846,24
24,Rinsumageast,5.947,53.297,24
33,Terschuur,5.52,52.166,20
112,Bant,5.752,52.768,46
39,Scherpenzeel,5.488,52.08,33
39,Warten,5.899,53.151,24
55,Middelbeers,5.246,51.465,33
33,De Glind,5.506,52.12,20
24,Amerongen,5.461,52.002,20
476,Tiel,5.425,51.891,94
28,Eck en Wiel,5.457,51.969,20
397,Emmeloord,5.745,52.71,134
79,Nagele,5.722,52.646,28
55,Bantega,5.797,52.843,24
192,Bladel,5.222,51.371,94
33,Maren-Kessel,5.393,51.797,20
24,Hantumhuizen,5.998,53.372,20
33,Suwâld,5.927,53.179,20
24,Wierum,6.013,53.4,20
46,Overberg,5.497,52.041,24
28,Lennisheuvel,5.316,51.573,20
94,Echtenerbrug,5.822,52.872,46
112,Boxtel,5.329,51.591,46
230,Dokkum,5.997,53.325,94
276,Harderwijk,5.626,52.344,134
66,Dreumel,5.433,51.849,28
55,Sint-Michielsgestel,5.356,51.644,39
33,Sintjohannesga,5.857,52.932,20
24,Den Dungen,5.369,51.666,20
39,Oudehaske,5.87,52.957,24
79,Ermelo,5.62,52.302,33
79,Damwâld,5.995,53.29,28
28,Maliskamp,5.387,51.705,20
39,Earnewâld,5.939,53.131,20
94,Putten,5.61,52.262,33
46,Hoogeloon,5.268,51.397,20
46,Gemonde,5.358,51.62,20
55,Oirschot,5.313,51.507,46
33,Broeksterwâld,5.995,53.275,20
28,Hapert,5.26,51.37,20
24,Renswoude,5.541,52.074,24
55,Elst,5.506,51.986,24
134,Dronten,5.715,52.519,94
79,Nes,6.047,53.397,20
66,Biddinghuizen,5.691,52.454,55
24,Langelille,5.842,52.842,20
46,Wamel,5.473,51.88,24
79,Vessem,5.29,51.419,39
55,Garyp,5.969,53.167,20
39,Krachtighuizen,5.619,52.24,20
46,Lingemeer,5.497,51.924,20
33,Oosternijkerk,6.054,53.379,20
112,Barneveld,5.585,52.143,94
94,Voorthuizen,5.605,52.187,33
28,Echteld,5.499,51.909,20
79,Kuinre,5.841,52.789,39
24,Noardburgum,6.005,53.223,20
33,Lienden,5.518,51.948,20
66,Veenendaal,5.548,52.021,66
46,Liempde,5.371,51.57,20
33,Lithoijen,5.462,51.799,20
33,Hierden,5.68,52.357,28
28,Nuland,5.435,51.728,20
39,Alphen,5.473,51.822,20
33,Moddergat,6.08,53.403,20
24,Sumar,5.998,53.182,20
33,Metslawier,6.067,53.361,28
28,Middelrode,5.418,51.665,20
39,Ederveen,5.579,52.063,20
28,Oostrum,6.062,53.331,20
33,De Klomp,5.574,52.048,20
39,Munnekeburen,5.887,52.85,20
66,Tjalleberd,5.944,52.998,24
46,Wintelre,5.339,51.442,24
55,Luttelgeest,5.851,52.744,28
46,Geffen,5.463,51.743,33
33,Beneden-Leeuwen,5.52,51.881,33
39,Weebosch,5.293,51.308,20
24,Twijzelerheide,6.043,53.243,20
46,Oudega,6.001,53.126,28
24,Oijen,5.501,51.824,20
28,Olland,5.406,51.58,20
230,Heerenveen,5.937,52.948,134
79,Eersel,5.322,51.359,46
160,Ens,5.826,52.637,55
79,Rhenen,5.568,51.963,46
66,Schijndel,5.435,51.619,55
39,Knegsel,5.348,51.4,20
28,Nijega,6.025,53.141,20
33,Hulshorst,5.729,52.363,24
66,Marknesse,5.864,52.711,46
134,Best,5.399,51.509,46
24,Nij Beets,6.003,53.07,20
33,Westergeest,6.087,53.291,28
79,Ee,6.102,53.33,28
55,Tijnje,5.993,53.032,39
28,Boskant,5.42,51.552,20
55,Kesteren,5.574,51.936,24
331,Schiermonnikoog,6.161,53.478,94
39,De Knipe,5.972,52.969,20
55,Speuld,5.706,52.271,28
39,Blankenham,5.896,52.765,24
39,Steensel,5.355,51.378,20
94,Anjum,6.127,53.375,66
134,Luyksgestel,5.321,51.288,24
46,Ochten,5.57,51.909,20
33,Ossenzijl,5.917,52.808,28
46,Kootwijkerbroek,5.667,52.152,28
46,Eastermar,6.058,53.174,24
33,De Wilgen,6.033,53.1,20
28,Oldetrijne,5.947,52.862,28
94,Oss,5.523,51.765,94
39,Appeltern,5.553,51.841,20
24,It Heechsân,6.071,53.186,20
46,Stroe,5.692,52.187,28
39,Twijzel,6.09,53.232,20
28,Macharen,5.544,51.805,20
46,Garderen,5.715,52.233,33
24,Langezwaag,6.002,52.982,20
55,Opeinde,6.062,53.134,24
46,Boornbergum,6.046,53.083,20
55,Kootstertille,6.094,53.212,20
94,Sint-Oedenrode,5.461,51.565,39
94,Nunspeet,5.782,52.379,79
46,Engwierum,6.137,53.321,20
55,Veldhoven,5.404,51.418,28
66,Acht,5.429,51.48,20
66,Heesch,5.529,51.731,28
24,Mildam,6.001,52.937,24
33,Kraggenburg,5.898,52.663,28
39,Riethoven,5.387,51.352,20
160,Druten,5.599,51.885,66
39,Eerde,5.497,51.604,24
276,Ede,5.669,52.036,112
33,Doornspijk,5.817,52.417,24
79,Oldemarkt,5.972,52.821,46
33,Kalenberg,5.956,52.777,28
24,Bontebok,6.026,52.963,20
39,Opheusden,5.631,51.932,28
55,Berghem,5.571,51.773,24
46,Kollum,6.149,53.281,46
28,Westerhoven,5.398,51.333,20
46,Haren,5.588,51.802,20
28,Rottevalle,6.104,53.146,20
230,Drachten,6.092,53.107,134
160,Wolvega,6.006,52.878,55
39,Horssen,5.613,51.854,24
46,Beetsterzwaag,6.078,53.06,39
28,Hoge Enk,5.84,52.431,20
66,Bennekom,5.674,52.002,24
55,Noordeinde,5.877,52.514,28
55,Nistelrode,5.561,51.704,24
79,Lauwersoog,6.212,53.404,39
55,Blokzijl,5.961,52.726,33
66,Uddel,5.782,52.258,28
79,Son en Breugel,5.49,51.509,33
24,Ter Idzard,6.034,52.904,20
24,Waalre,5.445,51.387,20
28,Vorstenbosch,5.552,51.654,28
79,Veghel,5.539,51.618,46
39,Dodewaard,5.656,51.912,20
39,Kollumerpomp,6.19,53.304,20
24,Blesdijke,6.013,52.831,20
134,Vollenhove,5.958,52.682,46
66,Nieuwehorne,6.062,52.953,39
24,Wageningen-Hoog,5.693,51.987,20
28,Augustinusga,6.162,53.215,24
112,Kootwijk,5.771,52.186,39
94,Harskamp,5.751,52.131,39
79,Vierhouten,5.829,52.332,33
28,Batenburg,5.63,51.822,20
28,Oldeholtpade,6.043,52.892,20
46,Zijtaart,5.542,51.592,20
28,Boelenslaan,6.147,53.161,20
55,Grafhorst,5.934,52.584,24
24,Drachtstercompagnie,6.143,53.135,20
55,Deest,5.666,51.889,20
33,Oosterwolde,5.894,52.464,20
79,Aalst,5.475,51.396,33
39,De Blesse,6.04,52.843,28
66,'t Harde,5.88,52.417,24
55,Borkel,5.441,51.298,28
39,Oldebroek,5.897,52.447,24
66,Bergharen,5.666,51.851,24
33,Mariaheide,5.58,51.634,20
39,Scheerwolde,6.016,52.757,28
46,Ravenstein,5.646,51.796,39
24,Nijeholtpade,6.078,52.913,20
33,Randwijk,5.71,51.954,20
46,Herpen,5.64,51.772,20
79,Schaijk,5.631,51.745,28
66,Otterlo,5.773,52.102,24
33,Gerkesklooster,6.207,53.24,24
28,Jubbega,6.122,53.004,24
94,Zetten,5.715,51.927,24
39,Hemrik,6.138,53.032,24
33,Hernen,5.679,51.835,20
39,Renkum,5.736,51.977,28
55,Willemsoord,6.062,52.825,20
79,Burum,6.23,53.273,28
24,Steggerda,6.075,52.857,20
28,Zuideinde,5.931,52.478,20
28,Sint Jansklooster,6.008,52.678,24
46,Ureterp,6.168,53.096,39
39,Mariahout,5.57,51.54,20
33,Steenwijkerwold,6.063,52.805,24
28,Winssen,5.708,51.883,20
33,Opende,6.201,53.172,28
134,Uden,5.621,51.662,94
28,Dwarsgracht,6.037,52.725,20
28,De Zande,5.959,52.515,20
55,Nuenen,5.552,51.47,39
39,Gerwen,5.562,51.489,20
55,Erp,5.607,51.599,33
66,Wilsum,5.969,52.529,24
33,Kamperzeedijk-Oost,6.002,52.598,20
33,Oldeberkoop,6.131,52.94,33
24,Vierhuizen,6.29,53.36,20
55,Heteren,5.758,51.954,20
39,Munnekezijl,6.274,53.305,24
33,'t Loo,5.952,52.445,24
24,Frieschepalen,6.204,53.109,20
28,Pieterzijl,6.269,53.281,20
39,Reek,5.682,51.745,24
24,Lieshout,5.594,51.518,20
46,Hoog Soeren,5.874,52.219,33
66,Geldrop,5.561,51.423,46
28,Ewijk,5.741,51.872,20
79,Zeeland,5.674,51.699,28
33,Wolfheze,5.795,52.002,20
24,Kornhorn,6.246,53.183,24
46,Zoutkamp,6.304,53.338,20
94,Wijchen,5.722,51.808,66
66,Wijnjewoude,6.201,53.056,28
94,Noordwolde,6.141,52.892,66
24,Balgoij,5.715,51.782,20
33,Boerdonk,5.626,51.558,20
94,Genemuiden,6.042,52.623,66
46,Oventje,5.675,51.679,20
28,Doorwerth,5.795,51.98,20
28,Zalk,6.008,52.522,20
33,Strijp,5.543,51.334,20
33,'s-Heerenbroek,6.014,52.535,20
192,Steenwijk,6.114,52.791,79
39,Noordwijk,6.257,53.17,20
55,Leende,5.556,51.35,28
24,Velp,5.715,51.75,20
33,Noordwolde-Zuid,6.149,52.876,20
46,Grootegast,6.277,53.212,39
46,Beek en Donk,5.631,51.531,33
33,Ulrum,6.334,53.359,20
33,Zwartsluis,6.067,52.64,20
66,Heeze,5.578,51.384,33
39,Eesveen,6.139,52.826,28
112,Wezep,6.001,52.46,55
24,Valburg,5.788,51.911,24
66,Beuningen,5.768,51.858,39
55,De Wilp,6.252,53.118,24
94,Marum,6.264,53.146,55
55,Grijpskerk,6.307,53.261,39
39,Driel,5.812,51.96,20
46,Aarle-Rixtel,5.638,51.509,20
79,Hoenderloo,5.879,52.118,46
28,Slijk-Ewijk,5.789,51.886,20
39,Kommerzijl,6.323,53.287,20
94,Boekel,5.678,51.602,39
24,Nederasselt,5.745,51.772,20
46,Mierlo,5.619,51.442,28
33,Odiliapeel,5.703,51.644,24
160,Roden,6.426,53.141,66
46,Ugchelen,5.948,52.189,20
192,Epe,5.978,52.349,94
66,Haarle,6.382,52.359,39
24,Nieuwe Krim,6.652,52.666,20
39,Onna,6.148,52.774,20
112,Budel,5.573,51.27,66
94,Smilde,6.451,52.949,55
46,Sterksel,5.615,51.352,28
39,Langenboom,5.729,51.701,28
33,De Mortel,5.708,51.54,20
79,Maarheeze,5.62,51.311,33
39,Bakkeveen,6.261,53.082,33
112,Beekbergen,5.963,52.159,24
28,Benneveld,6.745,52.778,20
33,Haule,6.303,53.036,20
46,Oosterbeek,5.845,51.988,33
33,Noordhorn,6.394,53.263,20
66,Oene,6.048,52.344,33
24,Oostwold,7.045,53.203,20
66,Donkerbroek,6.239,53.018,24
28,Pieterburen,6.454,53.4,28
28,Nijensleek,6.173,52.84,20
24,Soerendonk,5.575,51.302,24
33,Tilligte,6.952,52.404,24
33,Boijl,6.201,52.91,28
33,Ezinge,6.442,53.31,24
55,Emst,5.975,52.315,20
28,Enumatil,6.409,53.216,20
46,Rouveen,6.187,52.616,20
24,Nijbroek,6.064,52.292,20
28,Wanneperveen,6.125,52.704,20
55,Huissen,5.936,51.941,24
39,Herxen,6.133,52.431,20
112,Vaassen,5.968,52.29,46
33,Milheeze,5.781,51.503,20
39,Oostwold,6.439,53.202,28
94,De Rips,5.809,51.552,39
46,Angeren,5.958,51.916,20
24,Garnwerd,6.492,53.304,20
192,Leens,6.374,53.36,66
24,Boerhaar,6.151,52.374,20
24,Berghuizen,6.289,52.713,20
66,Winsum,6.522,53.33,33
112,Eerbeek,6.062,52.104,39
39,Roderwolde,6.469,53.168,20
79,Rheden,6.032,52.01,28
66,Nederweert,5.75,51.284,24
39,Geeuwenbrug,6.374,52.869,28
33,Altena,6.474,53.132,20
39,Tungelroy,5.733,51.213,20
94,Dwingeloo,6.367,52.836,55
94,Nieuwleusen,6.279,52.588,46
28,Ospel,5.784,51.298,20
33,Stevensbeek,5.915,51.603,20
230,Gemert,5.69,51.556,66
24,Lhee,6.394,52.824,20
39,Budel-Schoot,5.569,51.251,20
33,Kallenkote,6.172,52.795,20
55,Kloosterburen,6.393,53.388,24
28,Weurt,5.812,51.856,20
39,Nuis,6.307,53.152,20
134,Helmond,5.663,51.477,94
46,Griendtsveen,5.89,51.442,33
66,Hasselt,6.098,52.592,28
46,Fort,6.386,52.651,20
94,Elst,5.842,51.92,39
33,Waskemeer,6.277,53.057,20
33,Zandeweer,6.68,53.389,20
33,Veulen,5.955,51.482,20
24,Budel-Dorplein,5.572,51.24,20
476,Apeldoorn,5.957,52.211,192
66,Schaarsbergen,5.879,52.01,20
55,Yde,6.591,53.114,20
39,Roosteren,5.817,51.083,20
46,Handel,5.712,51.581,20
24,Niehove,6.367,53.291,20
24,Engelbert,6.646,53.209,20
66,Hooghalen,6.54,52.921,39
46,Boerakker,6.33,53.187,20
28,Westeremden,6.71,53.344,20
94,Elsloo,6.239,52.943,24
66,Gronsveld,5.732,50.811,20
94,Nieuw-Bergen,6.053,51.603,55
28,Beringe,5.948,51.337,20
79,Ten Boer,6.693,53.278,46
79,Vledder,6.209,52.858,33
160,Echt,5.871,51.106,66
66,Susteren,5.856,51.066,24
24,Geijsteren,6.05,51.551,20
79,Beek,6.191,51.908,28
33,Gassel,5.78,51.74,20
39,Lemele,6.416,52.452,39
39,Overasselt,5.789,51.761,24
28,Sint Joost,5.9,51.117,20
28,Zeerijp,6.762,53.348,20
79,Nijeveen,6.165,52.732,28
160,Horst,6.053,51.453,66
55,Hattem,6.069,52.475,33
79,Rolde,6.648,52.986,39
46,Neer,5.99,51.262,20
39,Niekerk,6.354,53.226,24
79,Heerde,6.04,52.389,33
24,Kessel-Eik,6.025,51.279,20
94,Spijk,6.837,53.389,46
331,Roermond,6,51.19,134
112,Nijverdal,6.465,52.361,46
46,Venhorst,5.737,51.608,20
24,Ingber,5.858,50.818,20
55,Schoonloo,6.702,52.905,24
33,Elden,5.88,51.959,20
24,Wapenveld-Noord,6.069,52.443,20
46,Tegelen,6.14,51.341,20
112,Oldehove,6.394,53.303,33
39,Gasselte,6.792,52.972,28
66,Wapserveen,6.217,52.824,20
28,Westendorp,6.415,51.951,24
39,Drouwen,6.795,52.952,20
46,Zorgvlied,6.255,52.922,20
39,Gieterveen,6.836,53.026,33
28,Sibculo,6.639,52.481,20
66,Wapenveld,6.071,52.433,33
39,Wagenborgen,6.932,53.257,33
39,Bocholtz,6.007,50.818,20
79,Diepenheim,6.554,52.2,28
24,Hoorn,6.062,52.402,20
66,Varsseveld,6.463,51.945,46
28,Darp,6.204,52.774,20
33,'t Waal,6.951,53.226,20
685,Zwolle,6.108,52.52,230
33,Sinderen,6.463,51.906,20
55,Lierop,5.679,51.418,28
33,Noord-Sleen,6.803,52.79,20
24,Wilbertoord,5.774,51.654,24
55,'t Haantje,6.826,52.815,20
66,Scheemda,6.967,53.178,33
28,Dalerveen,6.81,52.696,24
33,Westerlee,6.981,53.142,28
94,Woldendorp,7.029,53.274,28
33,Midwolda,7.01,53.194,20
24,Ressen,5.872,51.891,20
24,Harbrinkhoek,6.72,52.384,20
134,Oosterwolde,6.294,52.989,94
28,IJzerlo,6.542,51.889,24
55,Lent,5.864,51.864,24
39,Warfhuizen,6.426,53.341,20
230,Meppel,6.186,52.696,134
39,Zevenhuizen,6.348,53.126,33
112,Eibergen,6.654,52.1,46
276,Nijmegen,5.856,51.829,112
55,Beerta,7.097,53.174,33
55,Leek,6.367,53.165,28
66,Haulerwijk,6.331,53.066,55
39,Slingenberg,6.187,52.678,20
39,Arnhem,5.925,51.988,20
94,Zuidhorn,6.403,53.246,46
28,Linden,5.832,51.75,20
39,Roswinkel,7.039,52.837,20
55,Deurningen,6.838,52.301,28
112,Emmer-Compascuum,7.04,52.812,55
46,Beers,5.824,51.725,28
66,Ootmarsum,6.9,52.41,55
66,Bellingwolde,7.167,53.12,66
66,Elsendorp,5.77,51.582,24
24,Heumen,5.843,51.764,20
55,Bakel,5.74,51.503,39
66,Havelte,6.234,52.774,33
39,Wapse,6.268,52.861,24
66,Malden,5.854,51.784,39
46,De Vecht,6.04,52.258,20
33,Landhorst,5.79,51.617,28
33,Veessen,6.089,52.378,24
39,Eenrum,6.461,53.364,24
39,Beuningen,6.999,52.359,20
24,Oosterhuizen,6.007,52.158,20
55,Wanroij,5.82,51.658,24
24,Windesheim,6.131,52.447,20
39,Someren,5.716,51.385,20
39,Teuge,6.051,52.237,24
39,Molenhoek,5.871,51.766,20
55,Ruinerwold,6.248,52.723,20
39,Den Nul,6.11,52.358,20
33,Loenen,6.019,52.116,20
33,Uffelte,6.28,52.79,24
39,Ommel,5.75,51.422,20
46,Velp,5.975,51.994,24
24,Den Horn,6.444,53.227,20
24,Vlierden,5.761,51.446,20
28,Mook,5.884,51.752,20
192,Cuijk,5.877,51.731,79
33,Een,6.393,53.077,28
39,Aduard,6.459,53.256,28
160,Asten,5.748,51.405,39
28,Haps,5.863,51.688,24
28,Den Andel,6.51,53.386,20
94,Someren-Eind,5.732,51.358,24
33,Wijthmen,6.175,52.49,24
94,Wijhe,6.135,52.385,39
55,Appelscha,6.351,52.955,28
24,Altweerterheide,5.68,51.22,24
33,Terwolde,6.099,52.282,24
46,Laar,5.706,51.276,20
39,Diever,6.32,52.855,39
46,Beek,5.926,51.829,28
39,Oosteinde,6.28,52.742,20
46,Laag Zuthem,6.174,52.459,28
46,Ooij,5.94,51.854,20
55,Baflo,6.513,53.363,24
276,Weert,5.701,51.251,134
33,Roderesch,6.425,53.115,20
66,Veenhuizen,6.394,53.031,28
39,Klarenbeek,6.069,52.168,39
66,Twello,6.098,52.236,39
33,Heusden,5.765,51.384,20
94,Deurne,5.796,51.458,66
24,Ravenswoud,6.381,52.966,20
28,Loo,5.989,51.93,20
55,Gendt,5.971,51.877,33
94,Groesbeek,5.934,51.779,39
24,Plasmolen,5.918,51.736,20
33,Rijkevoort,5.886,51.657,24
24,Sint Agatha,5.911,51.713,20
33,Lathum,6.021,51.987,20
33,Sint Anthonis,5.881,51.628,33
55,Punthorst,6.263,52.612,20
46,Westerbeek,5.864,51.582,20
79,Oploo,5.874,51.607,20
55,Langelo,6.445,53.093,20
66,De Wijk,6.287,52.673,28
66,Diepenveen,6.146,52.289,24
79,Warffum,6.561,53.392,46
39,Breedeweg,5.942,51.761,20
39,Ansen,6.335,52.782,20
39,Duiven,6.016,51.945,28
28,IJhorst,6.291,52.659,20
24,Westervelde,6.44,53.054,20
112,Stramproy,5.72,51.195,46
46,Hoonhorst,6.229,52.486,20
39,Hoogkerk,6.5,53.206,28
46,Sauwerd,6.533,53.294,28
39,Laag-Soeren,6.078,52.082,20
55,Elshof,6.2,52.394,24
79,Hoogersmilde,6.396,52.906,33
134,Norg,6.457,53.066,55
39,Adorp,6.535,53.275,20
55,Koekange,6.321,52.699,20
66,Liessel,5.822,51.413,39
28,Oeffelt,5.935,51.698,20
28,Steenenkamer,6.149,52.245,20
24,De Steeg,6.063,52.02,20
94,Leuth,5.993,51.838,24
66,Milsbeek,5.95,51.726,24
33,Eemster,6.383,52.853,20
55,Peize,6.495,53.149,33
24,Groessen,6.033,51.932,20
46,Broekland,6.199,52.363,28
28,Hall,6.103,52.111,20
24,Koekangerveld,6.335,52.716,20
24,Nederweert-Eind,5.775,51.274,20
112,Heino,6.233,52.438,46
33,Kekerdom,6.011,51.865,20
112,Dalfsen,6.261,52.51,79
39,Wilp,6.151,52.219,24
94,Ruinen,6.359,52.763,66
28,Beugen,5.939,51.673,20
39,Giesbeek,6.065,51.992,20
39,Ellecom,6.087,52.033,20
66,Voorst,6.142,52.171,28
160,Dieren,6.097,52.054,66
33,Empe,6.138,52.154,20
66,Pannerden,6.038,51.889,24
28,Onderdendam,6.588,53.336,24
39,Usquert,6.613,53.403,24
192,Boxmeer,5.946,51.648,66
46,Ospeldijk,5.815,51.32,20
55,Wesepe,6.216,52.331,33
39,Eelderwolde,6.539,53.181,20
46,Ysselsteyn,5.896,51.49,46
112,Zevenaar,6.071,51.932,66
24,Oranje,6.446,52.909,24
1702,Groningen,6.56,53.215,822
28,Haler,5.779,51.187,20
39,Ell,5.796,51.223,28
46,Oeken,6.147,52.112,20
192,Bedum,6.597,53.302,66
46,Heijen,5.977,51.674,20
24,Noordwolde,6.589,53.272,20
46,Oudleusen,6.312,52.534,24
24,Sambeek,5.966,51.637,20
39,Bunne,6.533,53.118,20
46,Bovensmilde,6.482,52.977,24
24,Leuvenheim,6.141,52.074,20
33,Veeningen,6.37,52.671,24
39,Merselo,5.928,51.529,24
66,Zuidwolde,6.591,53.261,28
46,Epse,6.201,52.225,20
39,Kantens,6.631,53.366,20
66,Overloon,5.947,51.572,33
46,Neerkant,5.866,51.368,20
112,Gorssel,6.198,52.204,33
66,Brummen,6.155,52.091,28
276,Raalte,6.269,52.385,94
66,Echten,6.399,52.712,28
28,Vortum-Mullem,5.977,51.619,20
28,Colmschate,6.223,52.249,20
66,Eelde-Paterswolde,6.561,53.138,28
39,Donderen,6.546,53.095,20
33,Kelpen-Oler,5.823,51.221,20
55,Hunsel,5.811,51.188,20
55,Middelstum,6.642,53.348,39
33,Angerlo,6.132,51.995,20
28,Borgharen,5.689,50.879,20
79,Doesburg,6.141,52.012,33
39,Ven-Zelderheide,6.025,51.711,24
46,Leveroy,5.844,51.25,20
160,Uithuizen,6.673,53.405,79
39,Herwen,6.1,51.885,20
28,Heide,5.95,51.502,20
79,Meijel,5.888,51.345,46
46,Babberich,6.112,51.908,20
55,Zeijen,6.546,53.048,24
24,Groeningen,5.997,51.608,20
112,Heeten,6.281,52.333,46
46,Hijken,6.496,52.896,24
46,Afferden,6.012,51.635,28
39,Vilsteren,6.352,52.511,20
39,Helenaveen,5.915,51.389,24
39,Didam,6.133,51.938,33
39,Spier,6.47,52.819,24
33,Loil,6.14,51.954,20
66,Eefde,6.224,52.166,24
79,Pesse,6.455,52.772,39
39,Balkbrug,6.391,52.601,28
55,Steenderen,6.187,52.064,24
160,Maastricht,5.707,50.856,134
94,Lemelerveld,6.335,52.445,46
331,Venray,5.981,51.53,134
55,Lettele,6.273,52.276,20
28,Berg,5.772,51.005,20
94,Haren,6.613,53.172,39
94,Vries,6.578,53.077,46
24,Fluitenberg,6.453,52.736,20
112,Zuidwolde,6.429,52.672,39
28,Thesinge,6.651,53.268,20
39,Thorn,5.841,51.163,24
46,Heibloem,5.896,51.301,28
46,Leunen,5.98,51.508,20
33,Sint Annen,6.665,53.298,20
39,Urmond,5.775,50.992,20
33,Garmerwolde,6.648,53.249,20
39,Mariënheem,6.323,52.382,24
55,Stein,5.766,50.968,33
28,Illikhoven,5.805,51.061,20
28,Grathem,5.858,51.192,20
39,Geulle,5.749,50.922,20
66,Witharen,6.395,52.562,28
476,Assen,6.561,53.003,160
276,Beilen,6.512,52.86,112
46,Baexem,5.881,51.227,20
33,Rothem,5.742,50.878,20
55,Meerstad,6.652,53.222,39
66,Bathmen,6.286,52.25,55
24,Stevensweert,5.846,51.131,20
28,Oost-Maarland,5.711,50.795,20
39,Stedum,6.692,53.322,24
33,Uithuizermeeden,6.727,53.415,28
46,Grashoek,5.943,51.36,20
230,Eijsden,5.708,50.779,66
24,Baak,6.225,52.076,20
33,Garsthuizen,6.713,53.369,20
24,Glimmen,6.63,53.14,24
33,Holtum,5.82,51.048,20
55,America,5.978,51.437,20
55,Maashees,6.031,51.572,24
28,Onnen,6.639,53.159,20
24,Toldijk,6.222,52.053,20
66,Linde,6.447,52.639,24
28,Oostrum,6.018,51.529,20
28,Tynaarlo,6.612,53.078,20
66,Wijster,6.516,52.817,33
24,Aijen,6.042,51.584,20
39,Okkenbroek,6.321,52.299,20
24,Spijk,6.15,51.849,20
24,Roggel,5.921,51.261,20
79,Luttenberg,6.369,52.405,33
276,Hoogeveen,6.491,52.725,192
39,Ulestraten,5.78,50.905,24
24,Stuifzand,6.502,52.749,20
46,Harfsen,6.297,52.208,33
66,Heel,5.894,51.18,28
66,Beek,5.798,50.94,24
160,Ommen,6.421,52.525,55
94,Dedemsvaart,6.451,52.598,79
28,Raar,5.779,50.886,20
33,Bemelen,5.764,50.848,20
33,Wichmond,6.258,52.09,20
33,Mesch,5.731,50.764,20
46,Loon,6.612,53.013,24
79,Maasbracht,5.888,51.145,33
79,Wehl,6.211,51.96,39
24,Limbricht,5.836,51.013,20
55,Nieuw Heeten,6.352,52.32,33
28,Cadier en Keer,5.762,50.828,28
46,Oirlo,6.036,51.511,20
33,Alteveer,6.489,52.676,24
24,Gebroek,5.872,51.096,20
46,Zijldijk,6.756,53.394,20
24,Loerbeek,6.2,51.92,20
46,Berg,5.782,50.863,24
33,Castenray,6.035,51.49,20
55,Drijber,6.538,52.792,20
24,Westerbroek,6.687,53.184,20
39,Ten Post,6.729,53.297,20
28,Harkstede,6.699,53.213,24
24,Beegden,5.92,51.188,20
46,Ekehaar,6.604,52.953,24
66,Almen,6.302,52.158,33
24,Zeegse,6.648,53.068,20
94,Loppersum,6.745,53.331,39
39,Dijkerhoek,6.351,52.28,33
24,Noordlaren,6.668,53.121,20
55,Nieuwstadt,5.862,51.037,24
39,Slek,5.883,51.085,20
94,Siebengewald,6.109,51.649,33
33,Sint Geertruid,5.768,50.797,20
28,Koningslust,5.995,51.357,24
24,Genhout,5.823,50.927,20
24,Woltersum,6.733,53.272,20
55,Horn,5.941,51.211,20
33,Zwiggelte,6.587,52.873,20
46,Kilder,6.232,51.938,20
24,Drogteropslagen,6.496,52.623,24
24,Noordscheschut,6.535,52.723,20
39,'t Zandt,6.774,53.367,28
24,Schimmert,5.825,50.908,20
28,Hegelsom,6.039,51.439,20
39,Tiendeveen,6.544,52.747,20
46,Langerak,6.255,51.986,20
46,Spaubeek,5.841,50.938,20
33,Zuidlaren,6.679,53.094,20
39,Hollandscheveld,6.537,52.706,24
94,Well,6.091,51.549,39
24,Stokkum,6.221,51.877,20
55,Sittard,5.874,51.003,24
28,Garrelsweer,6.764,53.31,20
66,Gasteren,6.664,53.037,28
66,Vorden,6.312,52.104,46
28,Linne,5.938,51.155,20
66,Meerlo,6.087,51.514,28
66,Mheer,5.792,50.781,20
66,Valkenburg,5.831,50.869,55
33,Keijenborg,6.295,52.032,20
28,Foxhol,6.725,53.168,20
28,Sibbe,5.824,50.845,20
94,Oudeschip,6.823,53.431,33
55,Kolham,6.733,53.183,20
79,Westerbork,6.61,52.851,46
24,Wirdum,6.786,53.323,20
24,Kropswolde,6.723,53.147,20
66,De Groeve,6.71,53.111,20
28,Puth,5.875,50.954,20
39,Tienray,6.093,51.495,20
55,Margraten,5.821,50.82,39
66,Laren,6.365,52.192,28
24,Leermens,6.799,53.346,20
33,Blitterswijck,6.108,51.532,20
160,Hengelo,6.31,52.049,33
28,Braamt,6.265,51.925,20
46,Montfort,5.95,51.123,24
66,Zeddam,6.259,51.904,20
24,Godlinze,6.814,53.372,20
46,Hulsberg,5.858,50.89,20
33,Melderslo,6.088,51.461,20
24,Noorbeek,5.81,50.769,20
55,'s-Heerenberg,6.253,51.879,55
33,Overschild,6.785,53.282,24
24,Anloo,6.698,53.043,20
24,Velswijk,6.307,52.012,20
33,Anderen,6.685,53.002,20
33,Schuinesloot,6.553,52.644,20
66,Elp,6.644,52.884,24
33,Mantinge,6.614,52.802,24
79,Holten,6.416,52.279,46
55,Nieuw-Balinge,6.602,52.768,33
24,Garminge,6.624,52.82,20
55,Den Ham,6.49,52.464,39
276,Doetinchem,6.298,51.965,192
94,Nuth,5.882,50.915,39
39,Reijmerstok,5.837,50.8,20
79,Grolloo,6.671,52.936,39
55,Slagharen,6.556,52.626,46
39,Doenrade,5.908,50.969,20
24,Asselt,6.013,51.226,20
33,Kranenburg,6.358,52.102,24
24,Wijnandsrade,5.884,50.903,20
94,Elim,6.581,52.682,20
39,Annen,6.723,53.058,20
39,Oirsbeek,5.908,50.95,28
33,Schin op Geul,5.87,50.851,20
28,Klimmen,5.881,50.876,20
33,Froombosch,6.78,53.193,20
33,Beesel,6.041,51.268,20
28,Vaesrade,5.906,50.93,20
66,Maria Hoop,5.971,51.09,28
112,Koningsbosch,5.958,51.052,46
33,Lutten,6.572,52.612,20
24,Sint Odiliënberg,6.003,51.146,20
39,Melick,6.009,51.16,20
79,Swalmen,6.042,51.234,33
39,Exel,6.415,52.184,20
28,Nieuwlande,6.61,52.698,20
55,Slochteren,6.805,53.22,28
24,Jabeek,5.942,50.98,20
24,Azewijn,6.305,51.887,24
24,Schildwolde,6.815,53.233,20
39,Oud Annerveen,6.762,53.088,20
134,Lochem,6.411,52.159,94
55,Slenaken,5.86,50.769,24
55,Witteveen,6.661,52.814,28
24,Merkelbeek,5.94,50.954,20
46,Broekhuizenvorst,6.157,51.495,20
24,Boukoul,6.046,51.215,20
79,Geesbrug,6.633,52.725,20
46,Wijlre,5.893,50.833,20
39,Kiel-Windeweer,6.78,53.114,28
39,Baarlo,6.095,51.33,24
66,Holwierde,6.871,53.358,24
28,Boekend,6.116,51.376,20
46,Steendam,6.843,53.276,24
94,Reuver,6.079,51.283,46
28,Appingedam,6.859,53.318,24
46,De Krim,6.616,52.65,28
33,Asenray,6.049,51.192,20
46,Netterden,6.313,51.857,24
24,Lottum,6.157,51.46,20
46,Daarle,6.537,52.437,20
79,Grubbenvorst,6.143,51.421,39
28,Mariënberg,6.574,52.511,20
39,Kunrade,5.932,50.876,28
66,Posterholt,6.033,51.122,24
46,Beerzerveld,6.574,52.493,20
55,Belfeld,6.116,51.311,20
33,Geerdijk,6.57,52.476,20
55,Lomm,6.171,51.447,20
134,Vroomshoop,6.565,52.461,46
79,Brunssum,5.97,50.943,28
46,Schinveld,5.98,50.967,20
66,Veldhoek,6.411,52.046,28
160,Siddeburen,6.865,53.249,55
79,Herkenbosch,6.061,51.154,28
112,Rijssen,6.514,52.307,79
55,Barchem,6.444,52.125,28
55,Dalerpeel,6.66,52.679,24
39,Ubachsberg,5.945,50.853,20
28,Zwinderen,6.678,52.727,20
397,Hardenberg,6.621,52.57,134
39,Eexterveen,6.802,53.054,24
33,Eys,5.937,50.826,20
28,Gees,6.689,52.748,20
28,Mechelen,5.926,50.796,20
55,Markelo,6.495,52.235,39
24,Daarlerveen,6.578,52.442,20
230,Delfzijl,6.909,53.329,134
28,Hoge Hexel,6.563,52.398,24
33,Wezup,6.72,52.811,20
94,Bergentheim,6.614,52.527,33
24,Ane,6.649,52.615,20
24,Schandelo,6.19,51.421,24
39,De Kiel,6.746,52.863,20
24,Ulft,6.377,51.892,20
55,Aalden,6.72,52.79,24
28,Vlodrop,6.079,51.132,20
46,Silvolde,6.386,51.906,20
55,Zuidbroek,6.863,53.165,24
55,Noordbroek,6.873,53.192,24
46,Heerlen,5.983,50.885,20
66,Meedhuizen,6.911,53.286,24
39,Oosterhesselen,6.717,52.758,39
66,Halle,6.43,51.991,39
39,'t Ven,6.194,51.384,20
134,Schoonoord,6.759,52.844,55
79,Gramsbergen,6.673,52.611,33
66,Muntendam,6.869,53.136,28
134,Borger,6.793,52.924,66
46,Simpelveld,5.983,50.836,39
24,Vijlen,5.965,50.79,20
24,Hoogenweg,6.663,52.566,20
33,Westerhaar-Vriezenveensewijk,6.621,52.453,28
55,Wildervank,6.858,53.074,24
28,Nieuwediep,6.851,53.045,20
46,Wierden,6.594,52.359,33
55,Megchelen,6.394,51.838,33
94,Vriezenveen,6.614,52.407,39
28,Landgraaf,6.025,50.907,20
24,Bruchterveld,6.662,52.53,24
33,Ees,6.806,52.909,20
66,Gelselaar,6.527,52.169,24
46,Enter,6.577,52.294,33
24,Mariënvelde,6.471,52.012,20
46,Geesteren,6.526,52.139,20
46,Gasselternijveen,6.848,52.987,46
46,Wachtum,6.751,52.724,20
28,Lemiers,5.993,50.786,20
24,Heelweg-West,6.465,51.971,20
230,Goor,6.57,52.236,55
66,Kloosterhaar,6.67,52.495,28
33,Buinen,6.836,52.933,20
39,Aadorp,6.629,52.379,20
39,Nieuw Scheemda,6.942,53.21,24
55,Dalen,6.757,52.701,28
28,Ommelanderwijk,6.903,53.091,20
33,Meeden,6.926,53.139,28
160,Coevorden,6.75,52.664,79
55,Eygelshoven,6.059,50.893,20
55,De Pollen,6.666,52.433,20
276,Vaals,6.014,50.773,66
28,Nieuwolda,6.974,53.244,20
94,Sleen,6.802,52.773,46
39,Zieuwent,6.519,52.005,24
94,Kerkrade,6.068,50.862,39
24,Breedenbroek,6.471,51.875,20
24,Noordijk,6.576,52.145,20
28,Drouwenermond,6.89,52.974,20
46,Odoorn,6.847,52.851,46
276,Almelo,6.661,52.356,79
33,Harreveld,6.518,51.979,20
79,Exloo,6.861,52.883,24
66,Buinerveen,6.883,52.936,24
24,Gasselternijveenschemond,6.909,52.997,20
39,Erm,6.819,52.755,20
28,Langeveen,6.713,52.47,20
55,De Heurne,6.493,51.891,20
46,Bornerbroek,6.655,52.308,39
55,Beltrum,6.563,52.067,24
46,Haarlo,6.581,52.112,20
66,Dinxperlo,6.487,51.863,46
33,Boven Pekela,6.935,53.035,28
28,Klijndijk,6.86,52.831,20
46,Lintelo,6.516,51.925,24
55,Nieuwe Pekela,6.964,53.079,24
46,Termunten,7.045,53.297,20
46,Hengevelde,6.638,52.2,33
79,Neede,6.614,52.135,28
33,Geesteren,6.735,52.421,24
66,Lichtenvoorde,6.57,51.989,55
39,Valthe,6.899,52.846,24
39,Veenoord-Nieuw-Amsterdam,6.853,52.711,39
46,2e Exloërmond,6.932,52.908,28
39,Lievelde,6.592,52.009,20
331,Stadskanaal,6.962,52.983,94
28,Nieuw-Buinen,6.96,52.97,20
79,Oude Pekela,7.013,53.106,33
112,Groenlo,6.612,52.042,39
66,Bentelo,6.684,52.225,24
55,Alteveer,6.995,53.053,20
39,Zenderen,6.724,52.324,20
33,Zandpol,6.866,52.695,20
276,Winschoten,7.035,53.146,79
33,Barlo,6.589,51.956,20
66,Weerdinge,6.919,52.82,20
28,Manderveen,6.779,52.445,24
46,Rietmolen,6.664,52.142,24
28,Blauwestad,7.05,53.167,20
112,Aalten,6.583,51.923,66
66,Delden,6.712,52.259,33
55,Valthermond,6.949,52.874,46
79,Albergen,6.762,52.373,28
986,Emmen,6.917,52.778,192
66,Tubbergen,6.785,52.407,66
79,Schoonebeek,6.885,52.662,39
24,Vledderveen,7.005,52.984,20
24,Finsterwolde,7.085,53.198,20
39,Sint Isidorushoeve,6.702,52.176,20
79,Borne,6.75,52.3,28
24,Hertme,6.761,52.319,20
33,Bredevoort,6.621,51.941,20
39,Onstwedde,7.041,53.033,33
33,Wedderveer,7.067,53.086,20
33,Blijham,7.077,53.108,33
24,Fleringen,6.806,52.382,20
39,Beckum,6.742,52.212,28
112,Musselkanaal,7.016,52.932,46
39,Nieuw-Weerdinge,6.988,52.857,20
55,Vasse,6.833,52.434,24
46,Wedde,7.075,53.069,28
112,Haaksbergen,6.735,52.159,79
46,Mussel,7.038,52.954,20
39,Saasveld,6.806,52.332,24
66,Nieuw-Dordrecht,6.969,52.749,24
46,Rekken,6.723,52.096,33
112,Hengelo,6.792,52.264,46
28,Ter Apelkanaal,7.042,52.919,20
39,Reutum,6.846,52.391,28
66,Meddo,6.705,52.013,33
28,Veele,7.097,53.04,20
134,Klazienaveen,6.984,52.72,46
28,Vriescheloo,7.114,53.07,20
39,Oudeschans,7.141,53.138,20
55,Weerselo,6.854,52.351,39
66,Boekelo,6.799,52.205,33
79,Vlagtwedde,7.111,53.026,66
55,Drieborg,7.181,53.207,20
55,Veelerveen,7.128,53.056,24
230,Winterswijk,6.72,51.973,192
192,Ter Apel,7.065,52.88,79
28,De Maten,7.06,52.86,20
39,Jipsingboertange,7.1,52.965,24
55,Nieuw-Schoonebeek,6.986,52.647,20
55,Weiteveen,6.999,52.672,39
28,Barger-Compascuum,7.042,52.755,28
94,Bad Nieuweschans,7.21,53.182,46
28,Zwartemeer,7.043,52.719,28
46,Buurse,6.829,52.147,46
33,Jipsinghuizen,7.155,52.982,20
46,Rossum,6.923,52.353,33
66,Sellingen,7.149,52.947,55
1183,Enschede,6.889,52.216,476
39,Bourtange,7.189,53.009,39
94,Oldenzaal,6.93,52.311,66
46,Lattrop,6.976,52.426,20
55,Lonneker,6.913,52.25,28
276,Denekamp,7.006,52.379,55
33,De Lutte,6.987,52.314,28
39,Noord Deurningen,7.025,52.398,20
94,Losser,7.002,52.263,39
28,Glane,7.005,52.232,20
46,Overdinkel,7.035,52.236,24
