rs,name,lon,lat,r1
1183,Douglas-Willaston,-4.48,54.163,476
331,Ramsey,-4.384,54.324,112
112,Port Saint Mary,-4.747,54.082,112
33,London,-0.125,51.505,20
2450,Birmingham + Wolverhampton,-1.961,52.513,986
2042,Manchester + Stockport + Bolton,-2.264,53.5,822
134,Liverpool + Birkenhead + St Helens,-2.914,53.414,134
10528,Glasgow,-4.301,55.856,2042
476,Leeds + Bradford,-1.655,53.806,331
2450,Newcastle upon Tyne + Sunderland,-1.511,54.97,986
685,Nottingham + Long Eaton,-1.181,52.949,397
39,Bristol,-2.563,51.464,20
28,Rotherham,-1.459,53.373,20
230,Leicester,-1.128,52.631,230
1183,Portsmouth + Gosport + Havant,-1.081,50.834,571
1183,Belfast,-5.939,54.609,986
192,Bournemouth + Poole + Christchurch,-1.902,50.738,192
822,Middlesbrough + Stockton-on-Tees,-1.259,54.558,331
331,Stoke-on-Trent + Newcastle-under-Lyme,-2.181,53.017,331
230,Southampton,-1.385,50.916,134
397,Kingston upon Hull,-0.357,53.764,397
230,Brighton,-0.169,50.839,230
79,Wakefield + Dewsbury,-1.6,53.698,33
571,Southend-on-Sea,0.656,51.558,397
94,Plymouth,-4.144,50.393,39
822,Luton,-0.451,51.896,331
397,Medway,0.542,51.372,134
822,Blackpool,-3.024,53.852,331
331,Milton Keynes,-0.767,52.034,134
276,Woking + Weybridge,-0.501,51.35,192
79,Aldershot + Farnborough + Frimley,-0.745,51.289,79
276,Preston,-2.697,53.761,134
28,Oxford,-1.237,51.75,20
24,Dundee,-2.937,56.475,20
986,Ipswich,1.167,52.057,397
79,Wigan + Skelmersdale,-2.673,53.54,79
134,Blackburn + Darwen,-2.48,53.738,94
476,Grimsby + Cleethorpes,-0.076,53.549,192
134,Worthing,-0.382,50.825,112
476,Thanet,1.389,51.366,331
94,Burnley + Nelson,-2.239,53.806,94
112,Halton,-2.718,53.35,66
24,Colchester,0.896,51.889,20
397,Torbay,-3.549,50.456,230
24,High Wycombe,-0.734,51.63,20
33,Eastbourne,0.287,50.789,20
160,Bedford,-0.459,52.135,160
331,Basingstoke,-1.096,51.265,134
230,Royal Leamington Spa + Warwick,-1.545,52.286,94
94,Hamilton,-4.069,55.79,66
112,Grays + South Ockenden,0.318,51.491,79
192,Coatbridge + Airdrie,-3.993,55.858,46
79,Tamworth,-1.67,52.621,79
160,Cannock,-2.015,52.689,66
24,Hartlepool,-1.224,54.687,20
160,Gravesham,0.371,51.431,55
66,Motherwell + Wishaw,-3.963,55.789,46
46,Southport,-2.991,53.647,20
24,Ashford,0.873,51.143,20
192,Aylesbury,-0.812,51.815,160
230,Crewe,-2.452,53.095,94
24,Guildford,-0.574,51.249,20
28,Lowestoft,1.726,52.475,20
112,Rugby,-1.267,52.372,112
276,Tunbridge Wells,0.257,51.137,160
230,Great Yarmouth,1.719,52.59,79
66,Washington,-1.537,54.898,39
134,Newbury + Thatcham,-1.303,51.399,134
24,Shrewsbury,-2.742,52.713,20
28,Sutton in Ashfield + Kirkby in Ashfield,-1.263,53.121,28
397,Loughborough,-1.222,52.767,112
134,Eastleigh,-1.373,50.979,46
230,Redhill + Reigate,-0.177,51.237,94
46,Ayr + Prestwick,-4.615,55.467,20
230,Corby,-0.706,52.485,192
192,Kettering,-0.711,52.396,66
160,Keighley,-1.914,53.862,79
192,Folkestone,1.162,51.086,134
192,Canterbury,1.076,51.281,112
94,Wellingborough,-0.701,52.302,79
134,Leyland,-2.681,53.696,55
476,Banbury,-1.342,52.061,192
33,Herringthorpe,-1.331,53.423,20
112,Welwyn Garden City,-0.196,51.803,66
24,Kirkcaldy,-3.167,56.122,20
685,Scarborough,-0.416,54.285,331
134,Sittingbourne,0.736,51.343,79
571,Winchester,-1.323,51.064,66
66,Yateley + Sandhurst + Blackwater,-0.804,51.341,33
230,Bridgend,-3.58,51.511,94
160,Grantham,-0.64,52.914,160
79,Ilkeston,-1.31,52.973,55
192,Bridgwater,-2.996,51.127,79
160,Stoke Gifford + Patchway,-2.554,51.529,55
397,Ashington,-1.564,55.175,134
134,Llanelli,-4.146,51.685,94
46,Rushden,-0.598,52.294,46
39,Mexborough + Swinton + Wath upon Dearne,-1.308,53.492,39
79,Dover,1.295,51.136,66
28,Boston,-0.025,52.976,20
55,Hatfield (Hertfordshire),-0.233,51.76,33
46,New Milton + Highcliffe,-1.674,50.747,39
24,Newark,-0.796,53.067,20
230,Haywards Heath,-0.097,51.001,94
94,Borehamwood,-0.275,51.659,66
24,Inverness,-4.227,57.477,20
94,Bromsgrove,-2.061,52.329,66
33,Exmouth,-3.4,50.626,20
46,Grangemouth + Polmont,-3.717,55.997,33
94,Ditton + Snodland,0.443,51.31,39
66,Yeadon + Guiseley,-1.695,53.865,46
46,Rochford + Hockley,0.679,51.597,33
46,Johnstone,-4.512,55.837,39
276,St Neots,-0.269,52.226,112
94,Kimberworth,-1.389,53.44,24
134,Rhyl + Kinmel Bay,-3.491,53.315,112
66,Plympton,-4.047,50.391,33
33,Stanford-le-Hope + Corringham,0.441,51.525,33
331,Spalding,-0.153,52.788,134
55,Banstead,-0.224,51.311,24
28,Brighouse,-1.786,53.706,20
55,Tonypandy + Porth,-3.434,51.621,24
192,Sheerness + Minster,0.785,51.43,66
46,Bury St Edmunds,0.699,52.248,20
230,Haverhill,0.433,52.084,134
192,Ryde,-1.162,50.724,55
112,Witham,0.634,51.8,66
46,Armthorpe,-1.059,53.547,28
94,Inverkeithing,-3.38,56.033,33
192,Witney,-1.485,51.787,112
66,Peterborough (West),-0.289,52.546,24
160,Stanley,-1.71,54.866,66
134,Portishead,-2.775,51.483,79
33,Milton Keynes (East),-0.694,52.029,33
112,Bideford,-4.212,51.027,79
94,Garforth + Kippax,-1.374,53.783,55
24,Hoddesdon,-0.003,51.773,20
94,Alexandria,-4.574,55.99,33
79,Consett,-1.835,54.854,55
79,Methil + Leven + Buckhaven,-3.015,56.188,66
39,Workington,-3.552,54.633,20
66,St Ives + Hayle,-5.449,50.192,66
112,Hythe (Hampshire),-1.406,50.863,39
160,Burnham-on-Sea + Highbridge,-2.989,51.236,79
112,Shotton,-3.055,53.212,79
33,Harpenden,-0.345,51.816,20
192,Selby,-1.075,53.776,94
46,Normanton,-1.413,53.7,33
230,Dorchester,-2.441,50.71,79
112,Wickham,-1.683,54.937,39
28,Peterhead,-1.795,57.506,20
397,Ely,0.259,52.403,134
24,Ferndown,-1.883,50.805,20
94,Melksham,-2.127,51.372,46
134,South Elmsall,-1.298,53.598,66
112,Tickhill + Harworth + Bawtry,-1.065,53.427,66
39,Glossop,-1.949,53.443,20
33,Bessacarr,-1.073,53.507,20
160,Shefford + Henlow + Meppershall,-0.319,52.026,46
192,Hoyland,-1.441,53.501,28
160,Bangor (Gwynedd),-4.141,53.226,160
230,Sleaford,-0.413,52.998,112
160,Sandown + Shanklin,-1.167,50.641,55
46,Saltney + Lache,-2.91,53.174,20
33,New Stevenston,-3.961,55.812,20
46,Nantwich,-2.519,53.067,39
24,Fetcham + Great Bookham,-0.364,51.285,20
79,Denny,-3.908,56.013,20
94,Tidworth + Ludgershall,-1.648,51.243,79
39,Rawmarsh,-1.336,53.464,20
112,Midsomer Norton,-2.478,51.287,66
112,Cowes,-1.299,50.76,55
112,Dursley,-2.359,51.688,79
79,Calne,-2,51.441,55
112,Wantage,-1.425,51.601,79
46,Birchgrove + Llansamlet + Pentre-dwr,-3.882,51.66,28
94,Dinnington + North Anston,-1.211,53.365,46
33,Ormskirk,-2.889,53.568,20
112,Westbury,-2.19,51.258,46
39,Brynteg + Gwersyllt,-3.025,53.066,20
66,Oxted,0.006,51.251,46
66,Gorseinon + Loughor,-4.052,51.667,46
397,Cumnock,-4.258,55.454,134
39,Somercotes + Swanwick,-1.376,53.075,20
66,Carterton,-1.596,51.764,55
94,Denby Dale,-1.64,53.583,66
66,Sedgefield + Trimdon,-1.436,54.687,55
55,Rickmansworth,-0.48,51.639,46
33,East Ardsley + Tingley,-1.558,53.726,20
55,Fair Oak + Horton Heath,-1.302,50.961,33
160,Tewkesbury,-2.145,51.99,79
79,Dorridge + Knowle,-1.749,52.387,28
28,Partington + Cadishead,-2.435,53.421,20
79,Bishop's Waltham + Shirrell Heath,-1.201,50.94,46
230,Mablethorpe + Sutton on Sea,0.269,53.327,134
160,Bourne,-0.377,52.769,79
112,Penistone,-1.631,53.524,39
28,Skipton,-2.012,53.958,20
46,Middlewich,-2.445,53.191,33
24,Mossley,-2.031,53.513,20
39,Elland,-1.841,53.684,24
24,Haslingden,-2.327,53.696,20
94,Cullompton,-3.385,50.871,39
230,Coleford,-2.606,51.796,112
66,Henley-on-Thames,-0.908,51.533,66
66,Yatton + Congresbury,-2.805,51.383,33
230,Diss,1.103,52.376,160
46,Newton Hall,-1.574,54.798,20
55,Cobham,-0.398,51.333,28
112,Sawston,0.162,52.112,79
24,Bearsted,0.568,51.27,20
39,Wivenhoe,0.957,51.863,28
66,Hoylake,-3.168,53.399,24
192,Ellon,-2.078,57.368,134
55,Mortimer + Burghfield Common,-1.062,51.39,55
39,Pill + Shirehampton,-2.681,51.483,39
55,Brynamman + Cwmgors + Glanaman,-3.892,51.801,46
46,Chalfont St Peter,-0.557,51.605,20
112,Selsey,-0.784,50.732,66
66,Norton + Askern,-1.162,53.621,46
160,Brough,-0.568,53.732,66
160,Garstang,-2.772,53.896,79
79,Braunton,-4.154,51.107,46
94,Sherborne,-2.519,50.949,55
28,South Normanton,-1.336,53.102,20
46,Broxbourne,-0.017,51.74,20
33,Newport (Shropshire),-2.378,52.771,20
94,Holbeach,0.003,52.804,79
112,Steyning,-0.316,50.885,46
476,New Romney,0.96,50.967,79
230,Cromer,1.311,52.923,94
66,Desborough,-0.818,52.444,46
66,Hatfield (South Yorkshire),-1.01,53.577,24
33,Vickerstown,-3.248,54.103,20
571,Bude,-4.537,50.831,192
55,Bolton-upon-Dearne,-1.311,53.522,24
112,Crewkerne,-2.787,50.888,79
79,Donaghadee,-5.537,54.628,55
112,Totnes,-3.689,50.432,55
94,Barnham + Fontwell,-0.645,50.843,39
79,Princes Risborough,-0.832,51.729,66
192,Amesbury,-1.77,51.17,66
160,Fordingbridge,-1.811,50.925,39
94,Polegate,0.245,50.817,24
160,Heathfield,0.254,50.969,66
28,Bagshot + Lightwater,-0.68,51.354,28
55,Shotts,-3.794,55.818,55
94,Ashbourne,-1.73,53.015,79
685,Oban,-5.473,56.41,276
276,Marlborough,-1.725,51.421,112
39,Brampton,-1.373,53.507,20
94,Storrington,-0.44,50.917,55
230,Fakenham,0.849,52.835,134
94,Eastfield,-0.396,54.243,33
55,Aberaman + Cwmbach,-3.426,51.703,20
112,Edenbridge,0.064,51.203,39
230,Malton + Norton,-0.785,54.133,160
46,Ainsdale,-3.041,53.596,24
5079,Thurso,-3.529,58.595,822
94,Narborough,-1.209,52.575,46
160,Wareham,-2.103,50.69,55
66,Sarn,-3.584,51.545,28
24,London Colney,-0.296,51.722,20
28,Hesketh Bank + Tarleton,-2.837,53.692,20
55,Coalisland,-6.682,54.54,46
39,Dalkeith,-3.05,55.893,20
66,Borough Green,0.306,51.293,55
66,Pulborough + West Chiltington Common,-0.476,50.953,33
46,Rothwell (Northamptonshire),-0.797,52.423,20
79,Freshwater + Totland,-1.525,50.683,66
55,Axbridge + Cheddar,-2.799,51.282,55
192,Millom,-3.279,54.205,46
79,Brigg,-0.485,53.555,66
134,Egremont,-3.529,54.479,55
94,Otley,-1.693,53.904,20
28,Bemerton,-1.825,51.084,20
39,Pelton,-1.609,54.875,20
160,Downham Market,0.381,52.606,94
94,Bungay,1.442,52.456,66
94,Todmorden,-2.092,53.719,66
79,Faringdon,-1.586,51.653,66
112,Thrapston,-0.535,52.398,39
134,Tenterden,0.694,51.073,94
397,Wick,-3.078,58.441,160
55,Billingshurst,-0.457,51.017,46
33,Irthlingborough,-0.615,52.325,28
160,Chipping Norton,-1.548,51.943,112
79,Grange-over-Sands,-2.937,54.183,66
39,Whitwick,-1.357,52.743,20
230,Horncastle,-0.114,53.207,134
79,Southwell,-0.956,53.076,66
94,New Mills,-1.992,53.369,28
94,Wirksworth,-1.573,53.09,33
134,Tadcaster,-1.267,53.879,55
160,Kinross,-3.422,56.215,66
94,Wootton-under-Edge + Kingswood,-2.349,51.636,39
112,Ollerton,-1.005,53.209,66
66,Long Sutton,0.108,52.796,46
112,Castle Donington,-1.338,52.842,39
33,North Ascot,-0.695,51.417,28
24,Lochgelly,-3.31,56.128,20
24,Southwater,-0.347,51.028,20
112,Chipping Ongar,0.247,51.709,66
94,Market Weighton,-0.667,53.864,66
134,Malmesbury,-2.099,51.587,94
230,Okehampton,-3.997,50.741,134
28,Great Notley,0.526,51.862,20
33,Seaton Carew,-1.192,54.662,20
94,Dymchurch + St Mary's Bay,1,51.027,46
94,Newmilns + Darvel,-4.31,55.609,79
66,Kings Hill,0.404,51.268,33
66,Burwell,0.327,52.276,33
134,Withernsea,0.03,53.728,112
192,Banff + Macduff,-2.51,57.67,192
192,Welton,-0.476,53.304,66
94,Aylsham,1.25,52.79,66
331,Leiston,1.575,52.203,134
230,Kingsbridge,-3.765,50.279,112
160,Coningsby + Tattershall,-0.178,53.105,79
46,Holmes Chapel,-2.361,53.202,39
192,Wem,-2.722,52.855,94
1183,Steornabhagh,-6.377,58.218,822
79,Pontarddulais,-4.04,51.715,39
33,Wales + Kiveton Park,-1.266,53.342,24
66,Chinnor,-0.913,51.699,46
28,Greenock,-4.736,55.939,20
55,Dartmouth,-3.586,50.35,33
94,Williton,-3.321,51.173,79
66,Blaenavon,-3.083,51.775,33
33,Newbold Verdon + Barlestone,-1.359,52.642,33
134,Epworth,-0.823,53.538,66
66,St Dennis + Foxhole + Lanjeth,-4.868,50.368,39
134,Cambourne,-0.073,52.215,94
94,New Alresford,-1.166,51.089,79
79,Elmswell + Tostock + Wetherden,0.902,52.232,46
94,Ilminster,-2.915,50.927,39
66,Bedale + Leeming,-1.573,54.294,66
28,New Whittington,-1.415,53.273,24
46,Albrighton,-2.286,52.639,39
134,Hilton,-1.632,52.871,55
66,Alrewas + Fradley,-1.761,52.724,33
79,Dalry,-4.721,55.707,33
112,Selkirk,-2.841,55.548,46
39,Marchwood,-1.449,50.893,24
79,Kibworth,-0.997,52.536,55
94,Cottenham,0.118,52.289,33
79,Twyford,-0.862,51.478,39
94,Callington,-4.311,50.507,79
230,Llandrindod Wells,-3.384,52.244,230
230,Great Torrington,-4.14,50.954,55
39,Stonehouse,-3.992,55.693,33
94,Ruskington,-0.387,53.045,33
112,Bethesda + Tregarth,-4.069,53.184,39
192,Saundersfoot + Kilgetty,-4.722,51.72,94
112,Sandwich,1.335,51.266,46
134,Market Rasen,-0.339,53.387,79
79,Liss,-0.882,51.045,28
134,Oundle,-0.477,52.484,66
192,Crumlin,-6.217,54.621,79
28,Hattersley,-2.028,53.45,20
94,Glyn-neath,-3.629,51.742,55
33,Blythe Bridge,-2.056,52.968,33
134,Axminster,-2.994,50.78,46
55,Nantyffyllon + Croeserw,-3.655,51.631,20
192,Ruthin,-3.305,53.111,66
276,Turriff,-2.458,57.539,112
134,Chudleigh,-3.615,50.597,39
94,Cranbrook,0.536,51.098,79
66,Marston Moretaine + Lidlington,-0.553,52.057,28
55,Repton + Willington,-1.549,52.843,39
39,Annesley,-1.257,53.079,20
79,Ivinghoe + Pitstone + Cheddington,-0.647,51.84,33
55,Sutton + Mepal,0.123,52.394,55
2940,St Kilda,-8.563,57.812,685
55,Drimsdale,-7.383,57.312,55
46,Bornish,-7.415,57.242,46
94,Ceann a Tuath Loch Baghasdail,-7.34,57.161,39
24,Bruernish,-7.401,56.995,24
476,Lochmaddy,-7.163,57.603,397
55,Lochportain,-7.125,57.633,55
134,Seilebost,-6.954,57.866,134
192,Hougharry,-7.518,57.609,192
39,Balmartin,-7.489,57.633,39
24,Griminish,-7.445,57.654,24
55,Bayhead,-7.445,57.586,55
33,Grenitote,-7.323,57.652,33
230,Baile nan Cailleach,-7.395,57.458,230
134,Samhla,-7.35,57.537,134
134,Islibhig,-7.113,58.135,134
24,Clachan an Luib,-7.329,57.551,24
66,Mangersta,-7.09,58.173,66
28,Uachdar,-7.347,57.479,28
46,Torlum,-7.361,57.435,46
39,Carinish,-7.311,57.524,39
55,Trumisgarry,-7.257,57.654,55
476,Gerinish,-7.365,57.353,192
55,Tangasdale,-7.514,56.97,55
94,Staoinebrig,-7.395,57.271,94
33,Craigston,-7.505,56.987,33
94,Creagorry,-7.336,57.416,94
33,Tobha Beag,-7.381,57.295,33
55,Cleat,-7.487,57.012,55
160,Port nan Long,-7.214,57.686,160
94,Hushinish,-7.096,57.996,94
24,Locheport,-7.262,57.551,24
28,Timsgarry,-7.017,58.198,28
66,Askernish,-7.399,57.188,66
39,Flodaigh,-7.27,57.477,39
46,Baile Glas,-7.261,57.5,46
33,Garraheillie,-7.376,57.174,33
230,Taobh a Deas Loch Aineort,-7.354,57.226,94
134,Eoligarry,-7.427,57.039,46
24,Taobh a Tuath Loch Aineort,-7.347,57.239,24
24,North Boisdale,-7.387,57.135,20
39,Rhughasinish,-7.29,57.38,39
55,Baile,-7.156,57.719,55
94,Cliff,-6.969,58.217,94
94,Sidinish,-7.219,57.55,94
24,Brevig,-7.442,56.959,20
28,Garrynamonie,-7.377,57.124,20
55,Àird Mhithinis,-7.414,57.004,55
55,Holmar,-7.27,57.365,55
1183,West Kilbride,-7.367,57.111,685
33,Baymore,-7.219,57.487,33
55,Carishader,-6.943,58.191,55
24,South Lochboisdale,-7.329,57.136,20
24,Reef,-6.923,58.205,24
46,Northton,-7.067,57.798,20
66,Sgarasta Bheag,-7.049,57.824,66
94,Amhuinnsuidhe,-6.996,57.964,94
28,Geshader,-6.904,58.181,28
33,Tobson,-6.873,58.243,33
28,South Glen Dale,-7.299,57.115,28
276,Eanacleit,-6.891,58.148,230
24,Coilleag,-7.299,57.074,24
24,Borve,-7.003,57.843,24
66,Bun a' Mhuillinn,-7.291,57.088,28
24,Cliasmol,-6.952,57.953,24
33,Luskentyre,-6.944,57.886,33
192,Borrowston,-6.795,58.282,160
94,Crùlabhig,-6.818,58.201,94
39,Meavaig,-6.908,57.948,39
28,Dalmore,-6.747,58.302,28
33,Scolpaig,-7.485,57.649,33
79,Claddach Kirkibost,-7.389,57.568,79
46,Ardivachar,-7.422,57.387,46
66,Mealista,-7.106,58.105,66
46,Caolis,-7.548,56.944,46
33,Eochar,-7.355,57.393,33
331,Vatersay,-7.536,56.919,134
46,Àird Uig,-7.028,58.231,46
33,Ardroil,-7.031,58.179,33
28,Mingarry,-7.395,57.212,20
24,Castlebay,-7.49,56.957,20
39,Govig,-7.055,57.972,39
24,Miavaig,-6.963,58.207,24
46,Earsary,-7.425,56.973,46
79,Lochskipport,-7.278,57.328,79
46,Giosla,-6.881,58.127,46
66,Breaclete,-6.841,58.23,66
66,Carminish,-7.005,57.756,66
24,Garenin,-6.785,58.295,20
28,Doune Carloway,-6.789,58.268,28
33,Tolsta Chaolais,-6.781,58.24,24
28,Lingarabay,-6.939,57.761,28
55,Stenscholl,-6.219,57.632,55
476,Maaruig,-6.735,57.956,192
476,Melbost Borve,-6.436,58.43,160
39,Breasclete,-6.745,58.216,20
66,Shawbost,-6.685,58.328,33
476,Middleton,-6.968,56.482,476
24,Beacravik,-6.864,57.805,24
33,Likisto,-6.852,57.828,33
28,Portnalong,-6.406,57.328,20
33,Peinlich,-6.319,57.543,33
55,Artigarvan,-7.403,54.858,33
112,Drumquin,-7.488,54.615,66
24,Garynahine,-6.706,58.189,24
66,Merkadale,-6.334,57.296,66
39,Drumahoe,-7.271,54.978,24
24,Maligar,-6.215,57.602,24
66,Grishipoll,-6.585,56.642,66
24,Tarbert,-6.803,57.9,20
79,Ardvourlie,-6.76,57.995,79
24,Brookeborough,-7.405,54.314,24
28,Bragar,-6.634,58.336,24
55,Kyles Stockinish,-6.82,57.815,55
46,Meavag,-6.799,57.866,46
33,Greosabhagh,-6.796,57.836,33
24,Urgha,-6.762,57.898,24
55,Arnol,-6.593,58.343,20
28,Ceann Tarabhaigh,-6.695,58.061,28
46,Carragreich,-6.736,57.889,46
79,Loch a' Ghainmhich,-6.609,58.175,79
397,Belleek,-8.085,54.482,160
134,Barvas,-6.519,58.355,24
24,Carnach,-6.688,57.884,24
134,Ceann a Bhàigh,-6.687,57.867,20
66,Ballantrushal,-6.488,58.392,66
134,Garrison,-8.091,54.418,46
160,Ceann Shìphoirt,-6.591,58.054,112
55,Bunavoneader,-6.848,57.936,55
46,Linshader,-6.751,58.188,46
55,Milovaig,-6.751,57.449,55
39,Eishken,-6.53,58.015,39
39,Galtrigill,-6.702,57.492,39
33,Ardhasaig,-6.847,57.92,33
46,Cabharstadh,-6.47,58.091,46
66,Àird Dhail,-6.328,58.473,66
66,Ramasaig,-6.719,57.4,66
33,Uig,-6.682,57.478,33
94,Orinsay,-6.466,58.02,94
230,Trumpan,-6.634,57.559,160
28,Cromore,-6.414,58.104,28
134,Quidnish,-6.893,57.78,134
28,Gravir,-6.423,58.05,28
33,Nis,-6.263,58.482,28
276,Colbost,-6.645,57.445,192
39,Eoropie,-6.253,58.501,20
46,Aird Tong,-6.34,58.245,20
46,Gress,-6.283,58.301,20
24,Kilkenneth,-6.968,56.493,24
28,Uiginish,-6.597,57.442,28
39,Lusta,-6.563,57.515,39
66,Balevullin,-6.951,56.515,66
46,Kilmuir,-6.567,57.43,46
55,North Tolsta,-6.217,58.349,20
28,Heylipol,-6.914,56.484,28
134,Kesh,-7.721,54.522,46
24,Balemartine,-6.897,56.466,24
28,Hynish,-6.897,56.446,28
28,Lower Bayble,-6.212,58.207,20
46,Bornesketaig,-6.394,57.654,46
55,Portnaguran,-6.162,58.261,55
24,Portvoller,-6.162,58.249,20
55,Ose,-6.47,57.381,55
79,Balgown,-6.376,57.63,20
46,Vaul,-6.799,56.534,46
160,Idrigill,-6.377,57.589,160
79,Cuidrach,-6.383,57.549,79
192,Irvinestown,-7.631,54.472,94
28,Earlish,-6.364,57.565,20
79,Sion Mills,-7.473,54.784,28
160,Struan,-6.419,57.356,112
66,Kingsburgh,-6.354,57.513,66
134,Talisker,-6.44,57.283,134
28,Balnaknock,-6.319,57.581,28
160,A' Chill,-6.509,57.056,160
397,Enniskillen,-7.631,54.345,192
66,New Buildings,-7.357,54.959,28
46,Park Bernisdale,-6.334,57.477,46
55,Glen Bernisdale,-6.33,57.452,55
1702,Londonderry,-7.319,54.999,571
66,Flodigarry,-6.249,57.659,20
94,Kinawley,-7.648,54.227,39
24,Digg,-6.244,57.641,24
192,Arileod,-6.63,56.599,192
79,Eynort,-6.344,57.254,79
55,Dunnamanagh,-7.31,54.874,55
112,Newtownstewart,-7.378,54.716,66
94,Dromore,-7.458,54.513,66
28,Borve,-6.254,57.452,20
28,Friesland,-6.581,56.599,28
46,Glengrasco,-6.261,57.421,24
112,Ellishadder,-6.181,57.611,112
28,Drumuie,-6.244,57.438,28
39,Glenmore,-6.263,57.379,33
94,Derrylin,-7.566,54.193,66
66,Culnacnoc,-6.162,57.582,66
55,Arinagour,-6.531,56.622,55
94,Tempo,-7.46,54.378,46
79,Eglinton,-7.177,55.026,66
79,Harris,-6.382,56.976,79
112,Bualintur,-6.293,57.204,112
476,Portree,-6.198,57.404,476
55,Crossal,-6.231,57.307,55
94,Maguiresbridge,-7.46,54.294,33
28,Torvaig,-6.176,57.421,20
134,Sorisdale,-6.459,56.68,134
24,Penifiler,-6.182,57.394,20
230,Lisnaskea,-7.443,54.253,94
160,Claudy,-7.153,54.913,66
94,Conardan,-6.151,57.366,33
160,Fintona,-7.317,54.498,79
476,Kinloch,-6.278,57.009,331
192,Sconser,-6.116,57.311,79
24,Peinachorrain,-6.109,57.325,24
39,Ballykelly,-7.021,55.043,33
39,Oskaig,-6.079,57.367,39
55,Balmeanach,-6.062,57.394,55
66,Park,-7.081,54.865,33
28,Inverarish,-6.065,57.343,28
112,Brochel,-6.028,57.442,79
397,Port Mòr,-6.226,56.835,397
24,Drinishader,-6.768,57.852,24
94,Rhenigidale,-6.683,57.919,94
66,Shiltenish,-6.613,58.082,66
46,Liurbost,-6.478,58.143,33
33,Totaig,-6.669,57.458,33
134,Beinn Casgro,-6.395,58.148,55
79,Claigan,-6.618,57.488,79
66,Hallin,-6.59,57.535,66
79,Calbost,-6.388,58.068,79
55,Holm,-6.331,58.199,20
94,Buaile na h-Ochd,-6.295,58.273,46
46,Aignish,-6.28,58.207,39
79,Gleann Tholastaidh,-6.232,58.32,79
66,Balephuil,-6.939,56.454,66
112,Orbost,-6.567,57.395,112
28,Garrabost,-6.235,58.219,20
24,Harlois,-6.515,57.385,20
192,Castlederg,-7.592,54.708,79
79,Sheshader,-6.173,58.228,20
39,Scuddaborg,-6.386,57.607,39
94,Scarinish,-6.809,56.501,94
134,Coishletter,-6.431,57.468,94
33,Flashader,-6.419,57.496,33
331,Strabane,-7.463,54.824,112
66,Caoles,-6.747,56.541,66
230,Balmacqueen,-6.292,57.686,230
39,Treaslane,-6.352,57.494,39
112,Ballinamallard,-7.592,54.422,46
55,Fernilea,-6.376,57.318,55
66,Culmore,-7.274,55.044,33
66,Lisbellaw,-7.537,54.318,28
79,Kilmory,-6.359,57.05,79
24,Achachork,-6.195,57.431,20
66,Plumbridge,-7.25,54.769,66
39,Greysteel,-7.111,55.033,33
822,Omagh,-7.296,54.6,331
24,Upper Ollach,-6.13,57.349,24
160,Fivemiletown,-7.315,54.378,79
33,Glame,-6.064,57.41,33
160,Newtownbutler,-7.36,54.182,66
28,Arnish,-6.011,57.458,28
94,Feeny,-7.02,54.893,55
79,Lonbain,-5.861,57.506,79
33,Gruinart,-6.328,55.817,33
192,Limavady,-6.947,55.047,134
397,Murlaggan,-5.273,56.98,134
33,Elgol,-6.092,57.154,20
79,Ballymeanoch,-5.478,56.108,66
66,Haunn,-6.327,56.545,66
230,Achnaha,-6.151,56.737,230
94,Luib,-6.039,57.275,94
112,Ballygawley,-7.021,54.462,46
94,Port Wemyss,-6.503,55.676,94
79,North Fearns,-6.006,57.349,66
28,Kilnave,-6.338,55.863,28
79,Baile Mòr,-6.395,56.332,79
33,Sròndubh,-5.595,57.77,33
112,Kilmarie,-6.06,57.183,112
39,Inveralligin,-5.605,57.557,39
28,Arisaig,-5.842,56.911,20
397,Stoer,-5.337,58.202,331
28,Baramore,-5.857,56.804,28
33,Plockton,-5.65,57.34,24
33,Lower Killeyan,-6.323,55.606,33
28,Ensay,-6.294,56.556,28
112,Ardarroch,-5.599,57.396,112
160,Laga,-5.868,56.68,160
331,Carsaig,-5.979,56.324,230
28,Dunan,-6.006,57.277,28
28,Tarbet,-5.138,58.387,28
192,Oldshore Beg,-5.094,58.484,192
24,Arnisdale,-5.562,57.134,24
66,Letterfearn,-5.511,57.255,66
94,Aultgrishan,-5.801,57.802,94
55,Ardery,-5.674,56.695,55
79,Ardtalla,-6.034,55.719,79
134,Strathcoil,-5.756,56.41,134
112,Achriesgill,-4.991,58.442,112
66,Strathcanaird,-5.125,57.969,66
39,Peterburn,-5.797,57.782,39
28,Kintra,-6.348,56.343,28
55,Fidden,-6.362,56.308,55
66,Galmisdale,-6.137,56.878,66
94,Newtownhamilton,-6.576,54.192,55
79,Achiemore,-4.82,58.567,79
46,Broughshane,-6.208,54.893,33
46,Burg,-6.261,56.531,46
230,Dungiven,-6.919,54.926,94
134,Toberonochy,-5.631,56.216,134
33,Strathan,-5.325,56.968,33
66,Lurgan,-6.334,54.462,55
46,Kilbride,-5.992,57.21,46
33,Arduaine,-5.555,56.235,33
822,Newry,-6.334,54.178,230
66,Rhugarbh,-5.363,56.511,66
55,Glenarm,-5.953,54.967,24
55,Tavantaggart,-5.651,55.659,55
39,Big Sand,-5.775,57.744,20
66,Redpoint,-5.803,57.657,66
28,Callakille,-5.853,57.521,28
24,Kilninian,-6.231,56.532,24
46,Castlerock,-6.788,55.163,39
46,Cuaig,-5.838,57.55,46
39,Opinan,-5.78,57.686,39
24,South Erradale,-5.782,57.674,24
94,Rosslea,-7.174,54.24,94
24,Tarskavaig,-5.987,57.117,20
66,Fearnmore,-5.807,57.578,66
66,Achnacloich,-5.979,57.106,66
79,Cove,-5.696,57.852,79
46,Tokavaig,-5.964,57.133,46
79,Fanmore,-6.198,56.521,79
28,Corry,-5.911,57.248,28
28,Ord,-5.94,57.149,28
571,Achnadrish,-6.156,56.587,276
28,Claddach,-6.512,55.688,28
94,Kilchoan,-6.103,56.698,94
134,Portstewart,-6.713,55.186,46
79,Strath,-5.703,57.735,24
331,Harrapool,-5.89,57.237,160
79,Lossit,-6.485,55.72,79
39,Tormisdale,-6.47,55.741,39
112,Ard-dhubh,-5.817,57.4,112
39,Heaste,-5.894,57.188,39
24,Braigo,-6.419,55.838,24
33,Sanaigmore,-6.413,55.85,33
79,Kilchoman,-6.44,55.782,79
24,Kilchiaran,-6.451,55.756,24
331,Kenmore,-5.749,57.551,230
55,Naast,-5.658,57.786,55
46,Toscaig,-5.806,57.378,46
112,Ardchiavaig,-6.221,56.29,112
46,Calligarry,-5.918,57.057,46
192,Lagganulva,-6.136,56.493,192
28,Ellister,-6.453,55.693,28
33,Portrush,-6.653,55.198,28
46,Tobermory,-6.07,56.622,39
39,Boor,-5.634,57.771,39
46,Burg,-6.17,56.362,46
39,Drochaid Lusa,-5.822,57.252,39
46,Bualnaluib,-5.599,57.848,46
79,Kilbeg,-5.883,57.086,79
39,Kerrysdale,-5.652,57.697,39
24,Ardheslaig,-5.707,57.547,24
134,Aughnacloy,-6.973,54.413,112
112,Drumfearn,-5.846,57.173,112
331,Coleraine,-6.664,55.13,276
134,Balnahard,-6.132,56.431,134
24,Nerabus,-6.416,55.71,24
822,Mellon Udrigle,-5.564,57.901,331
24,Ardnave,-6.343,55.874,24
33,Drumchork,-5.579,57.834,33
230,Garra Eallabus,-6.346,55.848,230
28,Kinloch,-5.813,57.192,28
33,Killiemor,-6.082,56.483,33
33,Bruichladdich,-6.364,55.766,33
230,Tournaig,-5.576,57.791,230
24,Kilchattan,-6.23,56.075,24
55,Duisdalemore,-5.804,57.152,55
33,Derryguaig,-6.075,56.444,33
55,Ardslignish,-5.979,56.678,55
46,Garvard,-6.228,56.043,46
24,Uragaig,-6.196,56.103,24
24,Kiloran,-6.192,56.091,24
94,Kyleakin,-5.732,57.272,94
33,Back of Keppoch,-5.864,56.922,33
24,Kellan,-6.029,56.494,24
39,Gartbreck,-6.329,55.739,39
24,Ardnacross,-5.996,56.571,24
94,Bunavullin,-5.98,56.612,94
79,Glasnakille,-6.073,57.141,79
94,First Coast,-5.505,57.858,94
33,Glenancross,-5.84,56.956,33
39,Tobermore,-6.709,54.81,24
134,Blackrock,-6.299,55.787,134
94,Laggan,-6.323,55.717,94
397,Balnahard,-6.16,56.117,331
66,Drumbuie,-5.694,57.315,66
39,Gortantaoid,-6.255,55.879,39
134,Mallaig Bheag,-5.808,57.01,134
24,Altandhu,-5.414,58.055,24
46,Ballybogy,-6.556,55.13,39
94,Bushmills,-6.522,55.203,55
39,Killiechronan,-5.996,56.499,39
24,Balgy,-5.6,57.527,24
66,Rhemore,-5.955,56.583,66
66,Achnacarnin,-5.333,58.233,66
331,Cookstown,-6.743,54.649,112
66,Knock,-5.986,56.477,66
112,Brae of Achnahaird,-5.378,58.066,112
94,Pennyghael,-6.018,56.363,94
28,Clashnessie,-5.313,58.222,28
33,Killundine,-5.929,56.571,33
46,Tornapress,-5.602,57.419,46
24,Salen,-5.946,56.516,24
39,Mungasdale,-5.429,57.879,39
39,Balmacara,-5.643,57.294,39
112,Caledon,-6.838,54.352,66
112,Kylerhea,-5.668,57.221,112
230,Dungannon,-6.771,54.501,134
33,Talladale,-5.499,57.674,33
94,Druimindarroch,-5.791,56.896,94
33,Inchina,-5.429,57.86,33
66,Glenuig,-5.817,56.826,66
46,Bracora,-5.76,56.968,46
230,Invermoidart,-5.824,56.793,230
55,Achmelvich,-5.304,58.167,55
160,Ballymoney,-6.512,55.07,66
79,Ardaneaskan,-5.601,57.356,79
39,Gulladuff,-6.601,54.834,28
55,Kintra,-6.256,55.655,55
94,Dervock,-6.469,55.123,39
134,Torridon,-5.51,57.547,134
66,Pennygown,-5.904,56.515,66
28,Annat,-5.514,57.531,28
24,Killbeg,-5.899,56.505,24
24,Galltair,-5.622,57.22,24
55,Eilanreach,-5.629,57.199,55
39,Cluanach,-6.195,55.757,39
55,Middle Cragabus,-6.248,55.627,55
28,Polglass,-5.325,58.008,20
192,Magherafelt,-6.608,54.754,79
24,Cornabus,-6.236,55.641,24
39,Roshven,-5.759,56.842,39
46,Inverie,-5.684,57.038,46
79,Ballygrant,-6.16,55.818,79
230,Letterewe,-5.436,57.685,230
192,Ineraval,-6.248,55.597,192
94,Bunnahabhain,-6.126,55.881,94
33,Inverkirkaig,-5.264,58.126,33
33,Leorin,-6.209,55.658,33
28,Kinlochmoidart,-5.759,56.791,28
79,Calgary,-6.274,56.584,79
46,Savary,-5.848,56.546,46
39,Durnamuck,-5.344,57.877,39
39,Salen,-5.78,56.714,39
79,Dalnabreck,-5.762,56.761,79
94,Ruigh'riabhach,-5.33,57.905,94
39,Nostie,-5.556,57.284,39
134,Lochinver,-5.238,58.146,134
55,Caol Ila,-6.113,55.854,55
24,Drumbeg,-5.201,58.244,24
24,Sheigra,-5.111,58.495,24
66,Coagh,-6.612,54.647,39
160,Rasharkin,-6.481,54.955,66
33,Castledawson,-6.555,54.778,28
94,Ballintoy,-6.358,55.236,39
24,Lochcarron,-5.501,57.398,20
28,Corrynachenchy,-5.834,56.504,28
192,Upper Badcall,-5.153,58.325,192
112,Culnacraig,-5.27,57.981,112
134,Nedd,-5.175,58.236,134
79,Bellaghy,-6.516,54.809,24
28,Brackloch,-5.198,58.164,28
230,Tarbet,-5.636,56.968,192
66,Portglenone,-6.476,54.873,46
55,Resipole,-5.727,56.714,55
66,Lochailort,-5.663,56.878,66
39,Laphroaig,-6.152,55.631,39
55,Dunloy,-6.408,55.011,33
94,Foindle,-5.095,58.387,94
28,Allt nan Sùgh,-5.487,57.311,28
112,Ballyronan,-6.532,54.707,39
112,Bundalloch,-5.495,57.287,112
79,Attadale,-5.451,57.393,79
112,Corran,-5.551,57.125,112
28,New Kelso,-5.434,57.428,28
66,Meoble,-5.622,56.929,66
79,Clogher,-7.167,54.413,79
94,Acharn,-5.746,56.591,94
24,Larachbeg,-5.754,56.57,24
160,Camusnagaul,-5.264,57.851,160
112,Armoy,-6.326,55.132,46
160,Armagh,-6.654,54.351,112
24,Ardbeg,-6.108,55.642,24
46,Rhue,-5.21,57.922,46
39,Inverinate,-5.458,57.243,39
66,Toome,-6.458,54.751,39
46,Skerricha,-5.03,58.408,46
33,Scallastle,-5.738,56.479,33
46,Cabrach,-6.004,55.805,46
24,Ardmair,-5.187,57.933,24
230,Ballycastle,-6.25,55.202,134
192,Kinlochewe,-5.303,57.604,192
685,Kearvaig,-4.939,58.607,571
134,Polloch,-5.611,56.757,134
46,Laxford Bridge,-5.012,58.375,46
33,Morefield,-5.178,57.909,33
94,Ardmore,-6.031,55.683,94
39,Eilean Darach,-5.195,57.837,39
24,Liddesdale,-5.627,56.675,24
55,Kylestrome,-5.033,58.262,55
55,Ahoghill,-6.363,54.85,39
66,Craighouse,-5.954,55.835,66
24,Ullapool,-5.157,57.899,20
66,Croggan,-5.715,56.381,66
66,Drumrunie,-5.104,58.002,66
79,Richhill,-6.546,54.37,55
79,Morvich,-5.381,57.232,79
276,Ardnastang,-5.586,56.691,230
94,Lochuisge,-5.604,56.641,94
46,Lochdon,-5.682,56.44,46
79,Scamodale,-5.54,56.802,79
39,Heights of Kinlochewe,-5.228,57.627,39
66,Braes of Ullapool,-5.132,57.887,66
79,Craig,-5.276,57.494,79
276,Newton,-5.005,58.239,276
28,Galgorm,-6.322,54.86,20
39,Inshore,-4.881,58.58,39
66,Lagg,-5.853,55.937,66
276,Tarbert,-5.829,55.97,192
276,Kinloch Hourn,-5.385,57.109,276
230,Knockan,-5.03,58.047,230
66,Ardindrean,-5.102,57.846,66
39,Leckmelm,-5.094,57.867,39
571,Ballymena,-6.274,54.862,192
94,Randalstown,-6.321,54.751,39
331,Portadown,-6.445,54.422,192
192,Inchnadamph,-4.972,58.148,192
192,Glenfinnan,-5.445,56.869,134
94,Ardlussa,-5.772,56.026,94
79,Badavanich,-5.175,57.58,79
39,Stronchrubie,-4.975,58.128,39
55,Lealt,-5.755,56.054,55
66,Cargan,-6.179,54.996,66
94,Clachan,-5.071,57.815,94
66,Cullipool,-5.65,56.256,66
24,Achinduin,-5.552,56.493,24
28,Derrymacash,-6.38,54.47,20
33,Keoldale,-4.781,58.554,33
66,Sarsgrum,-4.785,58.536,66
79,North Erradale,-5.791,57.764,79
192,Balvicar,-5.613,56.291,79
79,Tandragee,-6.413,54.355,55
24,Craigavon,-6.365,54.445,20
192,Baligrundle,-5.516,56.507,79
39,Clachan Seil,-5.59,56.315,39
28,Aridhglas,-6.34,56.326,28
276,Antrim,-6.216,54.715,112
79,Kilmalieu,-5.431,56.647,79
397,Cushendall,-6.061,55.08,79
55,Clachan,-5.472,56.538,55
46,Achnasheen,-5.077,57.581,46
94,Polla,-4.765,58.45,94
55,Gallanach,-5.518,56.377,24
94,New Ulva,-5.68,55.961,94
46,Dunollie,-5.48,56.43,20
66,Waringstown,-6.297,54.433,28
39,Turbiskill,-5.637,56.015,39
46,Taynish,-5.648,55.986,46
55,Bessbrook,-6.396,54.195,24
24,Portnancon,-4.703,58.502,24
55,Glenavy,-6.212,54.592,24
46,Garraron,-5.54,56.222,46
39,Port Appin,-5.406,56.553,39
94,South Garvan,-5.29,56.844,79
685,Ardminish,-5.741,55.676,230
24,Ardfern,-5.537,56.182,24
24,South Shian,-5.401,56.522,24
94,Corrykinloch,-4.781,58.188,94
55,Loughbrickland,-6.304,54.318,24
94,Arichonan,-5.577,56.058,66
66,Melfort,-5.493,56.271,66
28,Portnacroish,-5.373,56.571,28
55,Crinan,-5.56,56.089,55
33,Benderloch,-5.4,56.489,33
33,Ellary,-5.619,55.925,33
276,Heilam,-4.651,58.501,276
39,Kilmore,-5.439,56.374,33
192,Banbridge,-6.267,54.349,79
66,Coulaghailtro,-5.649,55.829,66
134,Druimdrishaig,-5.627,55.876,112
24,Appin,-5.356,56.559,24
66,Achnamara,-5.566,56.025,66
24,Kilberry,-5.649,55.817,24
79,Kintraw,-5.5,56.19,79
39,Glenmore,-5.474,56.254,39
24,Ormsary,-5.615,55.891,24
112,Scardroy,-4.986,57.522,112
46,Maghaberry,-6.187,54.504,24
79,Templepatrick,-6.095,54.703,55
28,Bellanoch,-5.531,56.072,28
112,Black Crofts,-5.372,56.46,55
66,Aryhoulan,-5.248,56.768,66
66,Coille Mhorgil,-5.134,57.064,66
24,Achnacreebeag,-5.359,56.472,24
33,Blaich,-5.214,56.844,33
79,Clachbreck,-5.572,55.924,79
55,Kilmartin,-5.485,56.134,55
55,Achanalt,-4.92,57.612,55
28,Achahoish,-5.556,55.939,28
28,Lubcroy,-4.781,57.975,28
33,Creaganterve Mhòr,-5.465,56.158,33
24,Belloch,-5.694,55.579,24
39,Creagan,-5.305,56.552,39
476,Alltnacaillich,-4.633,58.371,397
28,Barcaldine,-5.318,56.518,28
39,Killean,-5.661,55.639,39
33,Rhunahaorine,-5.645,55.675,33
28,Kentallen,-5.255,56.665,28
94,Bragleenbeg,-5.383,56.329,79
276,Cleongart,-5.695,55.545,112
66,Killocraw,-5.706,55.514,66
33,Ford,-5.435,56.179,33
66,Allnabad,-4.627,58.338,66
46,Machrihanish,-5.733,55.421,46
39,Carnoch,-4.916,57.515,39
331,Aultdearg,-4.865,57.647,160
33,Low Ballevain,-5.702,55.47,33
160,Ballyclare,-5.998,54.751,66
66,Achnashelloch,-5.457,56.07,33
24,Tomdoun,-5.069,57.065,24
134,Oykel Bridge,-4.734,57.969,134
46,Fascadale,-6.089,56.76,46
160,Badachro,-5.727,57.696,160
24,Ballygown,-6.172,56.512,24
46,Aird,-5.965,57.031,46
94,Eorabus,-6.238,56.332,94
66,Applecross,-5.812,57.432,66
39,Midtown,-5.671,57.805,39
24,Camustiel,-5.816,57.412,24
134,Pomeroy,-6.926,54.595,94
33,Charlestown,-5.676,57.709,33
46,Carnduncan,-6.398,55.819,46
33,Lee,-6.193,56.311,33
66,Lettermore,-6.082,56.563,66
94,Ockle,-6.001,56.76,94
46,Lower Diabaig,-5.687,57.58,24
39,Teangue,-5.86,57.107,20
24,Scoor,-6.174,56.293,24
46,Achgarve,-5.564,57.88,46
66,Draperstown,-6.783,54.793,66
134,Garvagh,-6.687,54.984,55
33,Camascross,-5.806,57.136,33
46,Reiff,-5.446,58.07,46
79,Shieldaig,-5.647,57.522,79
94,Portnaluchaig,-5.86,56.938,94
94,Scalasaig,-6.198,56.068,94
33,Portballintrae,-6.541,55.216,20
39,Torrans,-6.076,56.35,39
276,Maghera,-6.671,54.844,79
134,Airor,-5.765,57.081,134
46,Ardtoe,-5.881,56.767,46
55,Aros Mains,-5.966,56.534,55
66,Upperlands,-6.642,54.879,24
66,Sandaig,-5.76,57.052,66
55,Polbain,-5.394,58.036,55
55,Gartnatra,-6.265,55.763,55
55,Desertmartin,-6.674,54.772,28
39,Inverguseran,-5.722,57.104,39
33,Kentra,-5.847,56.754,33
24,Reraig,-5.626,57.283,24
66,Moneymore,-6.668,54.693,39
55,Kilrea,-6.554,54.951,33
39,Daill,-6.206,55.786,39
230,Glenegedale,-6.247,55.684,230
46,Achiltibuie,-5.342,58.02,20
24,Badluarach,-5.382,57.89,20
24,Rhicarn,-5.26,58.175,24
39,Ardshealach,-5.781,56.74,39
112,Gaodhail,-5.882,56.478,112
24,Keills,-6.129,55.84,24
28,Tomslèibhe,-5.87,56.466,28
134,Moy,-6.694,54.447,55
39,Scourie Mor,-5.159,58.343,39
55,Kirkton,-5.476,57.415,55
66,Lochbuie,-5.872,56.358,66
24,Dalelia,-5.71,56.76,24
94,Lochaline,-5.777,56.537,94
66,Garmony,-5.784,56.498,66
46,Badrallach,-5.264,57.873,46
276,Keady,-6.703,54.248,79
276,Coulags,-5.399,57.45,276
33,Achranich,-5.735,56.56,33
39,Taagan,-5.33,57.622,39
33,Kinlochspelve,-5.799,56.371,33
28,Badcall,-5.017,58.453,28
46,Ratagan,-5.452,57.222,46
46,Killilan,-5.416,57.311,46
46,Ranochan,-5.576,56.88,46
94,Cloughmills,-6.331,54.999,79
24,Camas-luinie,-5.409,57.299,24
24,Rhiconich,-4.987,58.425,24
79,Cullybackey,-6.349,54.888,28
94,Craignure,-5.705,56.466,94
79,Leargybreck,-5.936,55.872,79
24,Unapool,-5.006,58.25,24
160,Torrlaoighseach,-5.392,57.194,160
134,Markethill,-6.519,54.297,55
66,Fain,-5.127,57.765,66
160,Crossmaglen,-6.607,54.077,112
94,Achfary,-4.915,58.312,94
685,Carnach,-5.276,57.302,397
39,Ledmore,-4.971,58.065,39
134,Kinuachdrachd,-5.697,56.128,112
46,Camasnacroise,-5.487,56.617,46
28,Balnakeil,-4.766,58.575,28
331,Auchindrean,-5.045,57.776,230
79,Kells,-6.213,54.805,55
39,Drumsallie,-5.353,56.856,39
39,Bleary,-6.342,54.42,24
33,Gilford,-6.358,54.373,28
24,Balliemore,-5.521,56.402,24
79,Aultanrynie,-4.816,58.282,79
24,Kinloch,-4.819,58.269,24
28,Dollingstown,-6.294,54.461,20
46,Aird,-5.597,56.143,46
66,Kilninver,-5.515,56.338,55
66,Kilmory,-5.677,55.914,66
46,Tarbert,-5.738,55.701,46
94,Rispond,-4.665,58.548,94
55,Eriboll,-4.688,58.468,55
24,Kiel Crofts,-5.413,56.5,24
28,Barravullin,-5.517,56.211,28
134,Moira,-6.229,54.477,55
112,Lochdrum,-4.935,57.737,112
55,North Shian,-5.387,56.535,55
24,Cretshengan,-5.654,55.841,24
192,Carnlough,-5.992,54.99,112
33,Baile Boidheach,-5.606,55.905,33
28,Lochside,-4.617,58.491,28
24,Slockavullin,-5.498,56.118,24
160,Duror,-5.274,56.649,112
46,Glenbarr,-5.698,55.567,46
112,Muasdale,-5.683,55.6,112
39,Doagh,-6.041,54.738,24
66,Keppanach,-5.225,56.714,66
79,Ballochroy,-5.617,55.711,79
94,Dromore,-6.15,54.414,66
39,Arnicle,-5.636,55.582,39
24,Kilmichael Glassary,-5.445,56.084,24
28,Ardrishaig,-5.45,56.016,20
24,Musdale,-5.341,56.347,24
24,Bohenie,-4.803,56.906,24
28,Portachoillan,-5.572,55.763,28
134,Glasdrum,-5.242,56.567,134
276,Finchairn,-5.382,56.183,112
39,Innellan,-4.963,55.89,20
55,Poyntzfield,-4.161,57.65,39
79,Mayobridge,-6.229,54.18,46
33,Turnberry,-4.829,55.314,33
39,Buchanan Smithy,-4.467,56.074,39
476,Campbeltown,-5.598,55.418,331
66,Bunarkaig,-4.983,56.946,66
46,Ugadale,-5.515,55.502,46
94,Tomich,-4.807,57.304,94
192,Warrenpoint,-6.252,54.101,66
46,Munerigie,-4.855,57.084,46
79,Holywood,-5.809,54.647,39
39,Thundergay,-5.37,55.666,39
46,Achnairn,-4.451,58.08,46
24,Grudie,-4.835,57.618,24
79,Hillsborough,-6.081,54.464,33
28,Stronmilchan,-4.994,56.407,28
39,Dunmore,-5.527,55.797,39
160,Inveran,-4.412,57.943,66
66,Farr,-4.199,58.538,66
39,Glen Sluain,-5.065,56.151,39
79,Inverneill,-5.451,55.976,46
28,Ballymichael,-5.291,55.533,28
46,Balnain,-4.577,57.338,46
276,Lochgilphead,-5.425,56.033,192
192,Kincardine,-4.354,57.872,112
39,Bonar Bridge,-4.343,57.892,20
134,Loaneckheim,-4.491,57.431,66
24,Garrygualach,-5.019,57.066,24
230,Liatrie,-4.912,57.351,230
79,Monevechadan,-4.92,56.207,33
66,Kilmory,-5.221,55.45,66
160,Lisburn,-6.044,54.511,66
134,Rathfriland,-6.16,54.237,94
192,Lochgoilhead,-4.899,56.17,79
55,Banavie,-5.096,56.849,24
46,Barnacabber,-4.925,56.057,46
1419,Fort William,-5.103,56.819,476
94,Ardchuilk,-4.884,57.401,94
66,Tore,-4.329,57.541,39
160,Gartnagrenach,-5.509,55.781,160
134,Skeroblingarry,-5.629,55.48,55
28,Ospisdale,-4.171,57.879,28
24,Achosnich,-4.149,57.916,24
55,Dunmurry,-6.017,54.543,24
55,Killellan Park,-5.666,55.382,39
39,Ardshave,-4.087,57.93,39
39,Achnasaul,-5.038,56.96,39
33,Knocknaha,-5.651,55.404,28
160,Dalnacroich,-4.815,57.555,134
39,Rhu,-4.772,56.018,20
46,Middleton,-4.845,55.822,20
24,Rostrevor,-6.199,54.1,24
94,Taynuilt,-5.236,56.429,46
192,Tain,-4.057,57.811,79
28,Castleton,-5.399,56.009,20
33,Glenurquhart,-4.105,57.635,33
192,Farr,-4.192,57.37,79
24,Whitehouse,-5.483,55.797,24
39,Ervie,-5.129,54.963,39
134,Blàr a' Chaorainn,-5.107,56.753,55
24,Daligan,-4.685,56.022,24
24,Gill,-4.804,55.702,24
28,Luss,-4.641,56.102,28
24,Torcastle,-5.063,56.863,24
46,Fisherton,-4.093,57.535,33
39,Ballachulish,-5.134,56.673,24
94,Erines,-5.427,55.923,94
46,Hilltown,-6.145,54.196,33
230,West Clyne,-3.884,58.027,160
66,Dubhchladach,-5.447,55.858,66
24,Croy,-4.008,57.52,20
160,Midfield,-4.439,58.548,160
24,Lochans,-5.012,54.869,24
79,Lochwinnoch,-4.627,55.797,33
55,High Keil,-5.664,55.309,55
79,Ladybank,-4.819,55.284,33
28,Corranbuie,-5.448,55.837,28
24,Dunure,-4.756,55.404,24
230,Balquhidder,-4.372,56.358,112
55,Ballimore,-4.377,56.329,55
94,Rockfield,-3.817,57.822,94
276,Clachanmore,-4.979,54.78,94
55,Corriemoillie,-4.754,57.634,55
28,Torlundy,-5.047,56.848,28
24,Kingshouse,-4.321,56.353,24
55,Kirkton,-4.385,56.177,55
94,Ruthven,-4.045,57.068,94
33,Doune,-4.632,57.969,33
24,Gartmore,-4.379,56.144,24
33,Kingsteps,-3.836,57.591,20
24,Gartness,-4.403,56.051,24
39,Muchrachd,-4.848,57.363,39
134,Strathrannoch,-4.714,57.73,134
112,Portinnisherrich,-5.268,56.251,112
33,Talmine,-4.43,58.516,20
39,Middle Kames,-5.344,56.05,39
112,Newtownabbey,-5.907,54.673,46
55,Mudale,-4.504,58.286,55
24,Inverinan,-5.238,56.308,24
55,Lubfearn,-4.713,57.693,55
33,Asknish,-5.327,56.07,33
94,Annahilt,-5.998,54.437,33
66,Brackley,-5.504,55.621,66
46,Glen Rossal,-4.595,58.001,46
24,Mill Park,-5.623,55.323,24
79,Dromara,-6.015,54.379,55
33,Coillaig,-5.209,56.336,33
24,Achriabhach,-5.041,56.771,24
39,Grogport,-5.485,55.641,39
276,Larne,-5.808,54.855,112
28,Tomcrasky,-4.885,57.169,28
160,Crossaig,-5.453,55.705,160
46,Cour,-5.463,55.681,46
46,Peninver,-5.55,55.467,33
79,Balliemeanoch,-5.215,56.298,79
28,Greenisland,-5.863,54.693,24
79,Saddell,-5.512,55.533,79
28,Gorstan,-4.705,57.626,28
112,Caolasnacon,-5.042,56.702,94
24,Kildalloig,-5.552,55.413,20
397,Arscaig,-4.529,58.09,192
94,Coldbackie,-4.38,58.504,94
134,Croick,-4.599,57.885,94
24,Skullomie,-4.375,58.516,24
55,Largiemore,-5.3,56.026,55
112,Tullochgorm,-5.268,56.108,79
55,Newtownbreda,-5.906,54.552,39
55,Clachan,-5.562,55.747,55
134,Carradale,-5.468,55.592,134
112,Highbridge,-4.958,56.893,79
94,Garve,-4.686,57.615,94
28,Claonaig,-5.393,55.757,28
55,Little Scatwell,-4.697,57.572,55
39,Gualachulain,-5.074,56.564,39
112,Garbat,-4.659,57.672,79
192,Kilfinan,-5.309,55.957,66
39,Drum,-5.314,55.937,39
39,Crarae,-5.234,56.132,39
66,Carrickfergus,-5.802,54.717,55
66,Feochaig,-5.53,55.364,46
46,South Ballachulish,-5.19,56.685,46
28,Druimavuic,-5.24,56.553,28
39,Portavadie,-5.311,55.873,39
230,Klibreck,-4.409,58.275,230
160,Letterfinlay,-4.88,56.979,134
46,Auchintoul,-4.518,57.963,46
66,Skipness,-5.349,55.768,66
476,Invercharnan,-5.026,56.59,192
112,Balmore,-4.732,57.36,112
33,Barnacarry,-5.212,56.099,33
33,Kilmachalmack,-4.517,57.947,33
66,Mullaghboy,-5.724,54.834,33
46,Ardanaiseig,-5.096,56.378,46
24,Dundreggan,-4.778,57.19,24
46,Upper Glenfintaig,-4.864,56.957,46
55,Rhian,-4.44,58.114,55
24,Kilfinnan,-4.838,57.02,24
24,Garbhallt,-5.185,56.115,24
46,Carnoch,-4.695,57.386,46
230,Wester Mandally,-4.813,57.066,160
112,Sallachy,-4.456,58.041,112
46,Balliekine,-5.382,55.603,46
46,Cladich,-5.083,56.353,46
94,Castlewellan,-5.941,54.255,39
66,Laggan,-4.815,57.034,66
33,Torrisdale,-4.275,58.523,33
33,Wester Gruinards,-4.495,57.895,33
24,Millness,-4.691,57.347,24
66,Corravachie,-4.552,57.724,66
46,Whitehead,-5.714,54.753,46
39,Mauld,-4.663,57.408,39
66,Newton,-5.148,56.134,66
134,Kilkeel,-6.006,54.063,112
79,Catacol,-5.322,55.695,79
94,Saintfield,-5.83,54.459,39
55,Erchless Castle,-4.648,57.43,55
33,Dalchork,-4.419,58.06,33
66,Claonel,-4.438,58.008,66
66,Conchra,-5.17,56.053,66
33,Helen's Bay,-5.736,54.666,28
94,Dalchenna,-5.104,56.207,79
39,Alltchaorunn,-4.939,56.616,39
24,Newton,-5.292,55.711,24
55,Ballygowan,-5.789,54.503,28
55,Achany,-4.424,57.981,55
24,Inveraray,-5.076,56.228,20
94,Auchagallon,-5.34,55.561,94
24,Mid Main,-4.62,57.421,24
33,Saval,-4.392,58.041,33
134,Altnafeadh,-4.899,56.666,134
112,Auchteraw,-4.72,57.136,112
24,Bettyhill,-4.219,58.522,20
66,Creggans,-5.081,56.176,66
79,Leckfurin,-4.216,58.504,79
24,Strathpeffer,-4.54,57.587,20
66,Glecknabae,-5.188,55.869,55
55,Clough,-5.837,54.291,24
66,Marybank,-4.539,57.548,33
46,Dundrum,-5.845,54.258,33
28,Balliemore,-5.117,56.015,28
39,St Catherines,-5.031,56.223,39
79,Colintraive,-5.148,55.925,79
46,Shiskine,-5.308,55.517,46
33,Eskadale,-4.57,57.423,33
134,Newtownards,-5.688,54.593,46
160,Achargary,-4.196,58.459,160
24,Crask of Aigas,-4.556,57.445,24
28,Kirtomy,-4.161,58.537,20
39,Heights of Brae,-4.486,57.615,20
66,Crossgar,-5.758,54.396,55
39,Kildavanan,-5.152,55.853,39
33,Skail,-4.203,58.39,33
112,Rough Haugh,-4.191,58.408,112
397,Inverlochy,-4.926,56.406,192
79,Portclair,-4.625,57.186,79
192,Braeantra,-4.41,57.769,66
46,Corriecravie,-5.289,55.464,46
24,Glenlean,-5.069,56.009,24
66,Midpark,-5.153,55.789,46
66,Kilmorack,-4.51,57.463,39
24,Upper Ardroscadale,-5.133,55.833,24
28,Ruilick,-4.491,57.487,20
39,Straad,-5.123,55.812,33
33,Coustonn,-5.079,55.923,33
55,Craigton,-4.318,57.934,46
28,Dalivaddy,-5.669,55.419,28
192,Fersit,-4.704,56.865,192
192,Cairndow,-4.935,56.255,66
160,Muir of Ord,-4.458,57.517,66
46,Bernice,-5.001,56.081,46
79,Conon Bridge,-4.437,57.565,28
94,Redburn,-4.393,57.671,55
230,Sannox,-5.159,55.663,134
571,Downpatrick,-5.709,54.326,192
33,Clashcoig,-4.299,57.913,28
46,Windhill,-4.448,57.497,20
94,Clachaig,-5.018,55.989,39
24,Achnaluachrach,-4.239,58.058,24
134,Black Mount,-4.796,56.546,134
39,Lednagullin,-4.063,58.555,39
24,Little Creich,-4.299,57.873,24
28,Leanaig,-4.408,57.554,20
39,Elleric,-5.199,56.591,39
55,Corrie,-5.141,55.637,55
66,Wester Lealty,-4.344,57.724,33
24,Balchraggan,-4.44,57.458,24
55,Ardachu,-4.243,58.001,55
66,Killyleagh,-5.648,54.4,55
55,Arrivain,-4.818,56.437,55
39,Knockdow,-5.03,55.89,39
33,Ardullie,-4.366,57.638,33
24,Ardross,-4.327,57.738,24
24,Donaghadee,-5.535,54.641,20
24,Ballochyle,-4.983,55.995,24
66,Easter Fearn,-4.283,57.848,24
33,Urquhart,-4.373,57.594,24
66,Kerrymenoch,-5.068,55.77,55
55,West Langwell,-4.208,58.048,55
66,Bridge of Orchy,-4.766,56.517,66
66,Whitebridge,-4.506,57.204,66
28,West Bennan,-5.19,55.44,28
192,Strathwhillan,-5.132,55.573,134
46,Greyabbey,-5.56,54.535,39
46,Millisle,-5.526,54.607,20
28,Achallader,-4.737,56.565,28
28,Ascog,-5.025,55.825,20
192,Strone,-4.448,57.325,112
79,Torinturk,-5.497,55.822,79
33,Milton,-4.376,57.512,33
66,Kerrycroy,-5.023,55.806,24
55,Drumchardine,-4.388,57.47,46
66,Lamlash,-5.133,55.528,28
24,Easter Ardross,-4.288,57.731,24
24,Kingarth,-5.033,55.761,24
28,Spinningdale,-4.233,57.876,28
24,Margnaheglish,-5.118,55.542,20
66,Shoreton,-4.318,57.628,46
28,Wester Teaninich,-4.3,57.678,24
39,Sandbank,-4.941,55.978,20
24,Contullich,-4.288,57.704,20
24,Lochluichart,-4.803,57.626,24
134,Melgarve,-4.534,57.029,134
28,Ardentinny,-4.91,56.045,28
55,Toward,-4.981,55.865,39
46,Kilchattan Bay,-5.025,55.75,46
94,Baligill,-3.977,58.566,94
24,Achandunie,-4.273,57.718,20
112,East Langwell,-4.16,58.028,112
94,Dunoon,-4.924,55.955,66
55,Blarmachfoldach,-5.118,56.777,33
33,Blairmore,-4.898,56.001,24
160,Gorthleck,-4.421,57.249,160
33,Arpafeelie,-4.319,57.522,33
160,Knockenkelly,-5.096,55.498,134
160,Ardglass,-5.608,54.262,66
39,Culbo,-4.281,57.614,39
476,Alness,-4.251,57.696,134
276,Ballywalter,-5.486,54.545,55
55,Rogart,-4.136,58.002,55
39,Portincaple,-4.846,56.098,20
112,Clifton,-4.712,56.44,112
94,Portaferry,-5.544,54.381,46
46,Largymore,-5.09,55.475,46
33,Dalreavoch,-4.114,58.049,33
55,Lairgmore,-4.344,57.407,55
39,Ardmore,-4.181,57.848,39
66,Kilmichael,-5.641,55.446,28
24,Largybeg,-5.083,55.464,24
94,Glenmallan,-4.816,56.127,33
28,Edderton,-4.173,57.834,28
28,Artafallie,-4.29,57.512,28
571,Garelochhead,-4.829,56.082,66
66,Belmaduthy,-4.262,57.576,66
55,Dores,-4.334,57.379,55
33,Dochgarroch,-4.303,57.436,33
55,Brae,-4.225,57.646,39
55,Munlochy,-4.259,57.548,55
28,Farlary,-4.085,58.027,28
66,Badachonacher,-4.188,57.733,28
94,Little Torboll,-4.107,57.957,94
112,Rearquhar,-4.124,57.907,79
33,Rhicullen,-4.191,57.717,20
39,Drumderfit,-4.252,57.53,39
55,Abersky,-4.331,57.312,55
39,Skelmorlie,-4.882,55.868,20
79,Succoth,-4.747,56.21,79
39,Millport,-4.925,55.755,33
134,Upper Bighouse,-3.909,58.486,134
66,Golval,-3.892,58.532,66
28,Clynder,-4.816,56.02,20
33,Cove and Kilcreggan,-4.827,55.986,28
55,Clashmore,-4.116,57.878,55
24,Easter Suddie,-4.226,57.565,24
192,Portavogie,-5.446,54.461,55
28,Killen,-4.213,57.594,28
66,Trantlemore,-3.902,58.453,66
28,Dalhalvaig,-3.896,58.467,28
24,Glengormley,-5.956,54.673,24
46,Balblair,-4.172,57.673,20
94,Inverherive,-4.646,56.4,94
66,Invergordon,-4.161,57.699,39
28,Scotsburn,-4.134,57.756,28
33,Kilmuir,-4.218,57.518,33
79,Essich,-4.248,57.425,28
476,Largs,-4.865,55.798,112
986,Inverness,-4.229,57.464,822
39,Portencross,-4.902,55.7,20
24,Tullich Muir,-4.129,57.735,24
24,Lonemore,-4.078,57.869,24
55,Stuckgowan,-4.704,56.191,55
33,Kinbrace,-3.94,58.258,33
94,Kinloch Laggan,-4.402,56.975,94
276,Forsinard,-3.894,58.367,192
94,Ballygally,-5.858,54.898,39
24,Tullich,-4.264,57.327,24
112,Achentoul,-3.922,58.276,112
28,Kirkton,-4.029,57.961,28
28,East Lamington,-4.095,57.773,28
276,Greenock,-4.781,55.949,192
28,Morangie,-4.075,57.824,20
79,Fairlie,-4.853,55.757,33
230,North Cairn,-5.161,54.986,79
28,Barnhills,-5.152,55.001,28
46,Pitgrudy,-4.036,57.893,46
39,Littleferry,-4.019,57.935,39
28,Fourpenny,-4.024,57.92,28
134,Fresgoe,-3.797,58.568,112
94,East Croachy,-4.241,57.318,94
79,Helensburgh,-4.731,56.01,46
66,Edentaggart,-4.693,56.109,66
24,Brenachie,-4.071,57.762,24
94,Knocknain,-5.164,54.932,55
55,West Kilbride,-4.855,55.688,46
46,Kildary,-4.073,57.75,46
33,Benmore,-4.572,56.397,33
33,Fortrose,-4.128,57.581,20
66,Crathie,-4.335,57.015,66
24,Shore Mill,-4.095,57.662,24
39,Balnafoich,-4.19,57.389,39
33,Golspie,-3.978,57.974,20
33,Aldie,-4.04,57.797,20
55,Backies,-3.969,57.992,55
28,Bridge of Gaur,-4.446,56.678,28
55,Culloden,-4.135,57.486,39
33,Portencalzie,-5.092,55.003,33
28,Ardmore,-4.696,55.971,20
24,Bridge of Ericht,-4.417,56.693,24
230,Kenknock,-4.489,56.498,192
66,Shantron,-4.658,56.057,39
276,Dalbeg,-4.226,57.19,160
28,Colgrain,-4.684,55.985,20
33,Fendom,-3.998,57.811,24
33,Scatraig,-4.141,57.41,33
46,Aldochlay,-4.64,56.087,46
33,Laggan,-4.283,57.021,33
28,Daviot,-4.133,57.425,28
28,Blairglas,-4.652,56.043,28
46,Newton,-4.097,57.513,20
39,Corsewall,-5.078,54.976,39
79,Fort George,-4.068,57.583,66
33,Leswalt,-5.094,54.931,20
134,Navity,-4.036,57.656,46
55,St Mary's Croft,-5.073,54.95,46
39,Portpatrick,-5.114,54.844,33
66,Inverlochlarig,-4.518,56.333,66
28,Ballantrae,-5.004,55.101,20
24,Achreamie,-3.697,58.577,24
46,Arden,-4.632,56.026,33
33,Ankerville,-3.989,57.74,33
79,Saltcoats,-4.781,55.642,55
192,Bun Loyne,-4.952,57.144,192
24,Balgowan,-4.247,57.021,24
46,Catlodge,-4.25,57.006,46
28,Newlands of Culloden,-4.073,57.485,24
28,Tornagrain,-4.058,57.522,28
39,Ardersier,-4.035,57.568,20
276,Camghouran,-4.366,56.673,192
24,Forss,-3.658,58.596,24
79,Heathfield,-4.677,55.828,28
112,Milarrochy,-4.56,56.102,94
112,Lendalfoot,-4.932,55.169,46
192,Heronsford,-4.948,55.109,94
134,Loans of Tullich,-3.93,57.76,55
134,Kilbirnie,-4.686,55.754,79
39,Duchal Mains,-4.637,55.87,20
24,Ledcharrie,-4.423,56.421,24
55,Broubster,-3.66,58.519,55
46,Dalgarven,-4.711,55.674,20
160,Auchlyne,-4.414,56.434,160
685,Stranraer,-5.024,54.899,331
55,Gollanfield,-3.988,57.555,55
55,Strone,-5.043,56.888,46
33,Wester Arboll,-3.896,57.808,33
39,Awhirk,-5.038,54.84,39
79,Kinlochard,-4.495,56.189,79
33,Craigruie,-4.432,56.35,33
79,Dalmigavie,-4.094,57.248,79
46,Balmaha,-4.534,56.083,46
39,Shurrery,-3.645,58.503,39
134,The Glutt,-3.712,58.306,134
66,Lothbeg,-3.79,58.069,66
39,Langbank,-4.586,55.924,20
46,Innermessan,-4.987,54.927,20
24,Bonhill,-4.563,55.979,20
33,Achuvoldrach,-4.456,58.495,33
24,Westfield,-3.615,58.555,24
55,Clephanton,-3.976,57.531,55
46,Easter Galcantray,-3.984,57.507,46
55,Kilwinning,-4.684,55.654,33
331,Girvan,-4.851,55.239,134
55,Bridge of Balgie,-4.317,56.595,55
331,Etteridge,-4.161,57.006,192
66,Cairngarroch,-5.021,54.805,66
33,Lieurary,-3.598,58.542,33
160,Corrievorrie,-4.036,57.296,94
112,Dumbarton,-4.547,55.948,94
39,Newtonmore,-4.118,57.064,28
24,Drumshang,-4.762,55.388,24
46,Kilphedir,-3.723,58.144,46
55,Stoneykirk,-4.977,54.837,55
33,Scrabster,-3.553,58.609,20
24,Kirkton of Barevan,-3.941,57.5,24
55,Durran,-5.294,56.221,55
39,Brawlbin,-3.59,58.491,39
55,Hilton,-3.814,57.847,55
55,Knoweside,-4.749,55.378,28
66,Fisherton,-4.73,55.419,55
160,Houston,-4.547,55.869,28
160,Wag,-3.673,58.212,160
46,Findhornbridge,-3.989,57.324,46
79,Greenfield,-4.969,57.06,79
66,Pinwherry,-4.825,55.144,66
33,Howwood,-4.558,55.809,24
55,Penkill,-4.782,55.249,33
94,Inverbrough,-3.972,57.347,94
24,Camusvrachan,-4.249,56.602,24
39,Auchmore,-4.298,56.466,39
39,Auchentiber,-4.6,55.691,33
160,Calder Mains,-3.554,58.516,66
24,Wilkhaven,-3.784,57.859,24
192,Nairn,-3.878,57.583,112
39,Piperhill,-3.893,57.536,39
24,Brookfield,-4.529,55.846,20
46,Portgower,-3.687,58.1,46
66,Buckies,-3.531,58.548,39
66,Morenish,-4.276,56.488,66
24,Olgrinmore,-3.553,58.48,24
39,Croftamie,-4.445,56.044,39
46,Burnhouse,-4.571,55.718,33
66,Logan Mains,-4.963,54.749,66
24,Ardwell Mains,-4.951,54.772,24
24,Strathyre,-4.328,56.323,20
46,Bowling,-4.478,55.934,20
24,Northdyke,-3.339,59.07,24
24,Yesnaby,-3.35,59.023,24
28,Marwick,-3.324,59.101,28
66,Lower Palace,-3.316,59.124,66
39,Mid Urchany,-3.867,57.519,39
28,Cunninghamhead,-4.578,55.644,20
46,Dalmary,-4.385,56.131,46
46,Aultibea,-3.625,58.193,46
39,Dailly,-4.723,55.276,28
160,Moorfea,-3.39,58.877,66
28,Bellamore,-4.775,55.145,28
66,Daless,-3.896,57.423,66
79,Dunragit,-4.883,54.88,66
55,Dundonald,-4.597,55.58,24
33,New Luce,-4.85,54.945,33
79,Lugton,-4.527,55.744,46
94,Chirmorrie,-4.805,55.053,94
39,Lynchat,-4.01,57.093,39
24,Craighat,-4.413,56.027,24
160,Maybole,-4.68,55.354,66
66,Murra,-3.362,58.925,33
39,Newark,-4.651,55.422,20
112,Auchensoul,-4.738,55.202,46
24,Dunlop,-4.531,55.711,20
28,Outertown,-3.34,58.972,20
66,Culroy,-4.656,55.394,28
28,Port Ann,-5.361,56.028,28
94,Barrhill,-4.77,55.103,33
46,Slochd,-3.918,57.294,46
46,Clardon,-3.459,58.595,28
79,Isbister,-3.293,59.086,79
33,Aith,-3.307,59.043,33
28,Belfast,-5.927,54.596,20
39,Gairlochy,-4.995,56.912,39
112,Ribigill,-4.43,58.45,112
39,Blarghour,-5.236,56.273,39
66,Invercassley,-4.591,57.98,66
46,Tongue,-4.415,58.476,46
46,Ballimore,-5.329,55.998,39
134,Kilchrenan,-5.18,56.358,112
24,Bunlarie,-5.51,55.521,24
192,Macharioch,-5.573,55.325,79
66,Dalchreichart,-4.829,57.175,66
28,Melldalloch,-5.311,55.923,28
24,Cannich,-4.762,57.344,24
112,Carryduff,-5.886,54.518,28
28,Lephinmore,-5.237,56.083,28
24,Sandhole,-5.204,56.147,24
46,Skerray,-4.306,58.535,46
134,Ballycarry,-5.748,54.772,20
39,Auchindrain,-5.174,56.181,39
39,Kinlochmore,-4.964,56.714,39
79,Pirnmill,-5.38,55.646,79
192,Ballynahinch,-5.895,54.402,79
28,Tarvie,-4.626,57.59,28
28,Dalness,-4.985,56.616,28
33,Moneyreagh,-5.828,54.529,24
66,Dundonald,-5.798,54.594,55
46,Clachan of Glendaruel,-5.216,56.01,46
46,Tullich,-5.094,56.296,46
39,Lochawe,-5.049,56.402,24
39,Borgie,-4.276,58.501,39
160,Kames,-5.244,55.892,66
24,Linsidemore,-4.461,57.958,24
55,High Dougarie,-5.36,55.583,55
33,Port Driseach,-5.22,55.916,33
55,Roybridge,-4.838,56.891,55
66,Drumaness,-5.855,54.369,33
55,Buntait,-4.66,57.339,55
39,Auchenbreck,-5.174,55.984,39
79,Springfield,-5.181,55.963,79
24,Lairg,-4.402,58.021,20
28,Tormore,-5.336,55.54,28
192,Newcastle,-5.89,54.212,112
79,Comber,-5.743,54.549,33
28,Ardnagowan,-5.068,56.197,28
55,Jamestown,-4.547,57.572,46
55,Newtown,-4.718,57.105,55
28,Torroble,-4.386,58.005,20
33,Achinduich,-4.399,57.966,33
46,Culrain,-4.409,57.919,39
39,Dounie,-4.421,57.882,28
192,Bangor,-5.667,54.659,112
112,Kilpatrick,-5.322,55.493,112
79,Syre,-4.238,58.363,79
24,Breakachy,-4.559,57.464,24
79,Annalong,-5.9,54.107,55
94,Dalnessie,-4.325,58.103,94
24,Skelpick,-4.191,58.471,24
39,Murlaggan,-4.763,56.893,39
39,Faebait,-4.523,57.522,28
28,Fodderty,-4.488,57.602,24
28,Achnaconeran,-4.625,57.226,28
134,Garrachra,-5.067,56.051,94
24,Invermoriston,-4.617,57.215,24
66,Invernoaden,-5.023,56.135,66
55,Glendoebeg,-4.62,57.145,55
46,Glenstriven,-5.072,55.96,46
39,Boath,-4.4,57.734,39
160,Dingwall,-4.435,57.602,94
33,Ettrickdale,-5.09,55.868,28
33,Clachan,-4.928,56.273,33
79,Alltsigh,-4.559,57.238,79
24,Inchlumpie,-4.373,57.744,24
28,Balvaird,-4.444,57.533,20
24,Port Bannatyne,-5.075,55.859,20
28,Swordale,-4.388,57.658,28
55,Roughburn,-4.669,56.895,55
79,Arichastlich,-4.829,56.467,79
28,Mountgerald,-4.397,57.62,20
39,Milton,-4.498,57.34,39
24,Ambrismore,-5.084,55.779,24
24,Brawl,-4.047,58.568,24
46,Benmore,-4.985,56.027,46
112,Rothesay,-5.06,55.834,79
33,Grotaig,-4.502,57.281,33
39,Totegan,-4.017,58.582,20
28,Lenie,-4.464,57.309,28
33,Duncanston,-4.363,57.577,28
39,Carrick Castle,-4.909,56.11,28
24,Findon Mains,-4.34,57.613,24
39,Moy,-4.596,56.909,39
24,Scoulag,-5.027,55.794,24
55,Inverfarigaig,-4.453,57.283,55
33,Abriachan,-4.401,57.385,33
39,Cluniter,-4.949,55.91,20
79,Kircubbin,-5.53,54.488,33
33,Whitefield,-4.402,57.325,33
28,Ault-na-goire,-4.42,57.273,28
112,Kildonan,-5.11,55.441,112
28,Gablon,-4.174,57.892,28
24,Rahane,-4.84,56.05,20
24,Achnagarron,-4.212,57.701,20
46,Inverarnan,-4.724,56.328,46
276,Altanduin,-4.029,58.204,230
46,Morvich,-4.106,57.98,46
39,Bighouse,-3.903,58.558,39
94,Wemyss Bay,-4.889,55.888,55
55,Achnabat,-4.332,57.341,55
134,Ardlui,-4.722,56.304,94
46,Ardmay,-4.768,56.185,46
28,Ardgowan,-4.868,55.92,20
79,Shandon,-4.807,56.048,28
33,Inverkip,-4.861,55.908,20
66,Inveruglas,-4.715,56.248,66
46,Balnacoil,-4.021,58.075,46
24,Proncy,-4.074,57.904,24
24,Quarryhill,-4.107,57.806,24
39,Auchenvennel,-4.753,56.061,24
33,Delny,-4.126,57.722,20
33,Lochside,-3.92,58.294,33
55,Garvock,-4.787,55.902,28
55,Janefield,-4.14,57.604,55
79,Gordonbush,-3.956,58.06,79
24,Embo,-3.998,57.91,24
94,Pubil,-4.501,56.547,94
134,Craggie,-3.909,58.153,134
24,Inverlauren,-4.695,56.034,20
33,Blairpark,-4.792,55.781,28
66,Portslogan,-5.139,54.883,55
28,Achvarasdal,-3.747,58.56,28
134,Stronachlachar,-4.58,56.258,134
33,Newton of Cromarty,-4.046,57.67,33
46,Routdaneburn,-4.761,55.77,33
33,Cashlie,-4.457,56.547,33
28,Loandhu,-3.997,57.782,28
39,Port Glasgow,-4.679,55.93,39
66,Castletown,-4.089,57.46,24
46,Cardross,-4.651,55.964,24
79,Lochslin,-3.954,57.801,39
66,Crosskirk,-3.668,58.607,55
66,Shebster,-3.684,58.553,66
79,Castlecraig,-3.981,57.698,79
33,Cairnryan,-5.018,54.974,33
55,Smyrton,-4.973,55.081,55
39,Brora,-3.852,58.013,20
112,Dalwhinnie,-4.243,56.938,112
39,Knockdolian,-4.946,55.129,39
66,Kilmacolm,-4.63,55.894,33
28,Highfield,-4.69,55.716,20
33,Balloch,-4.574,56.006,20
79,Moy,-4.045,57.381,79
28,Colfin,-5.027,54.856,28
33,Balkissock,-4.921,55.097,33
24,Currarie,-4.887,55.178,24
28,Maidens,-4.815,55.331,20
94,Gartocharn,-4.523,56.043,39
28,Beith,-4.634,55.751,24
24,Blairquhomrie,-4.532,56.007,20
55,Pinminnoch,-4.845,55.207,28
24,Caldarvan,-4.512,56.032,24
55,Carie,-4.258,56.685,55
39,Newlands of Geise,-3.57,58.57,20
28,Culgower,-3.734,58.086,28
55,Kirkoswald,-4.773,55.33,46
39,Castle Kennedy,-4.949,54.896,33
24,Rosefield,-3.918,57.544,24
66,Dorrery,-3.589,58.472,66
94,Irvine,-4.647,55.62,66
39,Pinmore,-4.818,55.19,39
28,Barrmill,-4.601,55.73,20
55,Ruthven,-3.971,57.374,55
55,Troon,-4.652,55.55,46
79,Bishopton,-4.504,55.909,28
24,Kingussie,-4.056,57.082,20
33,Tormitchell,-4.78,55.214,28
79,Brig o'Turk,-4.362,56.23,66
24,Househill,-3.86,57.574,20
79,Auchmantle,-4.882,54.925,66
33,Greenan,-4.67,55.436,24
28,Merkland,-4.765,55.185,28
55,Port Logan,-4.954,54.724,55
55,Miltonise,-4.827,55.022,55
28,Innerhadden,-4.166,56.693,28
94,Navidale,-3.641,58.129,94
55,Mains of Clunas,-3.866,57.495,55
24,Erskine Harbour,-4.461,55.915,20
24,Cobleland,-4.365,56.157,24
55,Edinample,-4.27,56.376,55
112,Clanyard,-4.938,54.697,112
33,Balmore,-3.853,57.481,33
160,Invervar,-4.175,56.609,134
94,Prestwick,-4.604,55.495,20
33,Uplawmoor,-4.496,55.765,20
46,Ireland,-3.211,58.967,39
822,Ayr,-4.623,55.444,230
66,Quholm,-3.312,58.994,24
24,Enzie,-2.997,57.653,20
55,East Croftmore,-3.726,57.255,55
160,Stromness,-3.298,58.963,134
66,Lettoch,-3.498,57.377,55
46,Balfour,-2.912,59.034,39
79,Ardchullarie More,-4.285,56.294,46
55,Inverlaidnan,-3.871,57.268,55
55,Auldearn,-3.806,57.576,20
94,Gartachoil,-4.354,56.111,33
46,Voy,-3.306,59.018,46
33,Buchlyvie,-4.293,56.115,28
28,Crosshouse,-4.551,55.61,20
39,Carie,-4.199,56.512,39
28,Dalquhairn,-4.64,55.23,28
28,Inchinnan,-4.441,55.884,20
112,Corsebank,-3.888,55.432,46
33,Drumguish,-3.989,57.071,33
33,Crossmichael,-3.982,54.981,33
46,Coldrain,-3.487,56.187,33
33,Westerdale,-3.497,58.444,33
94,Dykend,-3.223,56.706,66
46,Chapelhill,-3.286,56.377,24
46,Capel Carmel,-4.729,52.823,46
46,Llanfflewyn,-4.469,53.374,46
28,Gatehead,-4.553,55.595,20
28,Clouston,-3.223,58.98,28
33,Llandeloy,-5.113,51.897,33
46,Candy Mill,-3.473,55.66,28
33,Netherbrough,-3.202,59.031,33
160,Stewarton,-4.516,55.682,66
46,Glengennet,-4.696,55.229,46
39,Kilkerran,-4.671,55.291,39
33,Bowermadden,-3.302,58.556,33
39,Skeabrae,-3.278,59.067,39
55,Findhorn,-3.605,57.657,28
66,Kilmaurs,-4.528,55.637,28
79,Dalchruin,-4.077,56.325,46
55,Anie,-4.279,56.264,28
24,Dull,-3.943,56.62,24
55,Ousdale,-3.581,58.161,55
28,Langskaill,-2.987,59.269,28
66,Braemore,-3.57,58.251,66
79,Harpsdale,-3.489,58.486,79
28,Linksness,-3.32,58.916,28
46,Weydale,-3.463,58.562,33
46,Brabstermire,-3.165,58.611,46
28,Auchinloch,-4.145,55.912,20
28,Insh,-3.96,57.09,28
66,Trinafour,-4.085,56.752,66
39,Damnaglaur,-4.905,54.681,39
24,Gartcosh,-4.082,55.888,20
24,Earlston,-4.53,55.586,20
685,Kirkwall,-2.957,58.979,276
66,Sulland,-2.864,59.25,66
46,Bogend,-4.54,55.556,24
46,Breckan,-3.301,58.935,24
39,Bladnoch,-4.458,54.86,39
79,Paisley,-4.426,55.836,55
33,Chapelton,-4.094,55.712,20
230,Balfron,-4.333,56.07,94
94,Kincraig,-3.932,57.125,55
28,Milton,-3.756,56.529,28
24,Muthill,-3.831,56.331,20
79,Banchor,-3.814,57.445,79
28,Coilantogle,-4.267,56.234,24
28,Kingsford,-4.475,55.7,20
39,Creetown,-4.375,54.902,28
46,Gabroc Hill,-4.463,55.728,33
134,Lossiemouth,-3.292,57.718,55
33,Farr,-3.935,57.108,33
79,Bridge of Brown,-3.45,57.268,66
79,Dalblair,-4.14,55.449,39
192,Lawers,-4.151,56.528,134
46,Glenluce,-4.806,54.876,20
39,Kirkmichael,-4.614,55.346,28
276,Cairngaan,-4.9,54.649,230
94,Port of Menteith,-4.283,56.183,39
66,Tenston,-3.258,59.031,55
66,Ardeonaig,-4.162,56.495,66
55,Fowlis Wester,-3.738,56.398,46
94,Veness,-2.744,59.151,94
66,Guay,-3.626,56.623,66
46,Straloch,-3.563,56.759,46
28,Dalrymple,-4.585,55.398,24
28,Braeswick,-2.685,59.22,28
24,Maryport,-4.882,54.672,24
33,Allanaquoich,-3.45,57.004,33
134,Glenlee,-4.182,55.097,134
39,Knockdee,-3.418,58.529,39
112,Auchinroath,-3.22,57.55,66
112,Andreas,-4.443,54.368,39
46,Law,-3.881,55.752,20
276,Kilmarnock,-4.496,55.607,94
66,Renfrew,-4.389,55.875,28
24,Speybank,-3.907,57.14,24
55,Drumphail,-4.769,54.928,55
55,Blackbraes,-3.751,55.96,20
46,Everbay,-2.579,59.11,46
24,Spittal,-3.428,58.467,20
79,Drumrash,-4.064,55.023,79
39,Redburn,-3.766,57.504,39
33,Quoyscottie,-3.218,59.085,33
24,Carscreugh,-4.769,54.904,24
39,Blackcraig,-4.012,55.105,39
24,Powmill,-3.584,56.163,24
24,Cleghorn,-3.751,55.689,20
28,Twatt,-3.277,59.101,28
79,Stairhaven,-4.788,54.846,79
134,Ringford,-4.046,54.899,46
28,Kinloch,-3.386,56.588,20
39,Mossblown,-4.525,55.489,33
24,Moniaive,-3.919,55.195,20
39,Hyndford Bridge,-3.728,55.659,20
33,Oldhall,-4.381,55.848,20
39,Guildtown,-3.407,56.472,39
28,Breich,-3.651,55.829,20
55,Tongland,-4.032,54.864,20
33,Abergeldie,-3.172,57.04,33
66,Dykehead,-4.259,56.153,55
33,Gowkhall,-3.522,56.085,20
112,Bridge of Earn,-3.403,56.345,46
94,Barrhead,-4.393,55.803,28
28,Ardtalnaig,-4.112,56.528,28
24,St Davids,-5.264,51.882,20
66,Tretio,-5.223,51.913,66
24,Ardclach,-3.748,57.492,24
55,Blanefield,-4.312,55.988,33
33,Dunnet,-3.349,58.62,20
66,Brodie,-3.708,57.592,46
46,Bailiesward,-2.884,57.422,46
160,Callander,-4.21,56.242,94
55,Croftgarrow,-4.075,56.594,55
39,North Queensferry,-3.394,56.011,20
822,Berriedale,-3.497,58.184,230
66,Clova,-2.906,57.29,66
55,Llangwnnadl,-4.671,52.865,55
46,Hollybush,-4.537,55.402,33
55,Newgale,-5.124,51.858,55
28,Granston,-5.062,51.964,28
33,Fearnan,-4.076,56.575,33
94,Polbae,-4.688,55.023,79
55,Whitemire,-3.71,57.566,46
39,Coylton,-4.516,55.446,24
134,Dalswinton,-3.669,55.151,46
46,Corston,-3.194,59.057,46
28,Hurlford,-4.452,55.599,20
331,Costa,-3.165,59.134,134
39,Mugdock,-4.307,55.964,20
24,Dyke,-3.692,57.605,24
94,Auchlean,-3.892,57.055,94
55,Tarbolton,-4.484,55.512,24
28,Tummel Bridge,-4.018,56.709,20
33,Hall of Clestrain,-3.223,58.947,28
230,Houstry,-3.444,58.295,192
24,Ruskie,-4.216,56.181,24
33,Lochanhully,-3.796,57.289,33
28,Auchenmalg,-4.749,54.837,28
33,Arnprior,-4.233,56.126,24
24,Granish,-3.823,57.21,20
24,Avielochan,-3.815,57.228,24
46,Melsetter,-3.262,58.786,46
79,Gillock,-3.352,58.517,79
24,Grimmet,-4.644,55.36,20
24,Badnagie,-3.437,58.264,24
66,Kingswell,-4.388,55.7,55
55,Backlass,-3.366,58.471,55
94,Moss of Tain,-3.33,58.576,79
33,Stair,-4.475,55.48,20
28,Petertown,-3.206,58.932,28
94,Balnabruich,-3.439,58.247,94
160,Craigfad,-4.545,55.292,46
230,Airdrie Mill,-3.702,57.491,79
28,Linfairn,-4.546,55.278,28
55,Moscow,-4.403,55.634,28
28,Barlae,-4.69,54.909,28
28,Carnell,-4.427,55.556,28
55,Rosemount,-4.575,55.528,24
160,Struan,-3.959,56.765,94
46,Relugas,-3.683,57.515,46
33,Bowertower,-3.324,58.537,33
33,Polnessan,-4.496,55.375,20
55,Crofts of Benachielt,-3.394,58.325,55
66,Fintry,-4.224,56.056,46
24,Failford,-4.438,55.506,20
39,Smerral,-3.405,58.278,39
39,Knowe,-4.637,55.01,39
112,Patna,-4.494,55.358,55
94,Remony,-4.021,56.571,79
33,Bardowie,-4.267,55.932,24
24,Aitnoch,-3.697,57.436,24
33,Balmurrie,-4.804,54.96,33
134,Drongan,-4.458,55.434,55
33,Knockshinnoch,-4.473,55.396,28
33,Scarfskerry,-3.268,58.65,20
24,Blairskaith,-4.249,55.949,20
39,Logie,-3.652,57.536,39
33,Orchard Park,-4.303,55.806,20
24,Malling,-4.317,56.178,24
66,Carseriggan,-4.634,54.976,66
24,Kenmore,-3.998,56.586,24
94,Kippen,-4.174,56.127,33
46,Crosshands,-4.401,55.546,28
39,Clachan of Campsie,-4.226,55.989,20
33,Drumvaich,-4.138,56.213,28
46,Auchgourish,-3.757,57.218,33
24,Tomdow,-3.659,57.483,24
33,Mossgiel,-4.399,55.528,20
55,Trabbochburn,-4.424,55.466,24
46,Germiston,-3.137,58.982,46
192,Forres,-3.61,57.607,134
39,Milrig,-4.377,55.579,20
28,Lochend,-3.265,58.596,28
33,Westness,-3.078,59.144,33
39,Bargrennan,-4.585,55.054,39
79,Strathtummel,-3.932,56.718,79
66,Craighlaw Mains,-4.64,54.912,66
55,Invergeldie,-4.041,56.424,46
28,Waterside,-4.462,55.347,20
24,Orphir,-3.14,58.937,24
160,Crockness,-3.18,58.817,112
24,Clarkston,-4.285,55.785,24
33,Mains of Watten,-3.286,58.488,33
39,Mey,-3.233,58.636,39
134,Dava,-3.655,57.431,79
28,Hastigrow,-3.269,58.528,28
39,Wyng,-3.174,58.8,39
160,Mauchline,-4.377,55.514,55
66,Lennoxtown,-4.196,55.974,39
33,Waterfoot,-4.277,55.758,20
79,Dumgoyne,-4.372,56.022,33
79,Kirbister,-3.114,58.95,66
94,Badlipster,-3.29,58.424,94
24,Grimbister,-3.094,58.996,24
66,Forse,-3.328,58.292,66
55,Shennanton,-4.592,54.943,55
55,Dulnain Bridge,-3.681,57.29,24
160,Culshabbin,-4.637,54.826,94
685,Windywalls,-2.968,59.351,276
39,Burn of Cambus,-4.082,56.204,20
24,Kirk,-3.24,58.518,24
79,Tingwall,-3.045,59.089,79
134,Glasgow,-4.231,55.801,46
28,Abune-the-Hill,-3.247,59.139,28
79,Sortat,-3.22,58.551,79
134,Midbea,-2.974,59.283,134
24,Lumloch,-4.184,55.903,20
79,Dunalastair,-4.107,56.705,79
79,Dalcairney,-4.416,55.311,46
33,Rutherglen,-4.211,55.821,20
33,Ervadale,-3.005,59.167,33
66,Camerory,-3.623,57.36,24
24,Califer,-3.538,57.595,24
66,Gargunnock,-4.082,56.124,28
33,Elrig,-4.611,54.796,33
39,Whome,-3.106,58.825,39
28,Loch Head,-4.604,54.812,28
24,Craggan,-3.631,57.316,20
46,Knowhead,-4.307,55.54,28
66,Mains of Burgie,-3.521,57.614,39
24,Nethy Bridge,-3.647,57.264,24
112,Burghead,-3.489,57.701,66
160,Garrow,-3.915,56.54,55
79,Hempriggs,-3.502,57.657,33
66,Kirkintilloch,-4.144,55.932,66
28,Benfield,-4.536,54.945,28
46,Tigh-na-Blair,-3.987,56.326,39
33,Pennyvenie,-4.375,55.33,33
66,Spittal,-4.551,54.889,55
94,Mains of Craigmill,-3.52,57.569,39
33,Blair Drummond,-4.042,56.167,20
94,Stepps,-4.148,55.892,28
79,Brinian,-2.981,59.133,79
33,Branchill,-3.523,57.554,33
160,Aberfeldy,-3.866,56.619,79
112,Auchnafree,-3.916,56.481,79
39,Boreland,-4.509,54.978,20
33,Lindsayfield,-4.201,55.739,20
33,Mireland,-3.177,58.529,33
55,Skares,-4.323,55.429,28
33,Auchnagallin,-3.577,57.385,33
33,Backaskaill,-2.904,59.342,33
39,Greenigoe,-3.031,58.952,33
46,Barraer,-4.52,54.925,24
28,Clyth,-3.247,58.305,28
46,Kirkstyle,-3.133,58.638,46
33,Hawn,-2.972,59.118,33
276,Nethertown,-3.114,58.684,192
28,Nyadd,-4.026,56.154,28
94,Mochrum,-4.571,54.785,94
39,Killimster,-3.174,58.496,39
28,Auldhouse,-4.189,55.727,20
39,Nerston,-4.162,55.789,20
192,Craigmalloch,-4.385,55.225,112
46,Barrachan,-4.55,54.815,46
46,Skelwick,-2.9,59.288,46
28,Roseisle,-3.446,57.688,20
24,Twechar,-4.088,55.956,20
39,Skaill,-2.94,59.155,39
39,Achingills,-3.439,58.545,39
276,Newton Stewart,-4.481,54.961,276
24,Cumloden,-4.469,54.979,20
39,Alves,-3.45,57.642,39
112,Glenlichorn,-3.945,56.292,66
28,North Killimster,-3.152,58.481,28
24,Sibster,-3.158,58.46,24
79,Killiecrankie,-3.77,56.748,39
24,Cloves,-3.443,57.631,24
24,Nethershield,-4.241,55.514,24
28,Keiss,-3.125,58.535,24
28,Dallas,-3.466,57.553,28
28,Airyhassen,-4.531,54.789,28
66,Kilsyth,-4.055,55.976,24
28,Maneight,-4.298,55.358,28
24,Delliefure,-3.533,57.361,24
28,Ashfield,-3.961,56.214,20
55,Ardochrig,-4.162,55.694,39
24,Cromdale,-3.538,57.337,24
112,Monreith,-4.545,54.737,112
55,Tannach,-3.158,58.41,39
24,Ardgye,-3.423,57.653,24
55,Lynemore,-3.549,57.297,33
39,Ochtertyre,-3.885,56.39,20
39,Pluscarden,-3.437,57.597,39
55,Carron Bridge,-4.022,56.029,39
39,Causeway End,-4.466,54.911,39
24,Baltersan,-4.461,54.923,24
94,Hoxa,-3.01,58.828,94
192,Tofts,-3.087,58.596,134
79,Auchinleck,-4.423,55.008,33
39,Duffus,-3.396,57.7,39
33,John o' Groats,-3.066,58.638,33
28,Lochlane,-3.882,56.367,20
28,Croy,-4.04,55.956,20
33,Big Balcraig,-4.517,54.764,33
33,Craigiefield,-2.944,58.996,20
192,Whaligoe,-3.163,58.347,66
55,Grandtully,-3.771,56.654,39
46,Bargeddie,-4.076,55.854,20
39,Tradespark,-2.952,58.962,20
28,Craigens,-4.237,55.443,20
55,Rutherend,-4.126,55.724,33
24,Milton,-3.127,58.441,20
39,Ochtermuthill,-3.89,56.329,33
66,Milltown,-3.081,58.565,66
79,Gansclet,-3.142,58.385,39
28,The Balloch,-3.872,56.354,20
28,Newton,-3.119,58.43,20
28,Ardvorlich,-4.217,56.379,28
39,Cronberry,-4.21,55.479,24
24,Covesea,-3.368,57.715,24
28,High Banton,-4.006,55.997,24
33,Uddingston,-4.071,55.829,20
79,Glenboig,-4.044,55.893,20
39,Dirdhu,-3.525,57.268,39
46,Stronord,-4.422,54.946,24
39,Brockloch,-4.301,55.237,39
55,Balhaldie,-3.913,56.224,28
571,Pitlochry,-3.73,56.706,160
79,Braehead,-4.462,54.839,79
112,Limmerhaugh Muir,-4.187,55.518,46
66,Scotston,-3.782,56.563,55
79,Bridge of Allan,-3.934,56.152,33
39,Caldermill,-4.126,55.652,33
33,Quarrywood,-3.371,57.66,24
66,Corrymuckloch,-3.797,56.492,66
39,Amulree,-3.788,56.512,39
112,Cumbernauld,-4.003,55.95,79
24,Whiterow,-3.1,58.42,20
66,Braco,-3.88,56.265,20
276,Crieff,-3.838,56.374,134
33,Dunfallandy,-3.718,56.688,20
33,Advie,-3.457,57.397,33
33,Miltonduff,-3.373,57.626,28
33,Greenloaning,-3.883,56.244,20
33,Chartershall,-3.941,56.09,20
33,Gill of Garth,-2.913,58.948,28
39,Garrick,-3.861,56.288,39
33,Hamilton,-4.054,55.775,20
28,Balnaguard,-3.718,56.647,28
160,Peel,-4.685,54.221,79
66,Aikers,-2.947,58.8,66
28,St Mary's,-2.914,58.898,28
39,Mossetter,-2.957,58.764,39
134,North Dawn,-2.904,58.913,55
24,Staxigoe,-3.057,58.455,20
46,Bellshill,-4.021,55.819,28
39,Banknock,-3.953,55.989,24
79,Sorbie,-4.432,54.792,79
28,Glenmavis,-3.991,55.886,24
112,Castlemaddy,-4.272,55.178,112
28,Stoneywood,-3.936,56.025,20
24,Mansfield,-4.18,55.403,20
33,Udstonhead,-4.062,55.699,20
66,Burray Village,-2.917,58.845,66
66,Cloyntie,-4.629,55.315,33
39,Northtown,-2.903,58.865,39
94,Cleat,-2.939,58.746,94
39,Grimness,-2.91,58.827,39
55,Paddockhaugh,-3.329,57.611,28
66,Milton of Dalcapon,-3.669,56.676,28
55,Glenlatterach,-3.339,57.572,55
46,Fornighty,-3.779,57.535,46
160,Edmonstone,-2.823,59.068,66
28,Ferniegair,-4.006,55.767,20
39,Upper Knockando,-3.366,57.472,39
33,Quoyburray,-2.857,58.934,33
28,Muir,-3.538,56.988,28
24,Thomshill,-3.316,57.6,24
39,Ballinluig,-3.66,56.657,39
24,Whithorn,-4.414,54.735,20
39,Millbounds,-2.76,59.208,39
66,Carsluith,-4.357,54.865,33
39,Sandford,-4.036,55.664,20
24,Menstrie,-3.846,56.15,20
39,Culcronchie,-4.327,54.927,39
33,Tarvie,-3.61,56.759,33
276,Calfsound,-2.746,59.228,192
28,Backaland,-2.767,59.164,28
33,Cowie,-3.865,56.081,20
46,Drumbuie,-4.248,55.112,46
33,Tullibody,-3.847,56.125,24
66,Hall of Tankerness,-2.829,58.965,46
112,Craigdarroch,-4.155,55.335,46
476,Tonderghie,-4.415,54.693,192
94,Buchanty,-3.723,56.433,66
24,Linksness,-2.82,58.978,24
33,Belleheiglash,-3.355,57.422,33
46,Garlieston,-4.368,54.79,46
55,Chapelhall,-3.948,55.837,20
33,Plains,-3.93,55.88,33
331,Claybokie,-3.504,56.992,192
28,Dalguise,-3.646,56.608,28
28,Clayock,-3.43,58.514,28
39,Knowehead,-4.191,55.191,39
39,Bonnybridge,-3.873,55.992,39
94,Trochry,-3.662,56.542,79
39,Castletown,-4.649,54.075,39
94,Drumin,-3.36,57.355,94
39,Whitewreath,-3.272,57.597,28
94,Knocknalling,-4.205,55.139,94
94,Ballaugh,-4.541,54.309,79
112,Dalmarnock,-3.633,56.589,94
33,Ballasalla,-4.628,54.094,33
46,Glenhoul,-4.183,55.166,46
55,Quoyness,-3.295,58.905,46
79,Longriggend,-3.883,55.909,20
28,South Alloa,-3.804,56.103,20
94,Carron,-3.299,57.455,94
55,Madderty,-3.697,56.376,55
33,Swinhill,-3.949,55.72,20
24,Glenlivet,-3.336,57.345,24
39,Wishaw,-3.925,55.773,20
160,Auchterarder,-3.723,56.291,79
94,Alloa,-3.786,56.119,66
33,North Halley,-2.771,58.955,33
28,Earlstoun,-4.171,55.129,28
79,Jawcraig,-3.842,55.957,28
46,Harrietfield,-3.651,56.449,46
46,Robertstown,-3.267,57.481,46
134,Corlae,-4.111,55.256,94
24,Keillour,-3.659,56.411,24
39,Dunmore,-3.782,56.085,20
94,Trinity Gask,-3.68,56.346,39
24,Kilmahog,-4.248,56.249,20
55,Lochhill,-3.19,57.666,24
66,Lagrae,-4.04,55.404,20
79,Tomnavoulin,-3.31,57.319,79
39,Sulby,-4.48,54.321,39
28,Binniehill,-3.83,55.927,28
33,Neilston,-4.428,55.782,20
55,Tillicoultry,-3.738,56.153,28
24,Whiteacen,-3.237,57.502,24
79,Gibbieston,-3.601,56.508,79
39,Draffan,-3.917,55.687,20
39,Airth,-3.768,56.068,24
28,Rosebank,-3.899,55.726,20
24,Forrestfield,-3.833,55.883,20
39,Kirk of Shotts,-3.847,55.846,28
55,Manquhill,-4.092,55.227,55
55,Kirkmuirhill,-3.916,55.666,24
24,Tomintoul,-3.403,56.998,24
28,Aberuthven,-3.656,56.32,20
33,Rothiesholm,-2.673,59.094,33
28,Muir of Lochs,-3.166,57.646,24
33,Bonkle,-3.856,55.792,28
46,Rothes,-3.206,57.528,20
24,Belston,-4.557,55.453,20
39,Odie,-2.651,59.149,39
46,Skaill,-2.717,58.942,46
46,Kirkmichael,-3.498,56.721,46
28,Braegrum,-3.614,56.407,28
24,Bogside,-3.861,55.764,20
94,Blairnamarrow,-3.312,57.221,94
160,Spittal of Glenshee,-3.459,56.812,134
24,Clashnoir,-3.286,57.282,24
28,Hartwood,-3.839,55.811,20
66,Carroch,-4.081,55.2,66
55,Burness,-2.595,59.289,55
24,Milltown of Edinvillie,-3.223,57.445,24
79,Sandgreen,-4.218,54.843,79
24,Broughtown,-2.601,59.254,24
24,Shieldhill,-3.767,55.973,24
55,Auchallater,-3.387,56.978,55
33,Findo Gask,-3.615,56.363,33
94,Orbliston,-3.159,57.599,33
46,Balmaclellan,-4.11,55.089,46
46,Fingland,-3.97,55.438,39
33,Crossford,-3.865,55.698,20
55,Kincardine,-3.717,56.072,33
24,Newlands,-3.168,57.547,24
28,Dollar,-3.675,56.164,28
66,Chapeltown,-3.26,57.274,66
46,Knockbrex,-4.204,54.823,46
79,Forestmill,-3.686,56.125,28
79,Busby,-3.571,56.425,55
33,Inchberry,-3.145,57.585,33
79,Carmacoup,-3.914,55.529,79
79,Carluke,-3.832,55.735,39
33,Hazelbank,-3.852,55.684,33
33,Kingston,-3.109,57.673,33
33,Mosstodloch,-3.123,57.625,20
66,Ironmacannie,-4.096,55.057,66
24,Aith,-2.608,59.118,24
24,Avonbridge,-3.744,55.935,20
66,Kirkhill,-3.2,57.388,66
112,Whitehall Village,-2.599,59.141,112
28,Girthon,-4.172,54.857,28
33,Brightons,-3.718,55.98,20
55,Castlehill,-3.385,58.597,55
46,Dunning,-3.585,56.312,24
55,Lady,-2.546,59.257,55
33,Kirkandrews,-4.176,54.809,33
39,Gauls,-3.51,56.494,39
24,Forneth,-3.471,56.595,24
39,Harthill,-3.75,55.861,28
66,Maggieknockater,-3.139,57.496,66
28,Holmhead,-4.03,55.15,28
24,Yieldshields,-3.797,55.735,20
33,Fochabers,-3.097,57.612,20
112,Holland,-2.593,59.086,112
66,Caputh,-3.485,56.543,66
46,Midtown of Buchromb,-3.143,57.473,46
39,Nether Dallachy,-3.074,57.66,39
112,Laxey,-4.401,54.231,46
46,Auchroisk,-3.113,57.548,46
28,Hawksland,-3.828,55.638,28
66,Pool of Muckhart,-3.611,56.188,33
28,Cartland,-3.802,55.696,20
46,Carco,-3.914,55.405,28
112,Sanquhar,-3.924,55.368,112
39,Auchlunkart,-3.104,57.53,39
24,Borness,-4.152,54.788,24
66,Westfield,-3.695,55.932,28
33,Loan,-3.681,55.963,20
24,Kilncadzow,-3.775,55.72,24
46,Ardoch,-3.466,56.523,46
28,Dufftown,-3.125,57.452,20
276,Craigdarroch,-3.98,55.196,134
24,Kirbuster,-2.558,59.101,24
24,Mile-end,-4.13,54.823,24
39,Auchenhalrig,-3.054,57.642,39
66,Forteviot,-3.531,56.341,46
39,Armadale,-3.698,55.897,28
33,Huntingtower,-3.5,56.408,24
46,Airntully,-3.463,56.503,46
134,Sellibister,-2.491,59.279,134
33,Castlefairn,-3.984,55.161,33
28,Rumbling Bridge,-3.584,56.177,28
24,Newark,-2.49,59.266,24
160,Lanark,-3.775,55.673,55
94,Auchenbrack,-3.942,55.248,94
28,Auchenvey,-4.004,55.082,28
24,Milton,-3.744,57.554,24
39,Mybster,-3.427,58.456,39
79,Fauldhouse,-3.706,55.828,28
134,Invergelder,-3.249,57.03,134
94,Whitburn,-3.688,55.866,24
33,Douglas Water,-3.787,55.609,33
33,Brighouse,-4.113,54.79,33
28,Twynholm,-4.081,54.866,24
24,West Tofts,-3.441,56.493,24
66,Forter,-3.338,56.768,66
33,Middleton,-3.395,56.613,28
39,Glencrosh,-3.95,55.18,39
134,Rochallie,-3.382,56.645,55
46,Bush Crathie,-3.23,57.053,46
160,Bridgehaugh,-3.1,57.41,94
28,Belsyde,-3.638,55.964,20
55,Balgonar,-3.575,56.126,33
46,Braes of Enzie,-3.02,57.627,33
230,Hollandstoun,-2.432,59.364,230
33,Stormontfield,-3.448,56.453,28
55,Chanlockfoot,-3.9,55.281,55
24,Saline,-3.573,56.114,20
66,Harelaw,-3.725,55.712,28
33,St Agnes,-6.344,49.892,33
24,Forgie,-3.028,57.576,24
55,Milltown of Auchindoun,-3.072,57.447,55
24,Northwall,-2.442,59.293,24
39,Auchengruith,-3.858,55.364,28
33,Forgandenny,-3.474,56.348,20
24,Path of Condie,-3.496,56.287,24
33,Bo'ness,-3.602,56.012,33
24,Hill End,-3.551,56.141,24
112,Stronachie,-3.506,56.26,33
66,Colnabaichin,-3.169,57.165,66
46,Knocklearn,-3.956,55.092,46
160,Forth,-3.687,55.767,46
55,Bathgate,-3.631,55.902,39
28,Wilsontown,-3.676,55.781,20
79,Rossie Ochill,-3.476,56.301,39
28,Auchenhessnane,-3.884,55.251,28
112,Linlithgow,-3.599,55.973,33
28,Cowstrandburn,-3.55,56.099,20
571,Higher Town,-6.282,49.961,331
134,Kirkcudbright,-4.046,54.838,79
46,Ballochford,-3.065,57.391,46
66,Kinclaven,-3.38,56.53,39
28,Aultmore,-2.999,57.569,24
94,Old Town,-6.298,49.913,94
276,Buckie,-2.961,57.673,160
28,Craighall,-3.344,56.618,28
39,Merkland,-3.957,55.04,39
134,Corsock,-3.946,55.066,94
46,Lornty,-3.349,56.602,20
28,Stoneyburn,-3.635,55.844,24
28,Cargill,-3.378,56.517,28
46,Glenlochar,-3.984,54.959,24
39,Towiemore,-3.015,57.498,33
33,Ardoch,-3.828,55.331,33
112,Balmae,-4.047,54.783,46
230,Badenyon,-3.093,57.258,160
28,Carsie,-3.346,56.567,20
39,Scone,-3.4,56.421,24
24,Glenlair,-3.941,55.03,24
24,Drybridge,-2.947,57.65,20
24,Townhead,-4.033,54.796,24
230,Blairgowrie,-3.334,56.582,134
33,Champany,-3.557,55.993,20
46,Kirkland,-3.87,55.192,46
39,Bridge of Dee,-3.976,54.918,24
28,St Martins,-3.372,56.459,28
276,Rhosson,-5.3,51.881,134
134,Aldunie,-3.051,57.327,134
33,Wanlockhead,-3.777,55.398,20
112,Glas-allt-Shiel,-3.19,56.929,112
79,Lower Cabrach,-3.031,57.366,79
33,Craigie,-4.49,55.56,28
28,Bombie,-4.001,54.828,20
79,Meikle Whitefield,-3.347,56.498,39
24,Pettinain,-3.662,55.669,24
28,West End,-3.649,55.702,28
39,Wester Dechmont,-3.565,55.914,20
55,Leadhills,-3.759,55.416,39
28,Upper Tillyrie,-3.436,56.243,20
24,Findochty,-2.903,57.698,20
46,Alvie,-3.877,57.158,28
1419,Holyhead,-4.632,53.308,230
28,Feshiebridge,-3.892,57.116,28
94,Cleish,-3.459,56.167,28
28,Clarebrand,-3.928,54.973,24
24,Blackness,-3.521,56.002,24
28,Bridgend,-3.534,55.962,20
28,Little Pitlurg,-2.96,57.501,28
33,Dron,-3.391,56.328,20
571,Harrier,-2.08,60.15,397
55,Penpont,-3.816,55.231,55
46,Old Bridge of Urr,-3.912,54.991,39
24,Bamff,-3.267,56.65,24
46,Coilacriech,-3.116,57.059,46
46,Castle Douglas,-3.93,54.942,46
24,Rhynd,-3.364,56.366,20
28,Milnathort,-3.416,56.228,20
94,Burn of Aultmore,-2.914,57.596,39
28,Annbank,-4.52,55.476,20
66,Lary,-3.095,57.089,66
33,Trearddur,-4.619,53.285,20
39,Haugh of Glass,-2.965,57.439,39
66,Airieland,-3.936,54.892,39
39,Duncrievie,-3.395,56.269,33
66,Straith,-3.821,55.176,66
134,Livingston,-3.536,55.896,112
79,Holestane,-3.778,55.279,79
55,Belnacraig,-3.034,57.235,55
33,Spittal of Glenmuick,-3.137,56.951,33
33,Kinfauns,-3.347,56.385,33
33,Abington,-3.692,55.491,33
55,Bowershall,-3.451,56.104,28
33,Carronbridge,-3.78,55.262,33
39,Covington,-3.628,55.643,39
28,Gelston,-3.921,54.908,28
28,Kirkton of Glenbuchat,-3.032,57.222,28
28,Keir Mill,-3.794,55.218,28
46,Marchlands,-3.656,55.565,46
33,Dumeath,-2.959,57.422,33
24,Portknockie,-2.858,57.702,20
66,Niggards,-2.059,60.121,66
39,Thankerton,-3.63,55.624,20
66,Kirkton,-3.686,55.472,66
46,Aberargie,-3.355,56.327,20
39,Cyffredin,-5.206,51.933,39
230,Dunfermline,-3.45,56.071,134
39,Gairney Bank,-3.409,56.178,28
79,Dundrennan,-3.948,54.81,39
33,Libberton,-3.603,55.67,33
94,Runtaleave,-3.17,56.799,94
24,Kirkcarswell,-3.937,54.823,24
33,Formal,-3.215,56.673,33
160,Heugh-head,-3.024,57.19,112
33,Rhoscolyn,-4.599,53.252,24
24,Tarbrax,-3.553,55.778,24
39,Margreig,-3.825,55.084,39
46,Glen,-3.832,55.066,46
134,Hunspow,-3.348,58.636,79
66,Alyth,-3.228,56.622,55
55,Gordieston,-3.802,55.136,55
66,Birkhall,-3.077,57.027,66
55,Aucholzie,-3.083,57.001,55
46,Grange Crossroads,-2.875,57.578,39
46,Rhydwyn,-4.534,53.372,46
39,Hillockhead,-3.018,57.171,39
39,Haugh of Urr,-3.858,54.977,39
33,Llanfaethlu,-4.537,53.354,33
39,Crocketford,-3.83,55.035,39
24,Burnside,-3.351,56.257,24
66,Whitchurch,-5.199,51.884,66
28,Winchburgh,-3.461,55.957,20
66,Broxburn,-3.468,55.935,39
24,Abernethy,-3.315,56.332,20
28,Cairnborrow,-2.9,57.453,28
112,Elvanfoot,-3.656,55.437,28
28,Ballater,-3.042,57.049,20
28,Kirktown of Deskford,-2.83,57.641,28
24,Orroland,-3.909,54.799,24
46,Balintore,-3.163,56.718,20
33,Rinmore,-2.97,57.241,33
112,Gatelawbridge,-3.727,55.248,112
79,Whitecastle,-3.564,55.659,33
33,Lintmill,-2.813,57.677,33
46,Wester Balgedie,-3.346,56.223,28
24,Fenwick,-4.441,55.657,20
79,Closeburn,-3.738,55.212,79
39,Trevine,-5.146,51.949,39
28,Cample,-3.729,55.227,28
46,Bridgend of Lintrathen,-3.169,56.678,39
112,Newton,-2.869,57.495,46
79,Clova,-3.104,56.846,79
28,Milton,-2.811,57.657,28
55,Llanfairyneubwll,-4.548,53.26,24
55,Barndennoch,-3.741,55.177,55
39,East Calder,-3.46,55.892,33
94,Durdie,-3.263,56.408,46
55,Auchencairn,-3.874,54.843,24
46,Shanzie,-3.175,56.639,24
39,Milton,-3.803,55.015,39
46,Leys,-3.216,56.525,20
192,Weston,-3.525,55.711,66
39,Nether Urquhart,-3.313,56.263,39
94,Tregele,-4.473,53.406,66
33,Milltown,-3.758,57.451,33
33,Ardler,-3.195,56.565,33
79,Newtonairds,-3.756,55.105,66
55,Bodermid,-4.736,52.794,55
94,Shawhead,-3.77,55.064,79
33,Tillathrowie,-2.882,57.403,33
28,Methlem,-4.714,52.84,28
39,Rascarrel,-3.871,54.814,39
39,Crossgates,-3.368,56.083,20
39,Kinnaird,-3.231,56.445,39
28,Brae,-3.773,55.048,28
55,Milngavie,-4.325,55.943,20
28,Ruthven,-3.157,56.627,28
46,Bodedern,-4.503,53.296,28
46,Treffynnon,-5.128,51.914,46
94,Queensferry,-3.393,55.985,39
24,Llanbadrig,-4.443,53.421,24
28,The Haughs,-2.822,57.53,28
66,Coulter,-3.547,55.588,28
28,Milton of Lesmore,-2.883,57.346,28
134,Abernyte,-3.203,56.468,66
24,Elim,-4.473,53.336,24
39,St Brides,-5.192,51.748,39
39,Walston,-3.498,55.695,39
79,Tresinwen,-5.061,52.024,28
33,Auldgirth,-3.706,55.163,33
33,Marloes,-5.197,51.73,20
160,Biggar,-3.522,55.624,112
79,Kirkgunzeon,-3.773,54.982,33
24,Bonnington,-3.407,55.908,20
24,Newbigging,-3.158,56.565,24
66,Newburgh,-3.237,56.351,66
24,Clashindarroch,-2.861,57.373,24
112,Kippford,-3.812,54.877,46
28,Kirkton of Airlie,-3.122,56.652,28
94,Mathry,-5.086,51.944,55
24,Rhoshirwaun,-4.681,52.831,24
79,Easter Lednathie,-3.081,56.754,66
55,Toux,-2.766,57.619,46
112,Wheedlemont,-2.871,57.323,94
46,Llantrisant,-4.457,53.326,46
33,Migvie,-2.931,57.147,33
66,Llanbabo,-4.44,53.356,55
55,The Drums,-3.052,56.809,55
24,Fordyce,-2.745,57.662,24
24,St Nicholas,-5.059,51.979,24
28,Logie Coldstone,-2.934,57.127,28
28,Bryngwran,-4.474,53.27,28
39,Locherben,-3.642,55.257,39
46,Lochfoot,-3.726,55.045,46
39,Lundie,-3.153,56.516,39
134,Bearsden,-4.33,55.917,55
28,Rockcliffe,-3.794,54.865,28
39,Milltown of Towie,-2.896,57.202,39
94,Auchtermuchty,-3.231,56.292,46
24,Kirkton of Kingoldrum,-3.084,56.684,24
112,Dale,-5.172,51.705,66
55,Grange,-3.182,56.417,46
46,Mossat,-2.872,57.26,46
55,Craigton,-3.097,56.641,46
24,Knapp,-3.159,56.471,24
39,Beeswing,-3.726,55.008,39
39,Knock,-2.76,57.562,39
24,Woodend,-3.274,56.153,20
24,Nolton Haven,-5.105,51.825,24
55,Dergoals,-4.735,54.897,55
79,Ardtrostan,-4.141,56.388,66
39,Millburn,-4.465,55.535,20
46,Ramscraigs,-3.463,58.222,46
39,Kintessack,-3.674,57.62,24
571,Aviemore,-3.826,57.198,230
39,Straiton,-4.549,55.312,33
66,Waterside,-4.408,55.663,46
112,Achavanich,-3.406,58.366,112
39,Kinveachy,-3.801,57.242,33
24,Conicavel,-3.68,57.557,24
46,Inverdruie,-3.817,57.176,20
24,Trabboch,-4.467,55.464,24
46,Newton Mearns,-4.337,55.772,46
55,Houton,-3.19,58.92,46
39,Foss,-3.975,56.699,39
39,Coshieville,-3.995,56.619,39
66,Inkstack,-3.278,58.613,66
55,Stenso,-3.11,59.114,55
24,North Watten,-3.312,58.511,24
46,Galston,-4.381,55.599,33
46,Thornhill,-4.148,56.174,28
66,Finstown,-3.121,59.008,20
230,Glentrool Village,-4.574,55.073,94
94,Wasbister,-3.06,59.179,94
24,Springfield,-3.593,57.621,20
46,Achnahannet,-3.7,57.324,39
24,Alticry,-4.671,54.816,24
33,Torrance,-4.212,55.942,24
39,Sinclairston,-4.416,55.42,20
33,Beachans,-3.625,57.498,33
33,Bishopbriggs,-4.217,55.91,33
134,Norseman,-3.083,59.047,66
66,Pierowall,-2.99,59.318,66
112,Eaglesham,-4.275,55.742,28
24,Auchmillan,-4.351,55.537,20
28,Rackwick,-2.976,59.336,28
46,Rafford,-3.572,57.587,20
33,Frotoft,-3.038,59.131,33
33,Alterwall,-3.227,58.565,33
28,Shawfield,-4.225,55.834,20
39,Hackland,-3.055,59.07,39
24,Ochiltree,-4.363,55.461,24
33,Aundorach,-3.687,57.228,33
55,Slickly,-3.209,58.582,55
33,Milton of Campsie,-4.16,55.961,20
134,Myrelandhorn,-3.226,58.509,66
24,Bilbster,-3.238,58.459,24
55,Blair Atholl,-3.843,56.766,28
112,Comrie,-3.988,56.375,66
33,Catrine,-4.327,55.502,20
39,Upper Camster,-3.261,58.356,39
66,Doune,-4.05,56.189,39
33,Roster,-3.26,58.339,33
230,Grantown-on-Spey,-3.608,57.331,112
79,Winless,-3.198,58.469,46
55,East Kilbride,-4.184,55.758,39
39,Auchinleck,-4.291,55.471,20
134,Sliemore,-3.595,57.264,55
24,Langside,-3.954,56.302,24
55,Halfway,-4.141,55.813,28
24,Edradynate,-3.821,56.645,24
33,Congash,-3.569,57.317,20
46,Mid Clyth,-3.212,58.32,46
24,Quoig,-3.912,56.381,24
24,Drumtroddan,-4.547,54.775,24
46,Moodiesburn,-4.086,55.914,24
39,Hareshaw,-4.187,55.65,39
33,Onziebust,-2.924,59.137,33
28,Stobieside,-4.188,55.633,28
33,Shielbrae,-4.004,56.084,33
160,Dunblane,-3.963,56.189,66
28,Carsegowan,-4.463,54.898,28
39,Whauphill,-4.486,54.818,20
55,Drumclog,-4.16,55.623,55
39,Littlemark,-4.253,55.369,39
55,Newton,-3.806,56.466,55
24,Sarclet,-3.115,58.375,24
46,Garryhorn,-4.289,55.215,46
33,Kellas,-3.388,57.572,33
230,Stirling,-3.932,56.109,94
55,Monzie,-3.816,56.405,24
46,Salterhill,-3.336,57.689,24
28,Gilmerton,-3.804,56.392,20
33,Limekilnburn,-4.058,55.733,33
79,West Side,-2.816,59.18,79
28,Nether Wellwood,-4.136,55.509,28
55,Glasserton,-4.455,54.719,55
66,Castlewigg,-4.437,54.759,66
46,Riggend,-3.975,55.908,20
94,Strathaven,-4.064,55.68,55
160,New Cumnock,-4.178,55.391,55
55,Mid Garrary,-4.3,55.084,55
24,Netherwood,-4.12,55.531,24
28,Tormore,-3.408,57.398,28
476,Elgin,-3.313,57.648,397
24,Bardennoch,-4.235,55.199,24
33,Fallin,-3.875,56.106,20
79,Newlot,-2.828,59.024,55
24,Dennyloanhead,-3.91,56,20
33,Balmacneil,-3.662,56.636,33
24,Knockando,-3.353,57.461,24
24,Cults,-4.392,54.762,24
94,Plean,-3.871,56.064,20
94,Foxdale,-4.633,54.168,66
46,Kirk Michael,-4.583,54.282,46
33,Milton of Machany,-3.764,56.324,28
94,Bridge-end,-3.363,57.405,94
46,Blackford,-3.782,56.261,28
46,Torwood,-3.863,56.044,20
24,Braehead,-2.838,58.896,24
331,Larkhall,-3.969,55.735,24
79,Cornquoy,-2.828,58.883,79
46,Alva,-3.804,56.153,24
55,Delnabo,-3.393,57.238,55
28,Isle of Whithorn,-4.365,54.702,28
55,Upper Sanday,-2.795,58.912,55
39,Caldercruix,-3.882,55.89,24
28,St David's,-3.7,56.362,28
28,Little Glenshee,-3.65,56.49,28
28,Milton,-3.364,57.255,28
46,Glen,-4.267,54.894,46
28,Stove,-2.684,59.207,28
24,Fishcross,-3.77,56.138,20
66,Lhanbryde,-3.215,57.635,39
55,Stenhousemuir,-3.809,56.028,20
46,Inver,-3.6,56.561,46
46,Glen Vine,-4.549,54.177,28
46,Glenbuck,-3.981,55.544,46
28,Daugh of Kinermony,-3.256,57.453,28
46,Balvarran,-3.516,56.741,46
24,Jersay,-3.863,55.832,24
331,Falkirk,-3.794,56.004,230
33,Netherburn,-3.906,55.71,20
46,Auchnarrow,-3.309,57.293,46
79,Polskeoch,-4.069,55.297,66
28,Clackmannan,-3.746,56.108,20
39,Balgowan,-3.631,56.384,39
24,New Galloway,-4.14,55.074,20
39,Bogue,-4.122,55.108,39
134,Baddoch,-3.416,56.929,134
112,Anwoth,-4.21,54.88,66
28,Easter Elchies,-3.207,57.484,28
33,Riechip,-3.523,56.613,33
46,Kirkconnel,-3.994,55.382,28
55,Butterstone,-3.523,56.597,55
24,Dandalieth,-3.19,57.498,24
66,Lesmahagow,-3.887,55.641,55
33,New Trows,-3.891,55.625,20
28,Broom of Dalreoch,-3.615,56.337,28
39,Benbuie,-4.029,55.243,39
39,Waterloo,-3.527,56.516,39
39,Blackridge,-3.768,55.885,20
46,Coalburn,-3.883,55.591,28
66,Corriedoo,-4.068,55.123,66
79,Ballintuim,-3.462,56.679,79
28,Grangemouth,-3.714,56.011,20
79,Burnfoot,-3.63,56.221,39
24,Ordiquish,-3.106,57.598,24
46,Blairingone,-3.634,56.152,20
134,Lair,-3.406,56.755,112
46,Little Duchrae,-4.084,54.997,46
46,Moneydie,-3.514,56.45,46
39,Pitcairngreen,-3.517,56.427,28
46,Douglas,-3.845,55.555,24
79,Clunie,-3.449,56.579,55
55,Blacklunans,-3.391,56.729,55
33,Laurieston,-4.058,54.961,33
24,Whitecross,-3.651,55.974,20
331,Uddington,-3.802,55.581,55
160,Craig,-4.042,54.98,46
24,Milltown of Aberdalgie,-3.496,56.369,24
28,New Grimsby,-6.336,49.955,28
39,Auchavan,-3.326,56.811,39
24,Climpy,-3.708,55.779,20
24,Ross,-4.106,54.78,24
55,High Valleyfield,-3.595,56.061,39
28,Carnbo,-3.523,56.211,28
112,Lochurr,-3.94,55.146,112
33,Rosarie,-3.031,57.536,33
33,Oakley,-3.567,56.084,20
397,Perth,-3.443,56.398,230
46,Ravenstruther,-3.709,55.688,33
55,Craigenputtock,-3.927,55.12,55
24,Maypole,-6.29,49.926,24
112,Crawfordjohn,-3.774,55.496,94
39,Blackburn,-3.622,55.876,24
33,Dalqueich,-3.485,56.225,28
24,Stobwood,-3.661,55.759,20
46,Tynron,-3.875,55.216,46
79,Carmichael,-3.71,55.628,39
46,Braehead,-3.665,55.739,24
46,Kirkton of Glenisla,-3.283,56.732,46
39,Tullymurdoch,-3.307,56.657,33
24,Cairneyhill,-3.529,56.06,24
55,Tarsappie,-3.41,56.372,24
39,Crombie,-3.527,56.048,20
24,Whinnieliggate,-3.995,54.85,24
134,Enterkinfoot,-3.799,55.319,55
28,Sundaywell,-3.867,55.14,28
112,Keith,-2.955,57.544,94
33,Strathdon,-3.078,57.202,33
28,Newmill,-2.946,57.56,20
55,Crofts,-3.892,55.047,55
39,Philpstoun,-3.525,55.976,24
28,Bellaty,-3.242,56.719,28
28,Charlestown,-3.498,56.037,20
66,West Calder,-3.569,55.85,33
66,Auchengray,-3.6,55.77,39
55,Woolfords Cottages,-3.59,55.796,39
24,Cabrach,-3.016,57.328,24
24,Littlemill,-3.116,57.048,24
28,Tomnaven,-2.992,57.388,28
66,Slate Haugh,-2.898,57.644,28
46,Kinrossie,-3.318,56.477,46
66,Roberton,-3.675,55.54,66
66,Bauds of Cullen,-2.873,57.688,39
24,High Enoch,-3.767,55.291,24
24,Ecclesmachan,-3.508,55.945,20
28,Da Toon o Ham,-2.054,60.135,28
46,Succoth,-2.956,57.406,46
46,Netherlaw,-3.957,54.787,46
28,Springholm,-3.865,55.01,28
94,Coupar Angus,-3.267,56.546,33
24,Thornhill,-3.765,55.24,20
28,Caerfarchell,-5.207,51.897,28
33,Longdrum,-3.18,56.738,33
55,Llanfwrog,-4.553,53.329,33
55,Elrick,-2.962,57.319,55
24,Newbigging,-3.568,55.696,20
66,Valley,-4.563,53.286,28
66,Davoch of Grange,-2.872,57.552,39
24,Kingseat,-3.406,56.099,20
24,Solva,-5.197,51.873,24
33,Rosyth,-3.43,56.028,24
55,Kelty,-3.383,56.136,24
55,Leitfie,-3.208,56.598,20
55,Watermeetings,-3.654,55.4,55
24,Boultenstone,-2.974,57.185,24
28,Llanfigael,-4.511,53.318,28
79,Milton of Tullich,-3.011,57.066,79
24,Kinnesswood,-3.328,56.212,20
28,Park,-3.716,55.2,28
39,Palnackie,-3.839,54.892,28
230,Dalbeattie,-3.821,54.932,112
33,Keillor,-3.19,56.551,33
24,Glenprosen Village,-3.101,56.782,24
55,Cowdenbeath,-3.349,56.111,55
79,Ballingry,-3.327,56.163,28
46,Scotlandwell,-3.311,56.2,28
39,Kirkliston,-3.405,55.955,24
28,Glenkindie,-2.936,57.212,28
33,Ruthven,-2.825,57.508,33
33,Meigle,-3.16,56.587,33
46,Littleton,-3.194,56.493,46
46,Rhosneigr,-4.519,53.231,24
39,Dunsyre,-3.476,55.719,39
24,Ratho Station,-3.391,55.936,20
33,Sandend,-2.748,57.682,24
39,Elsrickle,-3.492,55.675,20
66,Mains of Kildrummy,-2.904,57.235,66
39,Errol,-3.211,56.393,20
33,Wheen,-3.048,56.825,33
28,Penllech,-4.645,52.881,28
24,Lumsden,-2.874,57.284,24
46,Ratho,-3.379,55.923,28
28,Capel Gwyn,-4.474,53.254,28
28,Rhôs-y-llan,-4.622,52.909,28
33,Bodewryd,-4.409,53.393,33
33,Bryncroes,-4.635,52.852,33
33,Bull Bay,-4.372,53.422,20
39,Bridgend,-2.809,57.41,28
24,Cottown,-2.819,57.327,24
33,Penmynydd,-4.232,53.247,33
24,Leslie,-3.213,56.2,20
230,Haddington,-2.784,55.956,79
46,Skirling,-3.464,55.639,20
33,Llandegwning,-4.576,52.841,33
192,Glenrothes,-3.18,56.196,66
24,Carmel,-4.423,53.315,24
33,Rhosgoch,-4.392,53.378,28
112,Castleton,-3.082,56.608,46
33,Brynsiencyn,-4.274,53.181,28
112,Portsoy,-2.692,57.68,79
39,Bogton,-2.541,57.553,33
39,Greystone,-2.935,57.053,39
134,Balgaveny,-2.568,57.457,55
28,Maiden Wells,-4.932,51.659,20
24,Goodwick,-4.997,52.002,20
55,Llawhaden,-4.805,51.817,28
112,Talbenny,-5.131,51.763,46
112,Llanfaelrhys,-4.651,52.811,112
79,Craigton,-2.794,56.533,28
24,Dolbenmaen,-4.227,52.966,24
39,Auchtertool,-3.255,56.102,24
94,Simpson Cross,-5.062,51.832,33
33,Login,-4.668,51.877,33
134,Dinas,-4.575,52.895,66
46,Elie,-2.82,56.191,20
28,Penally,-4.728,51.659,20
28,Turnhouse,-3.344,55.952,20
28,Boarhills,-2.703,56.318,28
66,Port Carlisle,-3.185,54.949,28
66,Llynfaes,-4.387,53.281,33
160,Aber-banc,-4.401,52.048,112
66,Brough,-1.208,60.478,66
24,Llanwnda,-5.012,52.011,20
46,Llechcynfarwy,-4.431,53.303,46
24,Herbrandston,-5.087,51.724,24
33,Scorrier,-5.194,50.255,20
66,Ringasta,-1.326,59.912,66
39,Blyth Bridge,-3.38,55.695,39
192,Bronaber,-3.911,52.87,66
46,Branxholme,-2.847,55.397,33
46,Mains of Crichie,-2.044,57.496,20
24,Gadfa,-4.32,53.383,24
39,Kirkton of Logie Buchan,-2.023,57.356,24
134,Sebergham,-2.993,54.766,66
28,New Cross,-4.009,52.373,28
33,New Belses,-2.673,55.52,33
94,Corris Uchaf,-3.856,52.663,55
230,Huntly,-2.787,57.447,160
24,Llangendeirne,-4.238,51.803,24
28,Wolfsdale,-5.004,51.851,28
39,Balloch,-3.055,56.708,28
55,St Stephen,-4.89,50.339,20
24,Knowes of Elrick,-2.661,57.574,24
46,Skaw,-0.93,60.378,20
134,Pont Llanio,-3.971,52.194,66
24,Matterdale End,-2.936,54.604,24
39,Llanychaer,-4.933,51.978,20
46,Clachnabrain,-3.026,56.783,46
192,Hearthstane,-3.408,55.521,94
55,Treffgarne,-4.971,51.872,55
33,Roch,-5.084,51.847,20
28,Dinas Cross,-4.904,52.01,24
79,Glasslie,-3.231,56.233,28
39,Aberdour,-3.299,56.053,28
55,Kirkmichael Mains,-3.541,55.171,39
46,Gordonstown,-2.732,57.594,46
55,Drumelzier,-3.371,55.593,55
28,Bow of Fife,-3.097,56.303,28
39,Mainsriddle,-3.644,54.895,39
55,Milltown of Rothiemay,-2.757,57.522,55
28,Dunshalt,-3.212,56.281,20
24,Kinghorn,-3.178,56.069,24
39,Moonzie,-3.067,56.346,28
39,Panteg,-5.023,51.972,20
39,Duncanstone,-2.701,57.328,39
46,Shieldhill,-3.52,55.151,33
39,Jordanston,-5.031,51.951,33
192,Aboyne,-2.785,57.073,134
112,Culdrain,-2.801,57.392,46
46,Blackacre,-3.494,55.202,46
46,Douglastown,-2.951,56.614,33
134,Overton,-3.589,54.962,94
55,Beattock,-3.45,55.306,20
55,Ordie,-2.904,57.103,46
33,Bottomcraig,-3.023,56.409,33
24,Bellspool,-3.33,55.602,24
134,Hayscastle,-5.06,51.888,79
39,Scolton,-4.92,51.859,39
24,Terregles,-3.677,55.077,24
94,Biggings,-1.681,60.328,94
46,Auchterderran,-3.259,56.142,24
24,Manorowen,-5.013,51.985,20
24,St Ishmael's,-5.135,51.722,20
24,Largie,-2.65,57.372,24
28,Castlebythe,-4.879,51.921,28
28,Rosemarket,-4.965,51.737,20
55,East Davoch,-2.883,57.154,55
33,Balkeerie,-3.089,56.591,33
39,Aberffraw,-4.466,53.193,39
94,Noranside,-2.862,56.739,66
39,Rhos-fawr,-4.401,52.926,28
55,Kennoway,-3.046,56.211,20
33,Pontllyfni,-4.337,53.048,28
24,Pearsie,-3.038,56.723,24
28,Birse,-2.729,57.061,24
55,Dothan,-4.441,53.245,55
24,Gogar,-3.335,55.935,20
33,Druidston,-5.092,51.807,33
39,Wrangham,-2.611,57.37,24
46,Keig,-2.649,57.26,28
28,Loanhead,-3.159,55.88,20
33,Dolphinton,-3.422,55.709,20
230,Johnstonebridge,-3.415,55.213,66
39,Llanfaglan,-4.287,53.119,20
46,Wiston,-4.871,51.824,33
24,Haroldston West,-5.096,51.795,24
39,Holywood,-3.657,55.11,33
46,Trewellard,-5.671,50.147,20
94,Montrave,-3,56.246,24
24,Dinwoodie Mains,-3.402,55.203,24
39,South Straiton,-2.941,56.394,24
66,Newnoth,-2.803,57.359,66
46,Whitehouse,-2.634,57.225,28
39,Lownie Moor,-2.848,56.626,20
24,Gartly,-2.796,57.378,24
160,New Moat,-4.816,51.893,79
33,Dairsie,-2.949,56.345,33
33,Keilhill,-2.482,57.626,33
28,Kirkton,-2.506,57.539,20
134,King Edward,-2.479,57.61,55
33,Kinglassie,-3.238,56.174,20
33,Pitscottie,-2.942,56.307,28
230,Inchgrundle,-2.967,56.899,134
66,Rhostryfan,-4.246,53.099,28
230,Peebles,-3.187,55.648,160
66,Martletwy,-4.847,51.76,55
39,Ceidio,-4.389,53.344,39
39,Craichie Mill,-2.81,56.611,33
24,Walton West,-5.099,51.772,24
46,Sandyhills,-3.74,54.885,46
24,Carrington,-3.088,55.834,20
66,Y Ferwig,-4.652,52.116,24
160,Lockerbie,-3.359,55.124,112
160,Zennor,-5.567,50.192,46
33,Dalton,-3.384,55.054,33
33,Ruthwell,-3.406,54.994,33
24,Cresswell Quay,-4.824,51.722,24
55,Lowca,-3.572,54.582,24
46,Rottington,-3.603,54.504,28
28,Ordley,-2.463,57.488,28
39,Suntrap,-3.328,55.924,24
39,Auchmull,-2.682,56.862,39
55,Kincaple,-2.87,56.355,20
571,Whitehaven,-3.577,54.542,331
33,Pitkevy,-3.214,56.219,20
33,Hasguard,-5.109,51.742,33
55,Llanfair-Nant-Gwyn,-4.676,52.006,55
55,Groesffordd,-4.569,52.925,55
39,Backhill of Trustach,-2.6,57.064,39
160,Nether Howecleuch,-3.53,55.399,66
28,Beaumaris,-4.096,53.264,20
94,Urafirth,-1.449,60.491,94
39,Dinnet,-2.893,57.078,39
46,Clunderwen,-4.73,51.839,20
192,Comers,-2.543,57.156,55
39,Newbridge,-3.651,55.091,20
33,"Muiryfold",-2.393,57.551,28
33,Newlyn,-5.551,50.103,20
79,Llanfihangel-y-pennant,-4.196,52.982,46
28,Cripplesease,-5.501,50.178,24
66,Pentre Galar,-4.651,51.947,66
24,Dinorwig,-4.115,53.135,20
331,St Andrews,-2.81,56.336,112
24,Blackhall,-2.544,57.053,20
46,Tranent,-2.952,55.944,46
160,Davington,-3.199,55.309,112
28,Cornhill,-2.697,57.612,28
55,Pantgwyn,-4.571,52.082,46
39,Skinburness,-3.362,54.89,20
55,Edderside,-3.398,54.796,33
28,Llanfallteg,-4.677,51.846,28
28,Llanglydwen,-4.646,51.907,28
46,Inveramsay,-2.431,57.306,20
46,Dunbog,-3.157,56.347,33
79,Braystones,-3.529,54.44,33
94,Ffridd Uchaf,-4.123,53.044,66
94,Carnoustie,-2.722,56.502,66
24,Gwalchmai,-4.415,53.255,20
79,Pelutho,-3.368,54.829,33
66,Fowlis,-3.103,56.488,55
55,Canon's Town,-5.455,50.166,20
66,Islesburgh,-1.394,60.406,66
28,New Winton,-2.918,55.929,20
55,Clatterin' Brig,-2.554,56.894,55
33,Aquhythie,-2.423,57.257,20
230,Isbister,-1.324,60.6,230
94,Castle O'er,-3.18,55.222,66
66,Tallentire,-3.385,54.705,28
39,Colliston,-2.647,56.598,33
24,Shanquhar,-2.764,57.408,24
24,Farnell,-2.612,56.69,24
79,Middlebie,-3.23,55.074,55
24,Gaza,-1.362,60.434,24
66,Perranuthnoe,-5.441,50.12,55
66,Glenbreck,-3.486,55.48,66
230,Annan,-3.254,54.987,134
24,Abercrombie,-2.776,56.216,24
192,Amlwch,-4.342,53.409,79
39,Dunino,-2.746,56.286,39
46,Easter Culfosie,-2.427,57.154,46
33,Easter Pencaitland,-2.882,55.912,28
39,Lamplugh,-3.408,54.576,39
24,Bryngwyn,-4.486,52.079,24
39,Chapelton,-2.609,56.621,39
24,Port Elphinstone,-2.373,57.271,20
