rs,name,lon,lat,r1
331,Camarinas,-9.182,43.134,134
55,Mallas,-9.255,42.935,20
79,Senande,-9.146,43.041,28
1183,Cee,-9.188,42.955,192
134,Laxe,-9.003,43.216,112
28,Raso,-9.165,42.95,20
55,As Lamas,-9.164,42.935,20
55,Fornelos,-8.974,43.172,20
33,O Ezaro,-9.13,42.911,20
24,O Valado,-8.916,43.226,20
134,O Pindo,-9.134,42.893,55
46,A Campara,-8.872,43.28,20
39,Quilmas,-9.139,42.873,20
46,Tines,-8.974,43.111,28
66,Caldebarcos,-9.12,42.852,20
39,Olveiroa,-9.039,42.967,20
55,Larino,-9.115,42.777,20
33,Bano,-9.06,42.789,20
46,Muxia,-9.216,43.104,24
94,Os Muinos,-9.19,43.083,20
24,Merexo,-9.177,43.099,20
112,Lires,-9.243,42.998,39
79,Camelle,-9.091,43.184,33
24,San Martin de Abajo,-9.266,42.917,20
46,A Ponte do Porto,-9.117,43.138,39
28,Quintans,-9.151,43.084,24
66,Fisterra,-9.263,42.906,55
28,Bermun,-9.191,42.995,20
66,Carnes,-9.111,43.115,20
55,Lobelos,-9.185,42.983,20
24,Mordomo,-9.052,43.182,20
24,Lagarteira,-9.192,42.967,20
33,Pasarela,-9.046,43.147,33
46,Matio,-9.021,43.179,20
79,O Porto de Corme,-8.962,43.265,33
24,Calo,-9.046,43.135,20
79,Buxan,-9.117,43.01,39
112,Vimianzo,-9.033,43.11,79
55,Canduas,-8.956,43.216,24
33,Vilaseco,-8.958,43.192,20
24,Reboredo,-9.005,43.117,20
46,Barizo,-8.865,43.306,33
66,Baio,-8.96,43.148,46
24,Beo,-8.843,43.317,20
134,A Trabe,-8.893,43.242,33
192,Bainas,-9.018,43.029,66
33,Regoelle,-9.026,43.009,20
39,Quintans,-8.965,43.091,20
79,Olveira,-9.03,42.988,28
331,Malpica,-8.809,43.321,112
39,San Cremenzo de Pazos,-8.904,43.143,33
39,Minarzo,-9.132,42.799,20
33,Pasacondia - A Aldeola,-8.797,43.287,20
66,Meanos,-8.947,43.054,28
94,Zas,-8.913,43.099,46
24,Pedrafigueira,-9.088,42.834,20
24,Mallou,-9.098,42.809,20
112,Carnota,-9.088,42.822,28
46,Carreira,-8.882,43.121,20
94,Buno,-8.783,43.267,46
160,A Picota,-8.99,42.937,79
33,Louro,-9.085,42.761,20
94,Santa Uxia de Ribeira,-8.993,42.558,94
46,Vilar de Celtigos,-8.878,43.041,20
46,O San Amaro,-8.398,42.261,28
94,A Serra de Outes,-8.907,42.842,46
94,Arnados,-8.706,43.287,46
46,Tarroeira,-8.54,43.045,20
39,A Vila da Igrexa,-7.997,43.622,24
55,Santiso,-8.399,42.926,24
55,O Porto de Espasante,-7.806,43.72,33
33,Palmas,-8.686,42.284,20
112,Bormoio,-8.803,43.158,46
46,Padreiro,-8.788,43.071,28
66,Cristelos,-8.763,42.033,28
160,Muros,-9.057,42.774,46
46,Pazos,-8.915,42.986,20
79,Porto do Son,-9.004,42.724,79
24,Marcelle,-8.838,42.945,20
33,Grixoa,-8.887,43.023,20
66,Melon,-8.213,42.258,46
94,Baris,-8.684,43.166,24
46,A Baixa de Entrecruces,-8.68,43.138,46
79,A Laracha,-8.584,43.248,55
46,O Busto,-8.853,43.068,33
39,San Martino,-9.005,42.606,28
28,Merelle,-8.884,42.763,20
24,O Vilar,-9.02,42.549,20
66,Cances Grande,-8.732,43.245,24
79,O Pino de Val,-8.953,42.908,28
66,A Pobra do Caraminal,-8.938,42.603,39
33,Ledono,-8.416,43.265,20
28,Bornalle,-9.013,42.802,20
46,Vilanova de Arousa,-8.826,42.563,39
94,Imo,-8.723,42.712,33
112,Seaxe,-8.671,42.784,33
33,Cardalda,-8.808,42.551,20
160,Cambados,-8.812,42.514,55
94,Padron,-8.659,42.737,79
39,Armuno,-8.272,43.317,20
28,Figueroa,-8.321,43.216,20
79,O Pereiro,-8.167,43.447,24
24,A Xesteira,-8.801,42.475,20
79,Ponte Valga,-8.648,42.701,20
46,A Igrexa,-8.608,42.753,28
39,Xoane da Estrada,-8.715,43.228,20
66,A Pereirina,-8.871,42.99,46
79,Sanxenxo,-8.805,42.4,55
33,Soutelo,-8.308,43.108,20
39,San Roque,-8.736,43.188,28
28,Donon,-8.857,42.272,20
24,Barbeira,-8.876,42.976,20
55,A Baiuca,-8.364,42.991,20
39,Raxo,-8.753,42.406,28
46,Nerga,-8.827,42.258,24
66,Aris,-8.686,42.454,20
24,Vilar do Carballo,-8.689,43.25,20
46,Soar,-8.573,42.563,24
28,Pardavila,-8.7,42.369,20
46,Galegos,-8.426,42.778,20
39,A Rabadeira,-8.75,43.151,28
112,Mide,-8.81,42.179,20
112,Baiona,-8.85,42.12,79
112,Goente,-7.977,43.438,46
46,Nigran,-8.808,42.144,28
28,Camporrapado,-8.363,42.804,20
33,Laxe,-8.55,42.522,20
66,Balteiro,-8.634,42.381,20
79,Brandomes,-8.31,42.819,33
24,O Porto do Barqueiro,-7.702,43.739,20
79,O Maio,-8.975,42.797,46
46,Vilarchan,-8.56,42.411,28
79,Gondomar,-8.76,42.112,55
33,A Imende,-8.641,43.301,24
46,Turces,-8.229,42.864,46
46,Pesaduira,-8.874,42.942,39
55,O Calvario,-8.834,41.938,28
39,A Insua,-8.527,42.366,20
24,Castriz,-8.776,43.086,20
46,As Salgueiras,-8.755,43.118,24
33,A Avenida de Ordonez,-8.784,41.947,33
230,Carballo,-8.691,43.212,192
276,Santa Comba,-8.807,43.033,112
192,Viveiro,-7.592,43.663,134
28,Ventin de Arriba,-8.441,42.328,20
94,Vilacha,-7.529,43.725,33
134,Soutelo de Montes,-8.3,42.535,46
39,Abuin,-9.017,42.702,20
134,A Esfarrapada,-8.558,42.101,46
28,Brano,-8.947,42.803,20
55,Vilatuxe,-8.188,42.605,46
24,A Brea,-8.681,43.201,20
94,Caion,-8.605,43.317,55
571,Vilalba,-7.678,43.297,160
24,Rio Covo,-7.435,43.678,20
134,Tarrio,-9.028,42.672,39
24,O Cruceiro de Roo,-8.925,42.821,20
66,Brues,-8.148,42.451,39
33,Caamano,-9.029,42.655,20
79,A Ribela,-7.335,43.629,28
66,A Agra,-9.029,42.638,20
24,O Anon de Berdillo,-8.639,43.225,24
28,Sabaceda,-8.732,43.084,20
66,Corrubedo,-9.07,42.576,39
46,Portosin,-8.948,42.757,33
28,Beneso,-8.952,42.743,20
28,Boiro,-8.93,42.774,20
55,Bazar,-8.722,43.071,28
24,Monteagudo,-8.576,43.284,20
28,Estramil,-8.59,43.262,20
33,A Ponte Nafonso,-8.875,42.825,20
24,Cambono,-8.917,42.759,20
46,Orro,-8.883,42.808,20
24,Carballosa,-9.009,42.618,20
28,Sirves,-9.024,42.587,20
66,Guntian,-8.62,43.194,28
397,Noia,-8.886,42.785,112
24,Barranan,-8.543,43.301,20
112,San Vicenzo,-8.757,42.961,39
39,Artes,-9.004,42.576,20
24,Paiosaco,-8.553,43.256,20
24,Lanas,-8.529,43.291,20
24,A Grana,-9.028,42.535,20
28,Croido,-8.859,42.782,20
94,A Baiuca,-8.509,43.304,66
24,Pousada,-8.871,42.749,20
33,Suevos,-8.481,43.341,20
24,Quintans,-8.837,42.797,20
39,Nanton,-8.737,42.946,20
55,Aguino,-9.015,42.527,20
66,Moimenta,-8.887,42.716,28
28,Loureda,-8.502,43.292,20
28,Aldea Grande de Lousame,-8.848,42.766,20
24,Vilarrodis,-8.48,43.317,20
55,O Carballal,-8.614,43.105,33
24,O Seilan,-8.733,42.924,20
33,Palmeira,-8.958,42.581,20
134,Negreira,-8.736,42.911,55
94,Bembibre,-8.659,43.025,79
55,Comoxo,-8.888,42.679,24
33,Meicende,-8.445,43.346,20
160,A Silva,-8.564,43.156,55
28,A Ribeirina,-8.914,42.628,20
55,Valle,-8.483,43.277,20
160,Boiro de Arriba,-8.884,42.647,66
4233,A Coruna,-8.409,43.365,1702
24,Pineiro,-8.581,43.099,20
55,Mesoiro,-8.433,43.326,28
33,Uxes,-8.447,43.302,20
33,Bealo,-8.841,42.698,20
24,A Pesqueira,-8.884,42.617,24
46,Oca,-8.675,42.927,24
39,O Peton,-8.546,43.122,24
66,Portomouro de Abaixo,-8.649,42.964,46
55,Ourolo,-8.833,42.682,28
79,A Calle,-8.731,42.833,55
39,A Zapateira,-8.418,43.303,20
79,A Pontepedra,-8.551,43.09,55
79,Orro,-8.425,43.28,20
28,Tembra,-8.704,42.851,20
55,O Campo da Feira,-8.471,43.191,55
79,Perillo,-8.374,43.335,28
33,Rianxo,-8.818,42.651,33
33,Mera,-8.336,43.381,20
24,Peiro de Arriba,-8.418,43.249,20
28,Os Xens,-8.783,42.694,20
33,A Atalaia,-8.794,42.676,20
66,Queixas,-8.478,43.152,28
33,Tarrio,-8.389,43.287,20
24,Meirama,-8.44,43.209,20
28,Chanteiro,-8.29,43.44,24
39,Arousa,-8.868,42.562,24
33,A Grana,-8.26,43.482,20
39,O Campo Xesteda,-8.495,43.121,24
24,O Cruceiro,-8.206,43.565,20
33,Taraza,-8.183,43.598,24
28,O Porto de Santa Cruz,-8.344,43.349,20
39,Taboada,-8.227,43.526,20
134,Quinta,-8.209,43.553,33
33,Perros,-8.67,42.843,20
28,Teaio,-8.753,42.715,20
79,Lorbe,-8.309,43.39,28
46,Pazos,-8.233,43.507,20
46,O Temple,-8.354,43.316,20
66,Bertamirans,-8.649,42.863,39
39,Ventosa,-8.631,42.887,20
46,Brono,-8.315,43.367,20
39,Mugardos,-8.253,43.46,24
28,Os Regos,-8.333,43.333,20
39,Morzos,-8.435,43.176,20
33,O Xalo,-8.407,43.219,28
33,Reboredo,-8.896,42.474,24
79,Valdovino,-8.148,43.612,66
24,Seoane,-8.362,43.277,20
39,Altamira,-8.368,43.264,20
39,Rial,-8.77,42.654,20
192,Ferrol,-8.222,43.487,134
24,Bexo,-8.734,42.698,20
46,Viano Pequeno,-8.515,43.028,39
39,Cambre,-8.336,43.298,20
46,O Grove,-8.865,42.496,33
39,A Pena de Embade,-8.174,43.54,20
28,Roxos,-8.605,42.878,28
79,Ares,-8.243,43.429,39
28,A Tarroeira,-8.359,43.248,20
28,Avino,-8.136,43.589,20
24,O Seixo,-8.218,43.46,20
33,Seira,-8.671,42.767,20
24,Meixigo,-8.334,43.279,20
66,O Vilar de Lago,-8.143,43.573,24
33,O Carril,-8.771,42.613,20
28,Ardia,-8.861,42.476,20
28,A Brea,-8.402,43.164,20
39,Codesedas,-8.581,42.892,20
39,Vilar,-8.711,42.694,20
33,Tragove,-8.818,42.529,20
134,Carral,-8.355,43.228,55
24,Revixos,-8.685,42.724,20
39,Cores,-8.734,42.646,20
66,A Ponte,-8.715,42.669,39
397,Vilagarcia,-8.763,42.597,160
33,Xubia - Casadelos,-8.158,43.517,20
28,Pumido,-8.2,43.45,20
33,Fonte de Ons,-8.861,42.446,28
66,Brexo - Lema,-8.315,43.27,24
24,Fontan,-8.251,43.362,20
55,Son de Abaixo,-8.533,42.929,33
24,O Cruceiro,-8.78,42.555,20
66,Neda,-8.158,43.499,20
66,O Meson do Vento,-8.385,43.15,46
24,Bordel,-8.345,43.21,20
112,Sada,-8.253,43.35,66
28,Fixo,-8.595,42.828,20
33,Canedo,-8.37,43.169,20
476,Cedeira,-8.051,43.661,134
24,O Facho,-8.82,42.484,20
46,Fene,-8.166,43.475,28
55,O Milladoiro,-8.578,42.845,28
24,Soutullo,-8.858,42.423,20
28,Ameas,-8.315,43.242,20
55,Castrelos,-8.394,43.119,24
39,Baldomir,-8.277,43.298,28
39,A Silva,-8.618,42.774,20
28,San Xulian,-8.649,42.725,20
33,Vizus,-8.201,43.406,20
28,A Mourela Baixa,-8.136,43.506,20
33,Boebre,-8.209,43.389,20
55,Aios,-8.855,42.412,28
33,Zamar,-8.747,42.57,20
39,Regoufe,-8.592,42.798,20
331,Santiago de Compostela,-8.539,42.879,331
28,Castro de Agudin,-8.721,42.603,24
331,Ordes,-8.403,43.079,134
24,As Casillas,-8.412,43.066,20
24,Gandario,-8.234,43.337,20
28,Coaxe,-8.677,42.663,20
28,Guindibo,-8.417,43.054,20
28,A Igrexa,-8.425,43.035,20
46,O Empalme,-8.434,43.019,20
112,Coiron,-8.803,42.462,28
24,O Roxal,-8.122,43.496,20
28,Viliquin,-8.815,42.442,20
24,Arra,-8.841,42.404,20
46,Serantes,-8.742,42.549,20
24,Puente Arnelas,-8.751,42.535,20
39,San Cidre,-8.23,43.323,20
39,Vilar,-8.269,43.26,24
39,Barrantes,-8.769,42.502,24
66,San Marco,-8.288,43.228,24
46,Costa Anacara,-8.193,43.373,20
33,A Sionlla de Abaixo,-8.487,42.921,24
192,Pontedeume,-8.169,43.407,55
24,Banobre,-8.197,43.362,20
55,A Carreira,-8.205,43.347,28
46,Forxan,-8.817,42.42,20
28,O Freixo,-8.749,42.521,20
55,A Igrexa,-8.434,42.995,20
28,A Fraga,-8.242,43.283,20
24,O Couto de Arriba,-8.765,42.49,20
46,O Reguengo,-8.703,42.579,20
55,Cacheiras,-8.544,42.816,24
28,Sequeiros,-8.691,42.595,20
33,Cornide,-8.079,43.527,33
134,Sigueiro,-8.443,42.968,66
28,Paradela,-8.66,42.638,20
39,A Devesa,-8.512,42.858,20
46,A Calle,-8.38,43.059,20
192,Montouto,-8.559,42.785,46
55,O Gorgullon,-8.64,42.655,39
24,Chao de Ombre,-8.138,43.418,20
24,Montecelo,-8.196,43.329,20
55,Vios,-8.281,43.194,28
24,Os Loureiros,-8.155,43.384,20
39,Souto,-8.204,43.307,20
28,O Sisto,-8.508,42.835,20
33,Liminon,-8.234,43.248,20
24,Valverde,-8.401,42.991,20
112,A Igrexa,-8.303,43.135,66
24,Pineiron,-8.41,42.971,20
24,Pite,-8.537,42.778,20
46,Pontevea,-8.546,42.762,20
276,Betanzos,-8.207,43.277,94
24,San Xian,-8.51,42.814,20
46,Vilar,-8.738,42.467,24
28,A Igrexa,-8.617,42.645,20
79,Caldas de Reis,-8.643,42.605,66
28,Callobre,-8.229,43.231,20
46,O Mosteiro,-8.699,42.518,20
79,San Ramon,-8.014,43.563,33
33,A Lavacolla,-8.446,42.899,33
46,Xagobe-Vilavedra,-8.672,42.552,28
28,Santa Cruz,-8.205,43.258,20
28,Vilanova,-8.847,42.288,24
33,Tivo,-8.644,42.588,20
28,Reborido,-8.515,42.781,20
55,O Carballal,-8.35,43.031,28
24,Aren,-8.749,42.418,20
46,Deseiro de Arriba,-8.476,42.823,20
39,A Armada,-8.129,43.355,28
66,Porzomillos,-8.195,43.246,20
66,As Neves,-8.071,43.435,46
46,A Taberna,-8.295,43.085,20
160,Carino,-7.872,43.741,112
55,As Felgosas,-7.953,43.611,46
24,Fonte do Curro,-8.675,42.507,24
55,A Igrexa,-8.272,43.113,20
55,Portela,-8.553,42.681,33
55,Menduina,-8.81,42.295,20
192,Bueu,-8.785,42.326,46
79,Prada,-8.088,43.38,39
79,Vilar,-8.467,42.797,39
39,Veiga,-7.892,43.679,24
33,Porrans,-8.634,42.542,20
24,Pousada de Abaixo,-8.476,42.78,20
55,Areas,-8.135,43.295,33
134,Lois,-8.183,43.218,33
134,Santo Antonino,-8.636,42.524,46
46,Cuntis,-8.561,42.635,33
24,A Pobra,-8.243,43.116,20
55,Santa Lucia de Morana,-8.588,42.588,28
33,Cimadevila,-8.292,43.035,24
33,Casas,-8.747,42.349,20
28,Meiro,-8.775,42.307,20
55,A Devesa,-8.654,42.488,20
28,Figueiras,-8.157,43.239,20
33,Seixo,-8.727,42.37,20
28,Castrelo,-8.751,42.334,20
28,A Parada,-8.781,42.286,20
33,Campelo,-8.682,42.432,24
28,Sarandon,-8.458,42.765,20
28,O Forte,-8.415,42.827,20
55,O Pedrouzo,-8.363,42.904,55
28,Alende,-8.579,42.576,20
79,Marin,-8.703,42.392,46
94,Cangas,-8.785,42.264,39
112,Ortigueira,-7.851,43.685,46
55,Santa Maria,-7.868,43.655,20
24,As Marinas,-8.893,42.098,24
192,A Igrexa,-7.942,43.536,79
39,Pidre,-8.641,42.47,20
24,Os Praceres,-8.681,42.406,20
24,O Combarro,-8.125,43.244,20
24,A Valina,-8.656,42.437,20
192,A Estrada,-8.486,42.689,134
112,O Chao da Vina,-8.077,43.304,39
55,Rebordelo,-8.053,43.334,20
24,Tomonde,-8.424,42.766,20
28,Santa Eulalia,-7.814,43.704,20
94,Santaya,-8.396,42.805,39
55,O Redondo,-8.737,42.292,33
28,O Castro,-8.322,42.915,24
55,Cadrelo,-8.692,42.355,20
79,Ponte Carreira,-8.248,43.021,66
397,Pontevedra,-8.64,42.428,134
28,Patos,-8.824,42.154,20
24,As Fontes,-8.855,42.103,20
276,O Porto,-8.886,42.052,46
46,Os Fontans,-8.592,42.48,33
46,O Pazo de Irixoa,-8.058,43.285,20
24,As Chans,-8.803,42.158,20
66,Berres,-8.415,42.735,46
46,A Lagoa,-8.543,42.54,39
46,Lusquinos,-8.63,42.408,20
33,O Serrallo,-8.88,42.037,20
24,Gaifar,-8.815,42.13,20
79,A Salceda,-8.279,42.926,46
24,Redonde,-8.554,42.508,20
160,A Estacion,-8.144,43.124,112
28,A Ramallosa,-8.815,42.114,20
33,A Ponte,-8.751,42.207,20
33,Filgueira,-8.581,42.458,20
24,San Xulian,-7.75,43.732,24
46,Medialdea,-8.822,42.097,20
112,Fonte Diaz,-8.305,42.867,39
24,Parada,-8.558,42.484,20
24,Canido,-8.783,42.148,20
24,A Ermida,-8.6,42.419,20
2042,Vigo,-8.726,42.229,822
24,Areeiros,-8.653,42.335,20
24,Acuna,-8.642,42.349,20
94,O Arrabal,-8.873,42.001,28
46,O Freixo,-8.747,42.185,20
28,As Tomadas,-8.759,42.164,20
28,Paredes,-8.622,42.354,20
33,Santradan,-8.657,42.302,20
55,Vilanova,-8.558,42.444,24
24,Areosa,-8.785,42.105,20
46,Arceo,-8.161,43.038,33
66,Laredo,-8.672,42.266,24
39,Pardavila,-8.692,42.23,20
39,Portecelo,-8.882,41.95,24
33,Rande,-8.651,42.286,20
112,A Calle,-8.608,42.342,46
55,Ru,-8.121,43.072,20
33,O Campo,-8.829,42.01,20
79,Ponte Aranga,-8.015,43.234,33
66,A Garrida,-8.72,42.168,33
55,O Campo,-7.889,43.421,24
28,As Coutadas,-8.697,42.195,20
39,Ervillas,-8.728,42.145,20
230,As Pontes de Garcia Rodriguez,-7.86,43.452,192
33,Pazos,-8.515,42.453,28
39,Os Muros,-8.784,42.052,20
24,As Fontinas,-8.67,42.219,20
160,Caion,-7.736,43.642,55
79,A Castellana,-8.024,43.191,39
33,San Pedro,-8.61,42.299,20
55,O Vicedo,-7.672,43.733,55
24,Buchabade,-8.539,42.403,20
28,Comboa,-8.575,42.347,20
571,A Guarda,-8.874,41.901,160
55,Loureza,-8.814,41.988,24
79,Foro,-8.106,43.048,33
112,A Chan,-8.484,42.475,24
28,A Nogueira,-8.589,42.317,20
33,Taboadelo,-8.548,42.378,20
33,A Peroleira,-8.732,42.101,20
160,A Gandara,-8.132,43.002,55
160,Redondela,-8.608,42.283,79
33,As Cruces,-8.826,41.956,20
55,A Portela de Puxeiros,-8.654,42.209,24
79,Teixeiro,-8.036,43.14,66
24,O Rial,-8.567,42.335,20
24,Ameal,-8.635,42.233,20
79,A Bandeira,-8.303,42.73,33
46,Pedre,-8.434,42.529,28
79,A Fraga,-8.739,42.072,33
24,Cidans,-8.681,42.158,20
28,Vilas,-8.705,42.12,20
33,O Outeiro,-8.858,41.889,20
134,Arzua,-8.16,42.929,79
28,San Eleuterio,-8.65,42.192,20
33,A Moa,-8.261,42.767,20
24,O Carrascal,-8.83,41.916,20
55,Erville,-8.673,42.147,24
66,Os Valos,-8.602,42.246,20
24,Prado,-8.697,42.105,20
24,Cimadevila,-8.735,42.05,20
55,Aranza,-8.538,42.338,20
94,Ponte Caldelas,-8.501,42.39,66
24,A Aldea,-8.767,41.979,20
79,Cerdedo,-8.39,42.532,39
192,Forcarei,-8.351,42.589,79
33,A Rua da Cal,-8.794,41.929,20
33,Monte,-8.627,42.176,20
46,A Igrexa,-8.545,42.295,24
24,A Arrotea,-8.645,42.143,20
24,San Antoino,-8.591,42.221,24
94,O Seixo,-8.742,41.991,66
55,Fontao E Vilar,-8.229,42.758,39
55,Centeans,-8.64,42.127,20
79,O Porrino,-8.616,42.16,66
33,O Pousino,-8.533,42.281,20
33,Fraga do Rei,-8.502,42.318,20
24,Caritel,-8.46,42.38,20
79,Sobrado,-8.023,43.04,66
134,Silleda,-8.245,42.699,66
160,Xermade,-7.812,43.356,66
33,A Lama,-8.439,42.396,33
33,Carregal de Arriba,-8.706,41.994,24
160,Vila de Cruces,-8.17,42.794,66
55,As Cortellas,-8.527,42.253,24
55,Forzans,-8.446,42.368,20
39,Muras,-7.722,43.468,39
33,Vacaria,-8.607,42.117,20
66,Albelos,-8.629,42.084,24
24,Val de Flores,-7.6,43.65,20
134,A Igrexa,-8.451,42.34,33
134,Tui,-8.644,42.049,79
192,Guitiriz,-7.894,43.181,134
134,Ourol,-7.641,43.562,66
66,O Seixido,-8.379,42.424,39
24,Casco,-8.487,42.256,24
28,Bouzavedra,-8.574,42.114,20
46,Prado,-8.19,42.684,28
39,A Freixa,-8.516,42.189,20
230,Ponteareas,-8.504,42.173,112
192,Melide,-8.012,42.912,192
66,Xove,-7.511,43.685,39
94,Souto,-7.972,42.967,39
112,Mondariz,-8.455,42.233,39
55,A Pobra de Parga,-7.838,43.162,28
55,Os Banos,-8.568,42.055,33
79,Agro do Chao,-8.039,42.845,46
46,Vilasobroso,-8.459,42.204,24
24,As Fraguinas,-8.496,42.136,20
160,Beariz,-8.27,42.466,55
66,O Regueiro,-8.238,42.503,24
24,Carragoso de Arriba,-8.119,42.671,20
55,Pareizo,-8.103,42.689,20
39,Reguengo,-8.136,42.634,20
28,Meirol,-8.416,42.214,20
66,O Alto da Fonte,-8.504,42.081,28
397,Lalin,-8.11,42.66,192
94,San Cibrao,-7.441,43.694,39
55,San Roque,-8.46,42.13,33
39,Abelenda,-8.279,42.389,20
39,Baamonde,-7.757,43.175,39
79,A Xesta,-8.116,42.618,33
112,Agolada,-8.02,42.763,66
33,A Igrexa,-8.346,42.265,24
66,Santiago de Covelo,-8.362,42.233,46
66,Feas,-8.209,42.442,33
94,San Xusto,-8.251,42.375,66
46,Cervo,-7.408,43.67,24
46,Barroso,-8.24,42.356,20
192,Friol,-7.791,43.029,112
46,As Neves,-8.413,42.088,46
46,As Pardellas,-7.792,43.007,20
134,Ferreira,-7.44,43.552,79
94,O Irixo,-8.105,42.523,55
55,Vilamartin,-7.607,43.282,39
134,Palas de Rei,-7.868,42.873,66
822,Burela,-7.362,43.661,476
79,Begonte,-7.685,43.15,33
55,Cameixa,-8.158,42.421,24
79,O Castro,-8.045,42.571,46
112,A Caniza,-8.274,42.213,94
55,A Seara,-7.414,43.529,20
46,Abelenda,-8.181,42.344,28
39,Pazos de Arenteiro,-8.145,42.398,20
33,Antas de Ulla,-7.889,42.783,33
28,Pazos,-8.335,42.102,20
134,O Pazo,-8.312,42.112,66
160,Rodeiro,-7.95,42.651,94
134,Abadin,-7.487,43.362,66
46,Quins,-8.191,42.284,20
28,Beran,-8.144,42.353,20
112,Leiro,-8.125,42.37,39
55,Rubian,-7.477,42.654,24
331,Xinzo de Limia,-7.725,42.064,160
33,Cabanella,-6.692,43.526,20
134,A Feira do Monte,-7.558,43.237,66
39,Fondo de Nois,-7.316,43.614,20
230,Oencia,-6.969,42.547,66
66,Prado,-8.061,42.318,20
39,A Pousa,-8.013,42.372,20
55,Vilanova,-7.297,43.47,39
24,San Bartolo,-7.235,43.565,20
571,Lugo,-7.556,43.011,397
276,O Carballino,-8.076,42.432,112
79,Vilamarin,-7.89,42.465,39
28,O Souto,-7.19,43.544,24
230,Rabade,-7.62,43.123,94
276,Monterroso,-7.833,42.793,112
24,Toen,-7.95,42.314,20
33,Xinzo das Teixugueiras,-7.992,42.25,20
39,A Valenza,-7.881,42.317,20
33,Seixalbo,-7.856,42.305,20
66,Beade,-8.127,42.329,28
33,A Bola,-7.911,42.156,24
46,O Penedo,-7.799,42.318,24
66,Fazouro,-7.299,43.597,28
39,Gomean,-7.39,42.931,20
46,Outeiro de Rei,-7.613,43.102,20
28,Solbeira,-7.78,42.289,20
79,Pinor,-8.004,42.498,20
192,Ribadavia,-8.143,42.288,112
33,Campos y Salave,-6.903,43.559,20
28,Dacon,-8.048,42.422,20
55,Vila Termal,-8.153,42.259,20
66,Crecente,-8.222,42.152,39
66,Parada de Sil,-7.567,42.383,46
55,Bustelino,-7.674,42.185,33
55,San Amaro,-8.072,42.374,24
24,Santo Andre,-8.107,42.32,20
33,Cartavio,-6.784,43.548,24
39,Lamas,-7.756,42.044,20
94,Urbanizacion Os Alargos,-7.619,43.06,46
39,Cenlle,-8.089,42.34,24
160,Arnuide,-7.606,42.197,46
230,Becerrea,-7.162,42.854,160
66,Sarreaus,-7.602,42.087,24
79,Cortegada,-8.17,42.206,55
94,Negueira,-6.892,43.134,66
55,Cea,-7.985,42.475,46
66,Rabal,-7.386,42.303,55
112,Cualedro,-7.593,41.988,55
192,Quiroga,-7.271,42.475,79
55,Maside,-8.025,42.412,24
112,Folgoso do Courel,-7.195,42.588,79
230,Mondonedo,-7.359,43.43,94
24,Silvarrei,-7.582,43.078,24
24,Almuna,-6.525,43.532,20
24,Xubin,-8.066,42.333,20
33,Barral,-8.091,42.295,20
33,Manente,-7.273,43.55,20
28,A Notaria,-8.186,42.148,20
94,Guntin de Pallares,-7.693,42.887,79
192,Foz,-7.254,43.569,94
24,San Cristovo,-7.319,41.979,20
55,Trabadelo,-6.88,42.649,33
331,O Barco,-6.986,42.417,230
33,Trado,-8.15,42.175,20
192,Riego Abajo,-6.24,43.583,46
24,El Crucero,-6.384,43.344,20
112,Peranzanes,-6.632,42.877,46
66,Muimenta,-7.431,43.254,66
39,San Roque de Crespos,-8.158,42.138,20
33,Laias,-8.027,42.332,20
24,Sande,-8.088,42.236,20
33,Castro de Ribeiras de Lea,-7.494,43.14,20
94,Aldea de Deva,-8.132,42.162,39
28,Parada de Amoeiro,-7.975,42.395,20
55,Santa Eufemia,-7.605,42.959,39
33,San Cosme,-7.232,43.541,24
192,Taboada,-7.763,42.715,66
46,Cartelle,-8.07,42.249,28
79,Santa Cruz,-7.997,42.348,24
79,Amoeiro,-7.947,42.415,46
134,O Castro,-7.481,43.127,79
39,Sobrado,-8.093,42.19,24
46,Urbanizacion Campina,-7.534,43.039,20
66,Puga,-7.994,42.319,20
66,Pastoriza,-7.35,43.3,24
55,Castro de Rei,-7.4,43.209,39
112,Bretona,-7.317,43.338,79
24,Quintela de Leirado,-8.1,42.14,24
28,Tamallancos,-7.908,42.419,20
55,Xestosa,-7.99,42.293,20
24,Vilavidal,-8.05,42.193,20
33,Untes,-7.951,42.341,20
24,Alongos,-7.961,42.324,20
230,Chantada,-7.768,42.61,134
134,A Barrela,-7.814,42.539,46
66,Outomuro,-8.02,42.224,55
28,O Castro de Beiro,-7.914,42.378,20
94,O Cuco,-7.51,42.976,33
134,Portomarin,-7.615,42.808,94
28,Mugares,-7.931,42.325,20
66,Ramiras,-8.022,42.187,28
39,Quintela,-7.908,42.356,20
66,Cambeo,-7.871,42.412,39
46,As Rodrigas,-7.261,43.342,33
112,Trabada,-7.194,43.447,55
28,Castro,-7.783,42.531,20
24,Vilarnaz,-7.863,42.401,20
33,Moreiras,-7.921,42.3,28
33,Roma,-7.899,42.33,20
66,Rinlo,-7.103,43.557,28
46,Gustei,-7.854,42.39,20
33,Vilarchao,-7.837,42.412,20
28,A Barra,-7.823,42.432,20
55,Cudeiro,-7.86,42.367,20
24,Sobrado do Bispo,-7.905,42.29,20
94,Mosteiro,-7.353,43.131,55
986,Ourense,-7.864,42.341,571
276,Meira,-7.293,43.213,112
79,A Peroxa,-7.793,42.442,33
28,A Illa,-8.144,41.915,20
79,Loiro,-7.907,42.268,20
79,A Manchica,-7.932,42.222,46
24,Parderrubias,-7.921,42.236,20
66,A Terracha,-8.118,41.933,28
230,A Pontenova,-7.191,43.349,94
112,Randulfe,-7.567,42.765,39
24,Vilanova dos Infantes,-7.954,42.166,20
79,El Llano,-7.142,43.409,39
39,Vilarino,-7.812,42.374,20
66,O Paramo,-7.514,42.828,39
134,Celanova,-7.955,42.153,94
24,Sabadelle,-7.815,42.361,20
134,O Corgo,-7.431,42.944,66
230,Ribadeo,-7.044,43.536,160
33,Rante,-7.859,42.273,20
39,Grou,-8.064,41.953,33
66,As Quintas,-8.035,41.988,24
112,Reboredo,-7.833,42.29,20
94,Escairon,-7.638,42.584,66
28,A Mezquita,-7.867,42.235,24
24,Castropol,-7.029,43.526,20
33,Abres,-7.078,43.447,20
230,Fondevila,-8.085,41.905,94
94,Carballo,-7.951,42.099,46
112,A Pobra de San Xiao,-7.443,42.865,79
79,Urbanizacion Tapada de Bouzas,-7.775,42.358,46
28,Froxas das Vinas,-7.872,42.207,20
134,A Veiga/Vegadeo,-7.049,43.465,55
160,Castroverde,-7.326,43.029,94
24,A Castellana,-7.816,42.279,20
24,San Vitoiro,-7.851,42.225,20
134,Luintra,-7.726,42.411,39
28,Espineiro,-7.83,42.253,20
55,Taramundi,-7.108,43.36,46
276,Bande,-7.974,42.032,94
28,Urbanizacion Veiga de Abaixo,-7.768,42.334,20
79,O Chao de Pousadoiro,-7.203,43.202,46
79,Taboadela,-7.825,42.241,28
39,San Miguel,-7.777,42.304,20
33,Serantes,-6.972,43.547,20
55,Toiriz,-7.596,42.567,20
94,Tapia de Casariego,-6.942,43.569,66
28,Figueiredo,-7.775,42.276,20
46,O Castro de Ferreira,-7.623,42.506,46
28,Outeiro de Orraca,-7.821,42.201,20
94,Mugueimes,-7.971,41.958,55
66,Sobrado de Picato,-7.328,42.919,39
276,Allariz,-7.802,42.19,112
685,Sarria,-7.411,42.779,192
112,O Oural,-7.447,42.718,46
39,Vilar de Cerreda,-7.651,42.4,39
134,Sabariz,-7.841,42.108,24
55,O Cadavo,-7.245,43.016,46
66,Esgos,-7.694,42.325,39
192,Boveda,-7.483,42.624,79
55,La Roda,-6.896,43.533,20
94,Sober,-7.585,42.461,39
24,Pereira,-7.534,42.51,20
55,Xunqueira de Ambia,-7.735,42.204,39
112,Guntumil,-7.922,41.911,24
55,Calvos,-7.896,41.946,39
134,Forxa,-7.847,42.019,39
331,Monforte de Lemos,-7.511,42.522,230
66,Vilar de Santos,-7.795,42.086,39
55,Pineira de Arcos,-7.759,42.14,24
24,Almoite,-7.676,42.258,20
94,Vilanova,-6.986,43.311,39
79,Xunqueira de Espadanedo,-7.628,42.318,33
79,Baralla,-7.248,42.894,46
79,A Carida,-6.829,43.55,66
46,A Proba de Buron,-7.086,43.143,20
46,Banos de Molgas,-7.671,42.242,20
39,Sandias,-7.756,42.111,28
134,Maceda,-7.65,42.27,94
46,Miudes,-6.823,43.529,20
134,Samos,-7.326,42.73,46
33,Ganade,-7.786,42.027,20
331,A Fonsagrada,-7.067,43.125,192
94,Arancedo,-6.826,43.504,20
112,A Cruz do Incio,-7.363,42.656,66
33,Tioira,-7.614,42.264,20
192,San Martin de Oscos,-6.961,43.266,46
55,A Pobra do Brollon,-7.39,42.556,55
33,Os Blancos,-7.751,41.997,20
46,Ortiguera,-6.737,43.561,20
192,Boal,-6.818,43.429,79
33,Parada de Ribeira,-7.727,42.026,20
94,Triacastela,-7.239,42.757,55
28,A Pena,-7.678,42.087,28
33,San Paio,-7.794,41.91,24
46,Coana,-6.752,43.514,24
55,A Teixeira,-7.471,42.392,28
94,Illano,-6.864,43.333,66
79,Cortegada,-7.642,42.119,28
571,Navia,-6.721,43.541,192
79,Vilar de Barrio,-7.611,42.16,28
24,Villacondide,-6.74,43.504,20
24,Armental,-6.723,43.518,20
79,Nocedo,-7.711,41.989,28
39,Vilamaior da Boullosa,-7.754,41.923,28
39,Salcedo,-7.339,42.546,28
28,Teifaros,-6.693,43.553,20
39,Trelles,-6.73,43.487,20
46,Pezos/Pesoz,-6.875,43.257,28
112,Montederramo,-7.502,42.275,66
112,Baltar,-7.715,41.951,55
46,Abavides,-7.651,42.043,20
79,Anleo,-6.691,43.509,28
134,Grandas de Salime,-6.874,43.218,134
112,O Castro de Caldelas,-7.419,42.374,94
79,Puerto de Vega,-6.648,43.564,46
28,Villapedre,-6.655,43.549,20
24,Vilaseca,-7.607,42.056,20
134,Villayon,-6.704,43.448,46
28,Lodoselo,-7.593,42.073,20
112,As Nogais,-7.108,42.809,46
94,Trasmiras,-7.619,42.026,33
160,A Proba,-7.006,42.964,112
79,San Roman,-7.062,42.873,46
24,Escornabois,-7.59,42.042,20
55,Nocelo da Pena,-7.575,42.061,20
55,Doncos,-7.097,42.782,24
55,Busmente,-6.684,43.424,20
33,Vila de Rei,-7.596,42.015,20
66,Otur,-6.6,43.54,24
66,A Xironda,-7.637,41.9,55
39,O Toucedo,-7.252,42.459,20
134,San Antolin,-6.871,43.039,94
46,O Campo,-7.298,42.371,28
192,Luarca,-6.536,43.542,112
39,A Madanela,-7.585,41.918,24
55,Santa Baia de Montes,-7.552,41.965,24
134,Laza,-7.46,42.06,79
160,Pedrafita do Cebreiro,-7.019,42.727,55
33,Videferre,-7.585,41.849,28
134,A Pobra de Trives,-7.258,42.342,94
66,Medeiros,-7.543,41.904,39
66,Busto,-6.462,43.555,39
39,Albarellos,-7.495,41.948,33
66,Matama,-7.433,42.035,24
33,Vences,-7.46,41.988,20
192,Navelgas,-6.543,43.404,79
28,Nocedo do Val,-7.444,42.004,20
39,Vilaza,-7.489,41.931,20
66,Bouses,-7.539,41.855,39
66,Manzaneda,-7.232,42.311,28
112,Pola de Allande,-6.61,43.271,79
94,Castrelo do Val,-7.425,41.99,39
46,Caldelinas,-7.425,41.965,20
33,O Rosal,-7.466,41.903,20
112,Trevias,-6.432,43.502,46
33,Queizas,-7.449,41.922,20
39,Larouco,-7.168,42.345,33
1419,Verin,-7.434,41.941,331
94,Oimbra,-7.47,41.885,39
33,Brieves,-6.433,43.483,20
79,Balboa,-6.921,42.706,28
79,Cadavedo,-6.385,43.548,33
160,Vega de Valcarce,-6.945,42.665,66
94,Barjas,-6.977,42.611,39
24,Petin,-7.125,42.382,20
39,San Cibrao,-7.462,41.868,20
55,A Rua de Valdeorras,-7.106,42.397,55
24,Abedes,-7.408,41.937,20
33,Tamagos,-7.426,41.896,24
24,Mourazos,-7.431,41.883,20
66,Munas,-6.394,43.474,28
24,Rabal,-7.44,41.848,20
39,Ballota,-6.33,43.552,28
66,Mandin,-7.417,41.849,24
39,Courias,-6.543,43.196,20
24,Valdegodos,-7.045,42.411,24
33,Corgomo,-7.033,42.427,20
331,Cangas del Narcea,-6.549,43.176,331
28,Vilar de Cervos,-7.382,41.88,24
192,O Bolo,-7.097,42.308,39
276,Feces de Abaixo,-7.42,41.815,66
33,Vilarino de Conso,-7.182,42.165,33
79,Pousada de Rengos,-6.605,43.055,33
33,Novellana,-6.281,43.564,28
55,Limes,-6.536,43.153,20
276,Tineo,-6.407,43.334,112
79,Rios,-7.281,41.975,46
276,Xedre,-6.605,43.015,66
94,Candin,-6.727,42.816,55
33,Enxames,-7.327,41.883,20
112,Vilardevos,-7.31,41.908,55
39,El Pedregal,-6.365,43.372,20
24,Riego Arriba,-6.233,43.572,20
46,Rubia,-6.945,42.449,28
55,La Espina,-6.334,43.396,46
331,Viana do Bolo,-7.11,42.181,160
33,San Cosme,-6.239,43.542,24
28,Arzadegos,-7.321,41.86,24
24,Entoma,-6.936,42.421,20
66,Terroso,-7.287,41.877,28
39,Villafranca del Bierzo,-6.808,42.605,39
46,Lamuno,-6.2,43.562,20
79,Corullon,-6.817,42.58,20
66,Sobrado,-6.852,42.52,46
134,Tuna,-6.37,43.274,55
112,A Veiga,-7.024,42.25,66
66,Sobradelo,-6.91,42.416,33
230,A Gudina,-7.14,42.061,94
79,Degana,-6.569,42.94,46
94,Palacios del Sil,-6.43,42.876,46
39,San Pedro de Olleros,-6.718,42.697,39
39,Puerto,-17.943,28.652,20
55,Robledo,-6.903,42.39,20
39,Carballeda,-6.878,42.376,20
331,Fabero,-6.624,42.768,112
112,Truchas,-6.433,42.26,39
134,Trabazos,-6.491,41.746,79
33,Sorbeda del Sil,-6.549,42.808,24
28,Magaz de Abajo,-6.681,42.6,24
79,Cornellana,-6.157,43.412,46
112,Pias,-6.993,42.093,39
160,Salas,-6.257,43.408,94
112,Porto,-6.897,42.167,79
33,Cuatrovientos,-6.624,42.561,20
24,Salinas,-5.956,43.575,20
134,Grau/Grado,-6.072,43.385,112
46,Cuero,-6.052,43.41,20
24,Valgranda,-5.931,43.563,20
28,Genra,-5.899,43.61,20
24,Congosto,-6.519,42.618,24
230,Aviles,-5.923,43.552,134
134,Silvan,-6.668,42.332,46
39,Las Vegas/Les Vegues,-5.899,43.536,20
55,Cudillero,-6.147,43.559,46
28,Romadonga,-5.841,43.577,20
28,Antromero,-5.776,43.602,20
24,Sesamo,-6.657,42.738,20
24,Villadecanes,-6.758,42.58,24
46,Cobreros,-6.701,42.074,28
33,Quilos,-6.722,42.632,28
33,O Canizo,-7.099,42.051,24
79,Toral de los Vados,-6.775,42.545,39
39,Corredoria,-5.82,43.386,20
79,Vega de Espinareda,-6.654,42.726,28
134,Las Barreras,-17.999,28.765,55
46,O Tameiron,-7.119,42.007,33
39,La Fajana,-17.863,28.835,39
39,Norena,-5.706,43.396,28
28,Lillo del Bierzo,-6.609,42.785,20
24,El Berron,-5.701,43.384,20
55,Cenal,-5.616,43.437,28
66,Asturianos,-6.486,42.051,66
134,Cacabelos,-6.721,42.599,66
230,Los Sauces,-17.773,28.803,94
66,Tiuya/Tuilla,-5.643,43.328,24
79,Morea/Moreda,-5.737,43.168,55
46,La Nueva,-5.673,43.261,24
160,Quintana del Castillo,-6.048,42.661,39
46,Arganza,-6.686,42.641,24
160,Zarreu,-6.491,42.945,66
28,Vega de Magaz,-6.068,42.549,28
66,Muelas de los Caballeros,-6.336,42.129,55
39,El Paraiso,-17.879,28.618,20
55,San Martin del Rey Aurelio,-5.605,43.276,20
46,Salas de la Ribera,-6.816,42.436,20
24,Villadepalos,-6.749,42.538,20
79,Los Barrios de Luna,-5.861,42.845,55
33,Brimeda,-6.066,42.489,20
24,Cogorderos,-6.026,42.546,20
33,Los Barreros/Barredos,-5.572,43.26,20
46,Ferreras,-5.95,42.639,24
55,Santiago Millas,-6.104,42.384,28
112,Castrocontrigo,-6.189,42.184,112
33,San Justo de la Vega,-6.014,42.454,24
33,Muros,-6.103,43.543,20
134,Puente de Domingo Florez,-6.819,42.412,66
331,Los Canarios,-17.843,28.492,94
33,Ocero,-6.63,42.701,20
134,Carucedo,-6.762,42.49,39
39,Tola,-6.385,41.746,20
94,Carrizo de la Ribera,-5.824,42.583,55
24,Berlanga del Bierzo,-6.603,42.731,24
134,Veguellina de Orbigo,-5.884,42.437,79
476,La Robla,-5.628,42.804,160
46,O Pereiro,-7.053,42.031,20
94,Mieza,-6.688,41.162,39
46,Ferreras de Arriba,-6.194,41.898,46
79,Saucelle,-6.752,41.047,39
33,La Milla del Paramo,-5.799,42.468,24
66,San Juan de la Arena,-6.071,43.56,55
55,Sobradillo,-6.796,40.918,55
112,Sancedo,-6.634,42.667,33
28,Los Cabos,-6.098,43.514,20
24,Cueto,-6.654,42.633,20
39,Masueco,-6.588,41.204,20
24,Montejos del Camino,-5.686,42.585,24
24,San Miguel del Camino,-5.697,42.563,20
192,Pravia,-6.11,43.489,94
39,San Martin de Torres,-5.851,42.271,20
160,Camarzana de Tera,-6.028,41.995,55
33,Alcubilla de Nogales,-5.921,42.128,20
28,San Pedro de Trones,-6.797,42.402,20
134,A Mezquita,-7.046,42.01,55
33,Soto,-6.072,43.532,24
28,Borrenes,-6.725,42.492,24
46,Susane del Sil,-6.5,42.84,20
28,Cabanas Raras,-6.637,42.623,28
160,Belmonte,-6.217,43.283,94
28,A Vilavella,-7.014,42.038,24
79,Laneo,-6.156,43.371,33
134,Casaio,-6.805,42.34,46
66,Chaguazoso,-7.044,41.975,28
28,Cortiguera,-6.631,42.606,20
66,Dehesas,-6.682,42.525,33
46,Fresnedo,-6.584,42.677,33
55,Matarrosa del Sil,-6.532,42.755,46
46,Santa Cruz del Sil,-6.512,42.781,20
94,Paramo del Sil,-6.488,42.819,46
28,Fuentesnuevas,-6.642,42.572,20
39,Tombrio de Abajo,-6.551,42.71,20
66,San Roman,-6.07,43.45,33
39,Caboalles de Abajo,-6.373,42.952,28
24,Barcena del Bierzo,-6.594,42.604,20
24,San Andres de Montejos,-6.599,42.587,20
28,Orallo,-6.353,42.969,20
33,Grullos,-6.059,43.435,20
39,Toral de Merayo,-6.635,42.524,28
24,El Valle,-6.039,43.462,20
24,Piedrasblancas,-5.976,43.56,24
66,Cubillos del Sil,-6.565,42.623,46
66,Benuza,-6.709,42.4,55
33,Las Barzanas,-5.981,43.541,20
192,Toreno,-6.512,42.697,66
79,Pola de Somiedo,-6.255,43.094,79
28,Llamero,-6.031,43.452,20
685,Ponferrada,-6.595,42.55,476
28,Ventosa,-6.008,43.472,20
24,Otero,-6.593,42.534,20
94,La Peral,-5.989,43.489,46
24,La Cangueta,-5.963,43.531,20
28,Nieva,-5.922,43.593,20
79,Villabre,-6.127,43.252,46
94,Lubian,-6.905,42.035,94
331,Villablino,-6.319,42.94,230
46,La Laguna,-5.955,43.518,20
24,Urbanizacion Patricia,-6.558,42.547,20
55,Iboya,-5.89,43.598,20
28,Pinella,-5.939,43.506,20
39,San Miguel de las Duenas,-6.519,42.587,33
28,Ferrero,-5.856,43.634,20
24,Rioscuro,-6.288,42.933,20
24,Calamocos,-6.51,42.577,20
94,Villar de los Barrios,-6.552,42.508,24
28,Perdones,-5.87,43.585,24
28,La Marzaniella,-5.89,43.551,20
192,Hermisende,-6.893,41.969,55
79,Santullano,-5.967,43.415,39
46,Molinaseca,-6.52,42.538,39
112,El Monte,-5.824,43.636,20
112,Noceda,-6.4,42.717,66
46,Villaseca de Laciana,-6.254,42.943,39
33,Onamio,-6.498,42.558,20
55,Susacasa,-5.836,43.605,24
276,La Bana,-6.671,42.268,134
28,Castropodame,-6.467,42.581,24
24,Nubledo,-5.87,43.523,20
192,Samartin,-6.095,43.161,112
55,Escamplero,-5.95,43.392,20
112,Trubia,-5.979,43.341,46
46,Vinales,-6.421,42.637,20
112,Cancienes,-5.868,43.51,24
28,Lluanco/Luanco,-5.794,43.614,24
134,Proaza,-6.015,43.252,66
39,Villanueva,-6,43.273,20
134,Bembibre,-6.415,42.617,112
24,Piedrafita de Babia,-6.19,42.951,24
33,Pando,-5.955,43.315,20
39,Caces,-5.937,43.334,20
46,San Roque,-5.916,43.362,39
55,Quintana de Fuseros,-6.329,42.706,39
24,Guyame,-5.871,43.429,20
33,Quintanilla de Babia,-6.175,42.941,20
192,Vigo,-6.691,42.134,46
160,Candas,-5.764,43.59,55
24,Puerto,-5.932,43.319,20
28,Sendin,-5.911,43.345,20
66,Encinedo,-6.593,42.271,46
28,Posada,-5.85,43.44,20
94,Requejo,-6.746,42.03,66
94,Castrillo de Cabrera,-6.544,42.34,46
24,Ules,-5.884,43.379,20
39,Albares de la Ribera,-6.365,42.607,24
39,Villabona,-5.825,43.462,20
24,La Rebollada,-5.766,43.553,24
28,Iguena,-6.275,42.728,28
230,Murias de Paredes,-6.19,42.85,66
79,Folgoso de la Ribera,-6.32,42.645,33
134,Lugo de Llanera,-5.817,43.442,33
39,Trefacio,-6.65,42.121,20
28,Galende,-6.658,42.104,20
55,Xivares,-5.726,43.57,20
276,Oviedo,-5.85,43.363,134
28,Montiana,-5.748,43.521,20
94,Barzana,-5.972,43.158,66
33,Soto Ribera,-5.877,43.308,20
39,Pedralba de la Praderia,-6.695,42.026,28
24,San Justo,-6.623,42.134,20
66,Torre del Bierzo,-6.323,42.596,46
33,Campiello,-5.849,43.347,20
66,Llamaoscura,-5.859,43.329,24
28,Lugones/Llugones,-5.808,43.402,20
112,Santa Eulalia,-5.878,43.282,55
66,El Puente,-6.641,42.085,24
28,Verina de Riba,-5.717,43.537,24
24,Santa Eulalia,-5.765,43.444,24
24,Vidayan,-5.818,43.353,20
28,Pinera,-5.737,43.481,20
276,Tremor de Arriba,-6.21,42.728,79
55,Pobladura de las Regueras,-6.227,42.698,20
24,Les Maces,-5.869,43.265,20
24,Colloto,-5.797,43.377,20
28,Llugar de Baxo,-5.871,43.253,20
331,Puebla de Sanabria,-6.632,42.054,276
94,L'Ara,-5.877,43.238,33
55,Casares,-5.714,43.497,24
39,Aguda,-5.728,43.463,20
192,Corporales,-6.456,42.31,112
33,Olloniego,-5.823,43.299,33
79,Casas del Jaral,-17.932,28.831,66
24,Cueva del Agua,-17.952,28.812,20
33,Robleda,-6.592,42.082,28
1702,Gijon/Xixon,-5.67,43.53,1419
230,Torrebarrio,-5.993,43.007,94
46,Llantones,-5.692,43.471,24
94,Meres,-5.746,43.376,28
66,San Emiliano,-5.999,42.971,28
55,Tudela Veguin,-5.773,43.332,33
28,El Roque,-17.977,28.758,20
66,Paneda Nueva,-5.713,43.424,24
55,Branuelas,-6.206,42.636,55
24,Les Casadianes,-5.716,43.411,20
28,Somio,-5.627,43.54,24
24,Tinizara,-17.967,28.742,20
39,Castiello Bernueces,-5.638,43.51,20
46,Rosinos de la Requejada,-6.533,42.085,24
46,Aguatavar,-17.963,28.731,20
94,Vega de Baxo,-5.635,43.491,33
55,Filiel,-6.333,42.378,20
28,Llinares,-5.636,43.477,20
24,Lomo de la Cancela,-17.837,28.829,20
55,Mieres del Camin,-5.775,43.249,55
55,Lucillo,-6.304,42.409,39
39,Villayana,-5.813,43.183,20
685,La Pola,-5.827,43.158,66
160,El Pueblo,-17.954,28.711,46
24,Palacios de Sanabria,-6.525,42.057,20
28,Santuyano,-5.782,43.22,20
79,Uxo,-5.789,43.205,33
39,La Vega'l Ciigu,-5.824,43.14,20
112,Sena de Luna,-5.952,42.929,39
24,El Jesus,-17.946,28.703,20
24,Zurea,-5.848,43.091,20
66,Barlovento,-17.803,28.828,28
192,Pola de Siero,-5.659,43.392,79
33,Los Campones,-5.687,43.338,24
33,Quintueles,-5.564,43.532,33
55,Arecida,-17.946,28.687,20
112,Campumanes,-5.826,43.106,39
66,Santa Colomba de Somoza,-6.243,42.445,66
33,La Olla,-5.573,43.503,20
24,Cuesta Baja,-17.781,28.823,20
55,Llicenes,-5.648,43.366,20
28,La Formiguera,-5.684,43.306,20
66,La Ribaya/San Francisco,-5.74,43.209,24
39,Bo,-5.764,43.171,20
192,Llangreu/Langreo,-5.677,43.293,94
28,Aveno,-5.607,43.407,20
39,El Barru Riba,-5.534,43.516,20
28,Villaverde,-5.512,43.541,24
33,Pumarabule,-5.624,43.355,20
55,Pion,-5.542,43.486,39
24,Llano El Pino,-17.766,28.792,20
24,Tazacorte,-17.932,28.642,20
55,Luyego de Somoza,-6.236,42.376,33
33,Fuentemil,-5.594,43.392,24
66,Los Llanos de Aridane,-17.907,28.658,66
94,Brazuelo,-6.156,42.497,46
46,Garachico,-17.763,28.781,20
39,Espadanedo,-6.394,42.116,39
24,L'Entregu/El Entrego,-5.64,43.287,20
28,Llano Molino,-17.763,28.766,20
28,Vega,-5.557,43.41,24
28,El Paso,-17.881,28.652,20
55,Solvay,-5.577,43.371,20
134,Argueru,-5.471,43.541,55
24,Urbies,-5.668,43.217,24
55,Tajuya,-17.888,28.636,20
134,Riello,-5.944,42.774,55
24,Todoque,-17.903,28.617,20
46,Manzanal de Arriba,-6.439,41.991,20
46,La Fistiel.la,-5.7,43.146,20
55,Cernadilla,-6.417,42.021,33
94,Sueros de Cepeda,-6.035,42.611,55
24,El Remediu,-5.545,43.38,20
94,San Juan de Puntallana,-17.744,28.74,24
33,Corigos,-5.675,43.165,28
39,Manzanal de los Infantes,-6.382,42.054,24
39,Puerto Naos,-17.91,28.587,33
94,Valdesamario,-5.951,42.721,39
39,Priaranza de la Valduerna,-6.199,42.333,20
28,Santuyano/San Julian,-5.564,43.338,28
55,Tabuyo del Monte,-6.202,42.314,55
28,San Nicolas,-17.876,28.601,20
66,San Roman,-5.507,43.412,28
33,Miranda,-17.764,28.701,20
55,Rozaes,-5.565,43.314,20
33,Castrillos de Cepeda,-6.017,42.584,24
28,Justel,-6.295,42.149,28
24,Llames de Baxu,-5.521,43.371,20
24,Jedey,-17.879,28.585,20
55,Val de San Lorenzo,-6.12,42.417,46
94,Villamejil,-6.024,42.563,20
2450,Santa Cruz de la Palma,-17.765,28.683,685
24,Soto,-5.646,43.162,20
46,Soto y Amio,-5.885,42.776,33
55,San Miguel,-5.4,43.542,24
24,Valdeviejas,-6.073,42.464,20
134,Villaviciosa,-5.433,43.482,134
94,La Carrera,-6.042,42.51,33
79,Nava,-5.508,43.36,66
160,El Remo,-17.888,28.554,33
66,Nuez,-6.515,41.774,24
66,Cabanaquinta,-5.623,43.161,55
94,Codesal,-6.38,41.969,39
28,Figueruela de Arriba,-6.445,41.869,28
24,Piloneta,-5.503,43.345,20
134,Pola de Laviana,-5.562,43.245,55
79,San Antonio,-17.766,28.642,33
397,Astorga,-6.054,42.455,276
94,Mombuey,-6.33,42.023,66
24,Pruneda/Purnea,-5.473,43.376,20
24,Entrialgo,-5.555,43.234,20
55,Villoria,-5.565,43.216,24
46,Beyo,-5.61,43.14,20
28,San Roman de la Vega,-6.026,42.474,20
66,El Pueblo,-17.778,28.605,24
33,Riofrio,-5.933,42.611,24
46,Seloriu,-5.367,43.515,46
79,Peque,-6.274,42.074,39
46,Vinas,-6.47,41.773,20
24,San Simon,-17.77,28.595,20
160,Canales,-5.809,42.782,94
55,Ceceda/Cecea,-5.446,43.359,33
39,Las Omanas,-5.869,42.682,33
134,Destriana,-6.094,42.327,79
134,Santolaya,-5.409,43.417,55
28,Las Indias,-17.859,28.502,20
28,Tigalate,-17.8,28.554,20
39,Quintanilla del Monte,-5.927,42.58,33
112,Los Roques,-17.776,28.575,24
28,Monte de Luna,-17.816,28.535,28
112,Mahide,-6.377,41.869,66
33,El Condao,-5.503,43.237,33
39,Antonan del Valle,-5.949,42.524,28
46,Nistal,-6.008,42.424,24
39,Sejas de Aliste,-6.454,41.731,20
55,Collanzo,-5.563,43.124,24
24,Valderrey,-6.02,42.394,20
33,Otero de las Duenas,-5.767,42.787,24
28,Robledo de la Valduerna,-6.057,42.328,24
55,Casomera,-5.577,43.081,33
55,Llue,-5.319,43.496,24
28,Nogarejas,-6.139,42.189,28
55,Espinosa de la Ribera,-5.813,42.698,24
24,Castrillo de las Piedras,-5.994,42.41,20
94,Rioseco de Tapia,-5.79,42.73,39
276,Villamanin,-5.656,42.939,46
28,San Roman de los Caballeros,-5.838,42.648,20
134,Villardeciervos,-6.283,41.941,112
46,Cubo de Benavente,-6.163,42.123,33
39,Arenes,-5.403,43.323,28
66,Riego de la Vega,-5.984,42.387,33
94,Llamas de la Ribera,-5.825,42.635,24
33,Rionegro del Puente,-6.228,42.005,33
33,Soto,-5.467,43.202,20
79,Rusecu/Rioseco,-5.454,43.221,24
55,Llastres,-5.27,43.515,24
134,Benavides de Orbigo,-5.896,42.502,55
33,Turcia,-5.875,42.534,20
46,Armellada,-5.863,42.553,28
160,L'Infiestu,-5.362,43.347,79
112,La Pola de Gordon,-5.667,42.854,46
66,Lliberdon,-5.31,43.429,39
46,Quintanilla de Sollamas,-5.821,42.606,20
276,Felechosa,-5.507,43.104,66
94,Colunga,-5.267,43.486,79
112,San Vitero,-6.348,41.777,66
55,Cinera,-5.636,42.885,24
66,Una de Quintana,-6.144,42.087,46
46,Quintana y Congosto,-6.035,42.255,46
39,La Fregeneda,-6.866,40.989,39
24,Santa Lucia,-5.637,42.874,20
24,Cardes,-5.345,43.339,20
24,Villarejo de Orbigo,-5.903,42.445,20
39,San Juan del Rebollar,-6.351,41.748,24
33,Villanueva de Valrojo,-6.218,41.951,33
28,Villamor de Orbigo,-5.874,42.483,20
55,Carmenes,-5.574,42.959,55
55,Hospital de Orbigo,-5.883,42.463,20
24,Santibanez de la Isla,-5.933,42.375,20
46,Miyares,-5.297,43.377,20
28,Villamayor,-5.306,43.359,24
33,La Isla,-5.226,43.483,20
66,Junquera de Tera,-6.159,42.001,39
28,San Cristobal de la Polantera,-5.907,42.39,20
39,Santa Maria de la Isla,-5.928,42.355,20
571,Alcanices,-6.347,41.699,276
46,Villoria de Orbigo,-5.883,42.413,20
66,Ayoo de Vidriales,-6.064,42.13,55
66,Velilla de la Reina,-5.792,42.552,28
66,Caliao,-5.411,43.156,46
24,Castrillo de San Pelayo,-5.868,42.429,20
94,Vilvestre,-6.722,41.106,33
46,Cascantes,-5.636,42.768,20
33,San Martin del Camino,-5.808,42.494,28
24,San Vicente de la Cabeza,-6.25,41.806,20
134,Hinojosa de Duero,-6.794,40.986,46
66,Sebares,-5.263,43.36,46
55,Huerga de Garaballes,-5.898,42.339,24
66,La Seca de Alba,-5.634,42.747,20
66,Otero de Bodas,-6.149,41.938,33
192,Castrocalbon,-5.981,42.198,46
66,Rabanales,-6.276,41.742,39
79,Prado,-5.187,43.462,39
134,Aldeadavila de la Ribera,-6.618,41.217,134
39,San Pedro de Ceque,-6.073,42.043,39
33,Brugos de Fenar,-5.586,42.806,24
55,Jimenez de Jamuz,-5.929,42.265,24
55,Villadangos del Paramo,-5.766,42.518,55
66,Vegacervera,-5.533,42.887,33
134,El Campu,-5.344,43.183,55
160,Cuadros,-5.639,42.709,24
39,Bercianos de Aliste,-6.23,41.788,33
476,La Baneza,-5.899,42.298,134
24,Requejo de la Vega,-5.887,42.312,20
79,Sarracin de Aliste,-6.189,41.843,46
28,Villazala,-5.854,42.361,28
28,Matalobos del Paramo,-5.816,42.418,20
46,San Pedro de la Vina,-6.018,42.098,20
24,Orlle,-5.323,43.197,20
33,Cerezal de Penahorcada,-6.652,41.13,24
66,La Zarza de Pumareda,-6.626,41.162,28
39,Bustillo del Paramo,-5.791,42.442,39
28,Venta,-5.611,42.724,20
24,Campo y Santibanez,-5.635,42.682,20
24,Calzadilla de Tera,-6.082,41.979,24
39,Llames,-5.214,43.353,24
39,Lorenzana,-5.634,42.669,20
94,Arriondas,-5.185,43.39,39
66,Barrio de la Estacion,-5.522,42.846,66
160,Santibanez de Vidriales,-6.012,42.073,94
55,Riofrio de Aliste,-6.176,41.817,24
134,Barruecopardo,-6.664,41.073,94
24,Grisuela del Paramo,-5.784,42.412,20
28,Regueras de Arriba,-5.86,42.293,20
28,Valdefuentes del Paramo,-5.83,42.323,28
39,Mansilla del Paramo,-5.789,42.386,20
33,Villar de Mazarife,-5.725,42.483,33
24,Chozas de Arriba,-5.699,42.521,24
94,San Esteban de Nogales,-5.93,42.16,39
33,Azadinos,-5.623,42.636,20
112,Lugueros,-5.411,42.973,79
39,La Redonda,-6.747,40.909,24
28,La Bouza,-6.794,40.836,20
94,Carbajal de la Legua,-5.604,42.655,24
33,Perena de la Ribera,-6.522,41.238,33
33,Terenes,-5.095,43.472,20
94,Pardave,-5.507,42.806,33
79,Bezanes,-5.29,43.151,33
39,Les Roces,-5.15,43.374,20
46,Riosequino de Torio,-5.567,42.703,20
39,Abejera,-6.143,41.804,20
230,Lumbrales,-6.717,40.936,192
24,Chozas de Abajo,-5.688,42.508,20
134,Ferreras de Abajo,-6.077,41.897,66
28,Urdiales del Paramo,-5.771,42.371,20
55,Bermellar,-6.669,40.999,46
33,Mozondiga,-5.708,42.469,20
28,La Virgen del Camino,-5.636,42.582,24
39,Villanueva de Jamuz,-5.856,42.234,28
66,Ahigal de los Aceiteros,-6.746,40.873,24
55,Gallegos del Rio,-6.173,41.735,20
39,El Milano,-6.598,41.092,24
33,Saldeana,-6.638,41.021,24
33,Cebrones del Rio,-5.825,42.257,24
94,Garrafe de Torio,-5.523,42.732,39
55,Villarino de los Aires,-6.467,41.269,55
33,Quintana-Raneros,-5.636,42.549,20
33,Puerto Seguro,-6.759,40.828,33
79,Cabeza del Caballo,-6.555,41.13,66
33,La Vidola,-6.486,41.154,33
46,Barcial de la Loma,-5.282,41.952,20
55,Encinasola de los Comendadores,-6.531,41.03,24
160,Ribadesella,-5.056,43.461,79
112,Mohedas de Granadilla,-6.202,40.269,39
39,Ardon,-5.56,42.436,28
28,Villaquilambre,-5.556,42.644,20
39,Santa Croya de Tera,-5.977,41.983,28
55,Navatejera,-5.563,42.628,24
134,Samir de los Canos,-6.163,41.673,66
79,San Felices de los Gallegos,-6.707,40.849,66
160,Sancti-Spiritus,-6.399,40.705,94
46,Villasbuenas,-6.596,41.063,39
134,Valencia de Alcantara,-7.244,39.409,55
46,Agulo,-17.193,28.188,46
94,El Burgo Ranero,-5.219,42.423,39
39,La Atalaya,-6.414,40.502,33
55,Camaleno,-4.693,43.151,39
94,Penausende,-5.866,41.287,94
112,Cangues d'Onis/Cangas de Onis,-5.127,43.35,112
39,Serradilla del Llano,-6.356,40.5,20
79,Villardiga,-5.464,41.819,33
55,Valsalabroso,-6.502,41.109,28
33,San Jose de los Llanos,-16.786,28.327,20
94,Icod de los Vinos,-16.712,28.368,94
46,La Pena,-6.518,41.175,20
79,Cerralbo,-6.586,40.974,55
112,Santa Maria del Paramo,-5.749,42.354,94
66,Respenda de la Pena,-4.685,42.765,39
46,Guamasa,-16.379,28.496,24
39,Valdelafuente,-5.527,42.572,28
28,Antimio de Arriba,-5.644,42.516,20
28,Punta Prieta,-16.387,28.265,20
46,Calvarrasa de Arriba,-5.591,40.907,20
192,Bonar,-5.321,42.866,112
39,San Feliz de Torio,-5.535,42.684,28
46,Santa Maria de la Vega,-5.809,42.085,20
33,Banobarez,-6.612,40.849,33
66,Fontecha,-5.688,42.44,24
55,Losacio,-6.039,41.711,28
39,Guadramiro,-6.492,41.017,20
33,Villar de Arganan,-6.718,40.674,28
24,Santa Maria de Tera,-5.97,41.996,20
46,Villaturiel,-5.486,42.518,24
24,Fornillos de Aliste,-6.19,41.657,20
79,Herrera de Alcantara,-7.404,39.638,55
33,Colinas de Trasmonte,-5.807,42.004,20
79,Benia de Onis,-4.968,43.335,66
28,Pobladura del Valle,-5.733,42.102,28
46,Laguna Dalga,-5.751,42.332,20
476,Vitigudino,-6.433,41.01,331
46,Arrabalde,-5.893,42.107,39
39,Fresno de la Vega,-5.534,42.345,33
24,Echedo,-17.921,27.833,20
46,Granucillo,-5.927,42.051,28
66,Cubillas de los Oteros,-5.509,42.371,20
24,San Pedro Bercianos,-5.708,42.391,20
46,Villalcampo,-6.047,41.522,46
55,Domez,-6.143,41.714,28
39,Algadefe,-5.584,42.219,20
28,Armunia,-5.59,42.575,20
55,Manzanal del Barco,-5.946,41.635,28
39,Ardoncino,-5.643,42.488,33
33,Olmillos de Valverde,-5.755,41.907,20
134,Monleras,-6.225,41.187,112
2042,Leon,-5.571,42.599,685
28,Litos,-6.016,41.904,28
39,Valdepielago,-5.399,42.871,20
28,Gusendos de los Oteros,-5.429,42.378,28
112,Espadana,-6.283,41.061,33
39,Castrofuerte,-5.532,42.21,20
24,San Pedro de las Duenas,-5.756,42.305,20
28,Collera,-5.041,43.448,20
66,San Cristobal de Entrevinas,-5.634,42.045,33
46,Sesnandez de Tabara,-6.075,41.807,33
55,Valcabado del Paramo,-5.805,42.223,55
39,Bercianos del Paramo,-5.703,42.38,33
55,Granja de Moreruela,-5.738,41.81,55
476,Fermoselle,-6.394,41.316,230
46,La Vecilla,-5.406,42.849,46
46,Campazas,-5.492,42.142,39
28,Ribaseca,-5.599,42.537,20
28,Villaobispo de las Regueras,-5.549,42.614,20
39,Casas de Abajo de Valverde,-5.854,41.52,39
685,Vallehermoso,-17.265,28.18,112
134,Prioro,-4.962,42.894,66
55,Gejuelo del Barro,-6.123,41.076,33
33,Villanueva de las Peras,-5.978,41.935,28
46,Aldea del Obispo,-6.792,40.707,39
79,Roales de Campos,-5.474,42.03,33
33,Banuncias,-5.631,42.473,20
134,Cebanico,-5.025,42.725,39
33,Castraz,-6.333,40.705,28
24,Sotu Cangues,-5.083,43.345,24
94,Alba de Yeltes,-6.316,40.672,46
397,Sames,-5.128,43.27,55
112,Torres del Carrizal,-5.672,41.616,46
986,Zamora,-5.741,41.507,476
55,Cerecinos de Campos,-5.484,41.9,39
33,Dios le Guarde,-6.312,40.642,24
46,Monfarracinos,-5.706,41.554,33
66,Tapioles,-5.495,41.858,33
134,La Union de Campos,-5.326,42.077,55
331,Mayorga,-5.264,42.165,112
46,El Molinito,-17.127,28.107,20
79,Alija del Infantado,-5.832,42.138,66
276,San Vicente de Alcantara,-7.136,39.361,276
46,La Moheda de Gata,-6.622,40.097,24
46,Cofinal,-5.267,43.031,20
33,El Palmar,-16.846,28.344,20
112,Cabrillas,-6.177,40.74,55
28,Villaferruena,-5.856,42.098,20
79,Ferreruela de Tabara,-6.071,41.766,55
39,Altobar de la Encomienda,-5.813,42.164,20
160,Villarmayor,-5.972,41.015,46
24,Frama,-4.595,43.15,20
33,Prellezo,-4.446,43.387,24
28,Onzonilla,-5.58,42.524,20
55,Peleas de Abajo,-5.689,41.393,28
112,Vilecha,-5.566,42.546,24
55,Villalube,-5.544,41.61,55
134,Beleno,-5.162,43.19,66
46,Casillas de Coria,-6.635,39.965,46
28,Villar del Yermo,-5.688,42.35,24
39,Puebla de Yeltes,-6.181,40.626,39
160,Puebla de Lillo,-5.274,43.009,112
39,Vegalatrave,-6.106,41.7,20
46,Las Lomas,-5.531,42.596,20
24,Santibanez de Tera,-5.922,41.984,24
24,Villalazan,-5.588,41.494,20
397,Cedillo,-7.498,39.651,160
79,Zotes del Paramo,-5.735,42.272,33
46,Villagomez la Nueva,-5.142,42.156,24
112,Rollan,-5.917,40.963,28
46,Santervas de Campos,-5.099,42.218,24
33,Sitrama de Tera,-5.903,42.007,20
46,Alcala,-16.827,28.201,20
79,Sanzoles,-5.565,41.433,46
55,Aldeanueva de la Sierra,-6.099,40.615,33
46,Carrascal del Obispo,-5.998,40.764,46
112,Playa de San Juan,-16.816,28.182,46
230,Puentenansa,-4.405,43.254,55
46,Abezames,-5.426,41.626,20
331,Villar de Ciervo,-6.738,40.738,79
79,Fonfria,-6.139,41.636,33
112,Matilla de los Canos del Rio,-5.942,40.825,112
39,Cabreros del Monte,-5.269,41.849,24
112,Lagartos,-4.903,42.406,33
230,San Pedro de Latarce,-5.325,41.736,112
94,Villafrechos,-5.218,41.893,66
39,Argujillo,-5.586,41.311,20
66,Ruisenada,-4.291,43.364,20
24,Barrios de la Vega,-4.787,42.551,24
39,Casar de Palomero,-6.255,40.293,28
46,Cuerres,-4.991,43.443,28
55,Pinilla de Toro,-5.363,41.627,20
79,Tijoco Bajo,-16.764,28.156,20
55,Brime de Urz,-5.872,42.037,24
24,Villardondiego,-5.375,41.585,20
160,Nuevo Poblado,-6.82,40.605,160
112,Cembranos,-5.584,42.485,46
28,Playa Paraiso,-16.771,28.12,28
79,La Pesga,-6.176,40.327,79
39,Zuares del Paramo,-5.682,42.328,20
94,Fariza de Sayago,-6.269,41.422,39
79,Valderrodrigo,-6.507,41.064,55
66,La Postura,-16.729,28.121,28
79,San Cristobal de la Laguna,-16.318,28.49,33
46,Ayuela,-4.659,42.627,28
55,Villarrabe,-4.784,42.421,33
55,Santa Colomba de Curueno,-5.411,42.751,24
33,Tordehumos,-5.158,41.814,28
39,Valderrabano,-4.654,42.607,20
79,Torviscas Bajo,-16.732,28.083,28
39,Herrin de Campos,-4.952,42.124,39
55,Coomonte,-5.813,42.116,20
39,Cos,-4.223,43.29,20
79,Vilaflor,-16.637,28.157,39
39,Casar de Periedo,-4.177,43.336,33
33,Arona,-16.68,28.1,24
79,Villares de la Reina,-5.647,41.007,28
94,Valdevimbre,-5.616,42.42,46
33,Pobladura de Pelayo Garcia,-5.687,42.306,33
33,Olmedo de Camaces,-6.622,40.88,24
46,Pedroso de Acim,-6.411,39.825,28
79,Trabanca,-6.383,41.233,46
39,Holguera,-6.349,39.899,33
24,Castellanos de Moriscos,-5.59,41.019,24
33,Cortijo de Santa Engracia,-7.012,38.941,33
46,San Pedro de Rozados,-5.736,40.79,46
46,Santa Marta de Tormes,-5.625,40.95,24
94,Colmenar de Montemayor,-5.956,40.399,39
24,Viveda,-4.052,43.38,20
79,Fuentelapena,-5.382,41.252,66
55,Villanueva del Rebollar,-4.742,42.241,39
28,Losacino,-6.081,41.68,20
39,Valdenebro de los Valles,-4.969,41.855,39
33,Villar de Samaniego,-6.447,41.124,28
55,Boada de Campos,-4.877,41.99,20
94,Gevora,-6.94,38.92,33
28,Grulleros,-5.549,42.503,20
28,Gallegos de Hornija,-5.096,41.61,20
24,Somahoz,-4.063,43.249,20
94,Villanuno de Valdavia,-4.517,42.508,46
79,Fuentes de Nava,-4.781,42.083,66
33,Robladillo de Ucieza,-4.574,42.398,33
46,Casa de Traballa,-6.488,39.488,33
331,Carrion de los Condes,-4.603,42.338,160
24,Alija de la Ribera,-5.532,42.522,20
24,Viono,-3.971,43.361,20
55,Cerro Gordo,-6.901,38.888,39
66,Huerta,-5.468,40.968,24
24,Berrocal de Salvatierra,-5.689,40.633,24
55,La Alameda de Gardon,-6.756,40.65,28
66,Barrillos de Curueno,-5.403,42.72,33
39,Villar de la Yegua,-6.703,40.725,20
39,Mestas,-5.014,43.342,24
28,Villaseca de la Sobarriba,-5.477,42.588,20
94,Vegaquemada,-5.332,42.819,39
33,Morales de Valverde,-5.889,41.939,20
46,Pueblica de Valverde,-5.899,41.918,33
28,Arganin,-6.211,41.44,24
230,Torregamones,-6.179,41.487,79
331,Tabara,-5.958,41.824,192
55,Pino del Oro,-6.119,41.577,20
46,Bermillo de Alba,-6.089,41.62,28
39,Vega de Infanzones,-5.533,42.483,28
79,Nueva,-4.938,43.438,39
24,Sanfelismo,-5.479,42.567,20
55,Quiruelas de Vidriales,-5.828,42.018,33
55,Marana,-5.175,43.049,55
112,Villadepera,-6.131,41.548,39
33,Almendra,-6.34,41.229,24
33,Barceo,-6.451,41.061,24
28,Aguilar de Tera,-5.843,41.984,24
28,Fuenteliante,-6.572,40.875,28
39,Gamones,-6.177,41.467,20
55,Muga de Alba,-6.041,41.674,24
94,Morales de Rey,-5.785,42.067,28
39,Ahigal de Villarino,-6.379,41.159,28
24,Villalobar,-5.572,42.396,20
33,Audanzas del Valle,-5.713,42.168,33
160,Sabinosa,-18.096,27.747,66
55,Sanchon de la Ribera,-6.414,41.087,46
66,Laguna de Negrillos,-5.66,42.239,66
134,La Alamedilla,-6.827,40.472,46
39,Ardisana,-4.942,43.386,28
46,San Adrian del Valle,-5.728,42.13,20
55,Bogajo,-6.53,40.907,33
28,Campo de Villavidel,-5.526,42.439,20
39,Villahormes,-4.901,43.44,20
28,Moralina,-6.135,41.49,28
79,Yecla de Yeltes,-6.487,40.96,39
94,Villarente,-5.454,42.545,39
79,Muga de Sayago,-6.199,41.389,46
112,Reyero,-5.198,42.949,39
160,Vegas del Condado,-5.363,42.683,79
66,Cabreros del Rio,-5.54,42.402,39
66,Gallegos de Arganan,-6.702,40.631,66
55,Palanquinos,-5.503,42.457,24
46,Olmillos de Castro,-5.967,41.732,46
46,Villanueva del Condado,-5.371,42.658,20
79,Villamanan,-5.582,42.321,33
28,Videmala,-6.039,41.614,28
28,San Cipriano del Condado,-5.378,42.642,20
79,Castillejo de Martin Viejo,-6.645,40.7,46
39,Carbajosa,-6.087,41.537,20
46,Navianos de Valverde,-5.816,41.954,33
28,Friera de Valverde,-5.842,41.912,28
66,Faramontanos de Tabara,-5.888,41.836,46
33,La Torre del Valle,-5.723,42.091,20
28,Mere,-4.913,43.375,20
66,Las Puntas,-17.989,27.794,24
79,Acebedo,-5.115,43.04,33
79,Carbajales de Alba,-5.996,41.653,79
39,Vibanu,-4.893,43.399,24
33,Manganeses de la Polvorosa,-5.746,42.035,33
24,Erese,-17.962,27.812,20
66,Luelmo,-6.134,41.438,24
28,Brincones,-6.347,41.113,28
24,La Robellada,-4.923,43.343,24
112,Espeja,-6.716,40.565,55
94,Iruelos,-6.327,41.142,20
28,Villanazar,-5.78,41.974,24
24,Villacelama,-5.455,42.482,24
39,Villabrazaro,-5.726,42.053,20
39,Mocanal,-17.941,27.821,20
55,Moral de Sayago,-6.1,41.473,20
46,La Albergueria de Arganan,-6.812,40.412,33
33,Moronta,-6.43,40.977,28
46,Sardon de los Frailes,-6.27,41.213,28
79,Posada,-4.862,43.424,55
192,Oseja de Sajambre,-5.037,43.138,134
46,Villar del Buey,-6.19,41.332,46
66,Frontera,-18.008,27.755,66
55,Saelices el Chico,-6.632,40.67,24
39,Villasabariego,-5.412,42.532,24
46,El Manzano,-6.287,41.174,28
46,Villarmuerto,-6.363,41.055,33
28,Villademor de la Vega,-5.568,42.27,24
134,Salce,-6.218,41.27,24
55,Moreruela de Tabara,-5.869,41.799,33
276,Mansilla de las Mulas,-5.416,42.499,94
134,Burganes de Valverde,-5.78,41.921,79
55,La Ercina,-5.214,42.81,46
685,Valverde,-17.914,27.809,571
192,Villavieja de Yeltes,-6.467,40.876,94
24,Tamaduste,-17.894,27.825,20
46,San Andres,-17.954,27.771,20
39,Toral de los Guzmanes,-5.567,42.242,39
33,Corbillos de los Oteros,-5.459,42.408,28
55,Carpio de Azaba,-6.646,40.596,33
46,Puebla de Azaba,-6.744,40.447,39
112,Cremenes,-5.142,42.904,55
66,Villamandos,-5.593,42.18,28
24,Matilla de Arzon,-5.641,42.105,24
46,Peralejos de Abajo,-6.361,41.004,39
276,Valencia de Don Juan,-5.517,42.293,192
46,Campillo de Azaba,-6.688,40.51,20
33,Caleta,-17.886,27.802,20
160,Bermillo de Sayago,-6.112,41.365,160
79,Perilla de Castro,-5.876,41.725,55
28,Valle de Mansilla,-5.352,42.541,28
55,Pozos de Hinojo,-6.411,40.913,39
55,Isora,-17.946,27.745,33
79,Puertas,-6.286,41.097,28
55,Buron,-5.048,43.024,39
476,Valverde del Fresno,-6.877,40.221,160
24,Casas de Cejines,-5.71,41.971,20
66,Ituero de Azaba,-6.693,40.485,46
33,Temijiraque,-17.913,27.767,24
192,Villaquejida,-5.596,42.145,79
46,Santa Eufemia del Barco,-5.897,41.678,33
134,Navasfrias,-6.819,40.297,55
160,Taibique,-17.979,27.705,46
33,Ricobayo de Alba,-5.986,41.534,20
46,Roelos de Sayago,-6.171,41.253,20
39,Porrua,-4.799,43.412,24
28,Las Playas,-17.952,27.725,20
39,Pajares de los Oteros,-5.471,42.329,33
571,Benavente,-5.677,42.006,397
33,Bretocino,-5.755,41.884,20
66,Casillas de Flores,-6.753,40.382,55
66,Sabero,-5.146,42.835,28
39,Carrena,-4.846,43.317,20
66,Cimanes de la Vega,-5.596,42.114,24
28,Villaornate,-5.548,42.184,28
39,Villares de Yeltes,-6.412,40.866,33
24,Arcos de la Polvorosa,-5.697,41.944,20
112,Muelas del Pan,-5.969,41.521,46
66,Reliegos,-5.354,42.474,24
39,Santa Colomba de las Monjas,-5.684,41.958,39
55,Almendra,-5.921,41.591,39
28,Eljas,-6.843,40.212,20
46,Santa Colomba de las Carabias,-5.607,42.071,20
55,Carbellino,-6.151,41.23,46
571,Llanes,-4.759,43.422,276
24,Villanueva de Azoague,-5.664,41.976,20
39,La Aldea del Puente,-5.295,42.552,20
39,Santas Martas,-5.37,42.432,39
28,Cifuentes de Rueda,-5.258,42.606,24
55,Posada de Valdeon,-4.918,43.151,55
66,Villaseco de los Reyes,-6.183,41.162,24
192,Cistierna,-5.127,42.804,160
276,Fuenteguinaldo,-6.675,40.429,112
230,Las Arenas,-4.816,43.303,94
160,Santiago de Alcantara,-7.243,39.605,112
134,La Restinga,-17.98,27.641,46
94,Santovenia,-5.708,41.878,28
24,Valdeperdices,-5.9,41.582,20
112,Quintana de Rueda,-5.262,42.577,94
55,Torrefrades,-6.053,41.347,33
24,Villaveza del Agua,-5.677,41.92,20
79,Vidanes,-5.139,42.764,20
33,Sorriba del Esla,-5.125,42.786,20
94,Gradefes,-5.225,42.625,33
397,Riano,-5.005,42.976,112
24,Villaseco del Pan,-5.965,41.469,24
46,Barcial del Barco,-5.661,41.934,20
55,Saelices del Payuelo,-5.277,42.534,33
28,Cue,-4.73,43.413,20
46,San Martin de Trevejo,-6.795,40.211,28
476,Ciudad Rodrigo,-6.529,40.6,397
46,Villabraz,-5.445,42.246,24
66,San Roque,-4.728,43.395,24
55,Castrogonzalo,-5.602,41.991,39
160,Almeida de Sayago,-6.073,41.266,79
94,Andavias,-5.857,41.596,39
79,Villamarco,-5.306,42.45,46
46,Cubillas de Rueda,-5.175,42.656,33
55,El Payo,-6.726,40.287,39
55,Villar de Peralonso,-6.222,41.031,46
66,Matadeon de los Oteros,-5.368,42.338,66
112,Ciperez,-6.264,40.962,55
55,Villamiel,-6.784,40.187,20
331,Montamarta,-5.805,41.648,79
66,El Cubo de Don Sancho,-6.304,40.891,66
24,Tremedal de Tormes,-6.181,41.075,24
79,El Bodon,-6.574,40.488,46
33,Ruenes,-4.74,43.332,24
79,Almaraz de Duero,-5.915,41.474,79
66,Alojera,-17.325,28.161,46
39,Retortillo,-6.358,40.801,33
24,San Cebrian de Castro,-5.754,41.705,24
33,Castilfale,-5.42,42.22,20
33,Puertas,-4.685,43.399,24
28,Fuentes de Carbajal,-5.445,42.177,20
33,Matallana de Valmadrigal,-5.329,42.361,28
112,Penaparda,-6.668,40.321,46
28,Villamoratiel de las Matas,-5.299,42.397,24
79,Valdemora,-5.427,42.195,39
24,Valle Abajo,-17.257,28.195,20
66,Manganeses de la Lampreana,-5.709,41.751,46
33,Fuentes de Ropel,-5.545,42.003,33
79,Arure,-17.32,28.131,24
79,Boca de Huergano,-4.926,42.973,46
39,La Encina,-6.529,40.499,28
24,Villasrubias,-6.638,40.338,20
79,Alles,-4.703,43.333,46
66,Robleda,-6.605,40.385,46
55,Gazapos,-6.467,40.583,33
134,Cilleros,-6.788,40.112,79
66,Bocacara,-6.402,40.675,24
24,Pastores,-6.51,40.515,20
134,Matanza de los Oteros,-5.375,42.24,79
46,Boada,-6.305,40.816,28
79,Fresno de Sayago,-5.969,41.318,46
94,Acebo,-6.716,40.202,24
28,Piedrahita de Castro,-5.727,41.681,24
134,Sotres,-4.746,43.232,66
39,Vidayanes,-5.573,41.91,20
134,Villafafila,-5.614,41.846,134
94,Vueltas,-17.333,28.083,66
94,Villasdardo,-6.161,41.004,24
28,San Esteban del Molar,-5.55,41.937,28
94,Pajares de la Lampreana,-5.692,41.716,28
79,Pendueles,-4.636,43.397,33
79,Villarrin de Campos,-5.638,41.795,39
46,Hoyos,-6.719,40.171,20
112,Buenamadre,-6.249,40.857,28
55,Revellinos,-5.569,41.891,33
112,Pereruela,-5.877,41.416,55
112,Villamunio,-5.192,42.477,94
55,Chipude,-17.281,28.11,39
79,Valverde-Enrique,-5.299,42.305,33
66,El Sahugo,-6.541,40.414,39
94,Morgovejo,-4.959,42.846,39
66,Valderas,-5.442,42.077,66
39,La Borbolla,-4.636,43.368,24
94,Gordoncillo,-5.4,42.135,39
39,Martin de Yeltes,-6.29,40.776,24
55,Las Huertas de Cansa,-7.274,39.35,39
112,Alfaraz,-5.985,41.228,46
39,Pelarrodriguez,-6.212,40.887,39
46,Villaseco de los Gamitos,-6.112,41.037,46
94,Roales,-5.771,41.551,39
46,Carrascal,-5.813,41.485,33
79,Zamarra,-6.452,40.519,20
39,Hermigua,-17.196,28.166,20
39,Villalba de la Lampreana,-5.639,41.743,33
112,La Fuente de San Esteban,-6.256,40.801,112
24,Arquillinos,-5.656,41.71,20
66,Puente Almuhey,-4.973,42.786,66
39,Moreruela de los Infanzones,-5.706,41.631,20
94,Martiago,-6.489,40.453,79
39,Las Graneras,-5.215,42.397,20
33,Castrotierra de Valmadrigal,-5.246,42.347,33
39,Cubillos,-5.739,41.574,20
94,Moraleja de Sayago,-6.002,41.17,66
66,Santa Maria de Sando,-6.128,40.979,28
66,La Dama,-17.3,28.054,28
94,Perales del Puerto,-6.681,40.156,66
79,Tresviso,-4.667,43.257,46
160,Almanza,-5.036,42.658,134
33,Cerecinos del Carrizal,-5.653,41.683,20
79,Tenebron,-6.353,40.625,33
39,Encina de San Silvestre,-6.091,41.015,20
134,Zarza la Mayor,-6.861,39.877,55
28,Vega de Villalobos,-5.463,41.97,20
94,Piedras Albas,-6.925,39.784,66
55,Villalobos,-5.474,41.945,33
39,Imada,-17.24,28.084,20
39,La Franca,-4.571,43.386,28
28,Sando,-6.11,40.968,20
24,Boadilla,-6.221,40.796,20
33,Calzadilla de los Hermanillos,-5.156,42.433,33
55,Santa Maria del Monte de Cea,-5.116,42.492,39
112,Gata,-6.595,40.238,66
39,Noriega,-4.572,43.364,20
66,Villaverde de Arcayos,-5.037,42.607,28
79,Villamartin de Don Sancho,-5.06,42.569,66
28,Villasbuenas de Gata,-6.626,40.178,28
134,Alajero,-17.238,28.063,33
39,Agallas,-6.441,40.448,28
55,Vegaviana,-6.717,40.041,46
94,Garcirrey,-6.129,40.902,46
79,Panes,-4.583,43.324,46
331,Ledesma,-6.001,41.088,134
39,Castrobol,-5.313,42.137,33
33,Torre de Don Miguel,-6.576,40.225,20
46,Izagre,-5.256,42.224,28
160,Villanueva del Campo,-5.405,41.985,79
476,Membrio,-7.053,39.527,112
66,Bercianos del Real Camino,-5.144,42.387,33
46,Molacillos,-5.658,41.583,28
24,Doninos de Ledesma,-6.033,41.012,24
94,Aspariegos,-5.598,41.675,46
24,Entrala,-5.755,41.431,20
79,Serradilla del Arroyo,-6.359,40.522,66
46,Santiz,-5.895,41.206,46
94,Buenavista del Norte,-16.849,28.371,94
55,Gordaliza del Pino,-5.157,42.344,55
134,Morales del Vino,-5.731,41.447,46
94,Unquera,-4.516,43.374,66
192,Moraleja,-6.654,40.069,79
66,El Perdigon,-5.752,41.412,24
28,Prado,-5.419,41.921,28
66,Linares,-4.584,43.254,46
66,Velilla del Rio Carrion,-4.845,42.826,28
46,Aldehuela de Yeltes,-6.243,40.662,39
94,Descargamaria,-6.485,40.305,55
55,Castronuevo,-5.542,41.72,33
28,Robledillo de Gata,-6.47,40.322,20
66,Joarilla de las Matas,-5.176,42.287,39
55,Playa de Santiago,-17.198,28.031,55
33,Cabanas de Sayago,-5.79,41.332,33
112,Morasverdes,-6.275,40.601,94
192,Alcantara,-6.884,39.713,94
24,Pechon,-4.489,43.39,20
55,Villaralbo,-5.683,41.491,33
66,Canizo,-5.501,41.769,46
39,Anover de Tormes,-5.914,41.136,20
33,Pobladura de Valderaduey,-5.541,41.7,20
685,Guardo,-4.849,42.79,331
39,Palacios del Arzobispo,-5.889,41.166,33
28,Quintanilla del Olmo,-5.406,41.906,20
39,Santibanez el Alto,-6.546,40.185,33
24,Urones de Castroponce,-5.281,42.099,24
397,Potes,-4.621,43.155,160
24,Pesues,-4.485,43.375,20
230,San Sebastian de la Gomera,-17.114,28.089,230
24,Casaseca de Campean,-5.746,41.374,20
79,Saelices de Mayorga,-5.205,42.212,39
46,Valdunquillo,-5.312,42.042,28
94,Las Portelas,-16.844,28.328,33
39,Tama,-4.599,43.177,20
24,Munorrodero,-4.485,43.363,20
112,La Vega,-4.646,43.099,39
24,Sepulcro-Hilario,-6.186,40.699,24
112,Coreses,-5.622,41.548,46
66,San Munoz,-6.126,40.783,39
39,Huelaga,-6.616,40.057,20
230,Villalpando,-5.412,41.865,134
33,Cazurra,-5.703,41.415,20
55,Luey,-4.483,43.349,20
28,Algodre,-5.603,41.566,20
55,Villamol,-5.048,42.428,28
230,Ceclavin,-6.771,39.822,112
28,La Mata de Ledesma,-5.97,41,20
66,Mantinos,-4.841,42.753,28
94,Salorino,-7.007,39.478,46
33,Casaseca de las Chanas,-5.676,41.439,20
94,Mayalde,-5.797,41.251,39
39,Garachico,-16.762,28.373,33
276,Corrales,-5.724,41.359,66
39,Moraleja del Vino,-5.656,41.464,24
24,El Tanque,-16.776,28.357,20
192,Cea,-5.011,42.462,66
28,Ruigomez,-16.788,28.341,20
39,Villazanzo de Valderaduey,-4.963,42.536,39
33,Villalba de la Loma,-5.189,42.175,24
28,Peleas de Arriba,-5.735,41.323,28
46,Serdio,-4.448,43.363,20
33,Melgar de Abajo,-5.141,42.244,28
79,Abusejo,-6.14,40.71,28
55,Castroverde de Campos,-5.314,41.97,24
55,Villamayor de Campos,-5.359,41.898,39
46,Mata de Alcantara,-6.817,39.717,39
28,Aldehuela de la Boveda,-6.048,40.844,28
28,Villar de Fallaves,-5.34,41.925,20
112,La Codosera,-7.172,39.208,112
79,Tabera de Abajo,-6.001,40.91,39
24,Genoves,-16.744,28.366,20
46,Bolanos de Campos,-5.283,42.006,46
33,Monsagro,-6.27,40.504,33
79,Santiago del Teide,-16.814,28.296,20
55,Cabezon de Liebana,-4.575,43.133,20
28,San Marcos,-16.722,28.379,20
24,San Pelayo de Guarena,-5.857,41.117,20
112,Bielva,-4.462,43.315,46
39,Hernan-Perez,-6.463,40.213,33
46,Becilla de Valderaduey,-5.217,42.099,28
66,Casas de Don Gomez,-6.6,40.009,28
79,Villalba de Guardo,-4.823,42.722,33
46,Zamayon,-5.829,41.148,33
55,Belver de los Montes,-5.451,41.723,55
39,Gema,-5.648,41.418,20
55,Villavicencio de los Caballeros,-5.235,42.058,39
24,Madridanos,-5.604,41.479,24
192,Sahagun,-5.031,42.371,192
55,San Pedro de Valderaduey,-4.972,42.465,24
66,Melgar de Arriba,-5.096,42.268,46
24,Cabezon de Valderaduey,-5.157,42.168,20
46,Sobrelapena,-4.483,43.252,33
79,Malva,-5.486,41.655,39
46,Tamaimo,-16.818,28.268,20
39,Quintanilla del Monte,-5.348,41.868,24
55,Fresno de la Ribera,-5.566,41.529,28
66,Castroponce,-5.182,42.127,24
39,Juzbado,-5.86,41.078,20
66,Pescueza,-6.644,39.918,39
160,Triollo,-4.68,42.924,79
79,Casares de las Hurdes,-6.286,40.44,33
112,San Vicente de la Barquera,-4.4,43.383,94
79,Torrecilla de los Angeles,-6.415,40.248,66
112,Villa del Rey,-6.82,39.659,46
33,La Acebosa,-4.406,43.366,20
55,Golpejas,-5.907,40.999,28
33,Cueva del Viento,-16.717,28.35,20
112,Puerto de Santiago,-16.84,28.236,112
46,Vega de Tirados,-5.886,41.025,20
33,Bustillo del Oro,-5.46,41.675,20
66,La Sagrada,-6.071,40.744,39
33,Santa Clara de Avedillo,-5.675,41.339,28
230,Fresno del Rio,-4.816,42.682,94
94,Calzadilla,-6.531,40.059,46
24,Villalan de Campos,-5.236,42.015,24
112,Valdelosa,-5.782,41.172,79
46,Fragosa,-6.298,40.398,33
24,El Varadero,-16.837,28.224,20
94,Santibanez de la Pena,-4.729,42.81,66
79,Robliza de Cojos,-5.976,40.868,39
112,El Maillo,-6.178,40.565,55
39,San Juan de la Rambla,-16.648,28.394,20
28,Fuentesecas,-5.472,41.63,20
79,Vega de Ruiponce,-5.114,42.188,20
66,Celis,-4.434,43.283,24
28,Aldearrodrigo,-5.806,41.112,20
55,El Cubo de Tierra del Vino,-5.711,41.255,55
33,Matilla la Seca,-5.499,41.579,28
230,Tamames,-6.106,40.657,94
24,Canillas de Abajo,-5.928,40.923,20
33,La Guancha,-16.652,28.374,33
112,Grajal de Campos,-5.019,42.321,39
24,Chio,-16.796,28.238,24
24,Zarapicos,-5.844,41.039,20
79,Villanueva de la Sierra,-6.406,40.202,39
33,Labarces,-4.392,43.325,24
33,Ladrillar,-6.223,40.466,33
55,Almenara de Tormes,-5.822,41.063,55
79,Pino del Rio,-4.806,42.645,33
230,Pinofranqueado,-6.33,40.303,112
28,Cuelgamures,-5.657,41.307,20
79,Pesaguero,-4.536,43.074,55
33,Guijo de Coria,-6.463,40.101,28
79,Herreruela,-6.906,39.462,55
33,Sanchon de la Sagrada,-6.024,40.743,20
24,Casa de la Pradera,-6.528,40.001,20
476,Coria,-6.538,39.986,276
55,Torresmenudas,-5.784,41.102,28
46,Villa del Campo,-6.427,40.141,46
55,Chiguergue,-16.782,28.227,20
79,Nunomoral,-6.245,40.407,55
39,Villota del Paramo,-4.847,42.553,33
28,Fuentespreadas,-5.628,41.326,28
39,Villalba de los Llanos,-5.974,40.8,24
28,Villanueva de la Condesa,-5.095,42.149,28
33,Calzada de Don Diego,-5.901,40.906,20
33,Caminomorisco,-6.289,40.325,28
39,El Cabaco,-6.127,40.565,33
39,Barbadillo,-5.88,40.932,39
230,Brozas,-6.778,39.612,134
33,Guia de Isora,-16.778,28.211,33
79,Portaje,-6.56,39.918,55
66,Puerto de la Cruz,-16.554,28.414,24
24,Azabal,-6.298,40.298,20
33,Villacid de Campos,-5.124,42.082,33
46,Pozoantiguo,-5.435,41.597,46
112,Roiz,-4.349,43.329,46
46,Realejo Alto,-16.586,28.379,28
55,Cotanes del Monte,-5.29,41.817,55
55,Bustillo de Chaves,-5.09,42.131,20
33,Villamuriel de Campos,-5.206,41.947,24
112,Acehuche,-6.632,39.803,79
46,Aguilar de Campos,-5.18,41.984,46
46,Ceinos de Campos,-5.149,42.032,33
46,El Pinero,-5.588,41.352,20
46,Cosio,-4.399,43.233,20
33,Escobar de Campos,-4.965,42.314,28
79,Berrocal de Huebra,-6,40.719,33
33,Villacarralon,-5.042,42.19,28
134,Poza de la Vega,-4.796,42.579,55
28,El Maderal,-5.623,41.282,28
28,Caviedes,-4.325,43.339,20
79,Nava de Francia,-6.116,40.536,24
46,Moratinos,-4.926,42.361,28
28,Cereceda de la Sierra,-6.09,40.566,20
46,Valverdon,-5.769,41.047,28
33,Guijo de Galisteo,-6.409,40.094,33
55,Peleagonzalo,-5.482,41.482,46
33,Comillas,-4.288,43.384,33
28,Tejina,-16.763,28.186,24
55,Cambroncino,-6.237,40.342,33
46,Santa Cruz de Paniagua,-6.339,40.192,33
55,San Miguel de la Ribera,-5.576,41.333,39
160,Vezdemarban,-5.366,41.654,55
24,Rincon del Obispo,-6.491,39.965,24
160,Venialbo,-5.536,41.39,39
28,Carmona,-4.358,43.255,28
397,Alburquerque,-7.003,39.221,134
28,Marazul,-16.791,28.146,20
24,San Juan Perales,-16.405,28.501,20
66,Parada de Arriba,-5.792,40.987,28
230,La Orotava,-16.523,28.391,160
39,Marchagaz,-6.274,40.268,20
24,Bajamar,-16.344,28.554,20
24,Hoya de Farrais,-16.564,28.349,24
28,Bajos y Tagoro,-16.477,28.429,24
55,Punta del Hidalgo,-16.324,28.569,33
192,Tejina,-16.361,28.533,46
33,Florida de Liebana,-5.761,41.025,20
55,La Matanza de Acentejo,-16.449,28.451,55
28,Tejeda y Segoyuela,-6.022,40.631,28
24,El Sauce,-16.526,28.378,20
276,Villada,-4.967,42.249,112
24,Santa Olalla de la Vega,-4.783,42.54,20
66,Vegas de Coria,-6.184,40.384,33
24,Vera de Erques,-16.743,28.175,20
46,Palomero,-6.276,40.247,33
33,La Plaza,-4.303,43.317,24
28,Tacoronte,-16.412,28.478,28
112,La R.A.D.,-5.816,40.928,46
28,Santervas de la Vega,-4.798,42.507,28
46,Puebla de Argeme,-6.453,39.983,46
331,La Alberca,-6.108,40.489,112
55,Villacidaler,-4.976,42.222,20
33,Chasna,-16.528,28.366,20
46,Polentinos,-4.527,42.939,24
112,Aceituna,-6.33,40.149,46
24,Callao Salvaje,-16.775,28.131,20
33,Villarrobejo,-4.802,42.485,20
230,Calzada de Valdunciel,-5.7,41.086,55
46,Castrejon de la Pena,-4.599,42.808,46
28,El Pirul,-16.427,28.443,20
33,Tabanera de Valdavia,-4.693,42.647,20
192,Lombrana,-4.413,43.101,79
33,Tegueste,-16.337,28.523,20
55,Palazuelo de Vedija,-5.144,41.929,46
112,San Salvador de Cantamuda,-4.496,42.965,66
94,Valdefinjas,-5.452,41.452,28
160,Villalon de Campos,-5.034,42.099,160
66,La Hayuela,-4.266,43.336,28
33,San Martin del Castanar,-6.063,40.522,24
39,Castromembibre,-5.304,41.673,20
66,Santotis,-4.369,43.162,46
66,Aguamansa,-16.498,28.366,24
33,Tagarabuena,-5.388,41.54,20
66,Villamor de los Escuderos,-5.575,41.252,46
28,Villanueva de los Caballeros,-5.246,41.759,28
55,Cuenca de Campos,-5.054,42.059,28
28,Taucho,-16.728,28.152,20
134,Topas,-5.634,41.157,55
331,Toro,-5.394,41.524,192
33,Los Rodeos,-16.362,28.486,20
79,Ledigos,-4.863,42.355,66
33,Poblacion de Arroyo,-4.873,42.337,20
192,Montehermoso,-6.348,40.088,134
24,San Miguel del Robledo,-6.044,40.537,20
24,Morcillo,-6.396,40.018,20
66,Morales de Campos,-5.173,41.86,33
46,Boadilla de Rioseco,-4.969,42.18,46
79,Congosto de Valdavia,-4.632,42.715,55
79,Vecinos,-5.877,40.779,46
33,Castellanos de Villiquera,-5.695,41.052,28
28,Villavellid,-5.276,41.692,20
39,Barbalos,-5.942,40.677,20
39,Los Almendros,-5.717,41.014,20
39,Narros de Matalayegua,-5.926,40.699,39
55,Las Montanas,-16.275,28.554,24
28,Villardefrades,-5.253,41.724,28
192,Torrejoncillo,-6.466,39.897,79
55,Villavendimio,-5.342,41.578,33
112,Navas del Madrono,-6.653,39.621,79
55,Cobreces,-4.209,43.385,39
33,Doninos de Salamanca,-5.743,40.958,33
33,Villarrodrigo de la Vega,-4.768,42.473,20
39,Cerezo,-6.227,40.236,24
46,Quintanadiez de la Vega,-4.752,42.497,20
46,Arbejal,-4.511,42.886,20
39,Mogarraz,-6.052,40.492,24
571,Saldana,-4.734,42.522,230
79,Moral de la Reina,-5.071,41.986,46
46,La Esperanza,-16.366,28.452,33
33,Vega de las Mercedes,-16.291,28.515,24
46,Valrio,-6.37,40.011,28
46,Sopena,-4.289,43.231,28
28,Herguijuela de la Sierra,-6.073,40.445,24
79,Escurial de la Sierra,-5.956,40.617,33
134,Renedo,-4.303,43.204,20
55,Villagarcia de Campos,-5.192,41.78,24
33,Sequeros,-6.024,40.513,20
33,Benafarces,-5.292,41.621,20
24,Urbanizacion Mirador de Villiquera,-5.675,41.033,20
33,Penasolana,-5.732,40.944,20
33,Villamayor,-5.694,40.999,28
79,Cabezon de la Sal,-4.231,43.308,79
55,Tiedra,-5.265,41.652,46
112,Villalcon,-4.855,42.293,24
160,Cervera de Pisuerga,-4.498,42.865,134
28,Villalonso,-5.297,41.598,28
39,El Pego,-5.467,41.334,33
94,El Batan,-6.377,39.972,39
39,Taganana,-16.218,28.561,39
46,Cepeda,-6.04,40.466,24
33,La Puebla de Valdavia,-4.609,42.674,28
24,Novales,-4.176,43.378,20
33,Valdencin,-6.408,39.915,33
28,Las Casas de la Cumbre,-16.234,28.537,20
112,Bustillo de la Vega,-4.74,42.456,33
55,Uruena,-5.202,41.728,39
24,Almaciga,-16.196,28.571,20
476,Garrovillas de Alconetar,-6.548,39.711,134
79,Barrio de Arriba,-4.245,43.258,24
46,Portezuelo,-6.474,39.812,46
39,San Roman de la Cuba,-4.857,42.263,33
39,Dehesa de Montejo,-4.509,42.82,33
46,Caborredondo,-4.155,43.399,20
28,Los Valles,-16.277,28.488,20
46,Caitana,-16.406,28.369,20
24,Geneto,-16.31,28.457,20
39,Villafrades de Campos,-4.97,42.078,33
33,Palencia de Negrilla,-5.6,41.095,20
94,Buenavista de Valdavia,-4.613,42.637,94
24,La Cuesta,-16.289,28.466,20
39,Monterrubio de Armuna,-5.642,41.027,20
33,Gaton de Campos,-4.98,42.05,20
55,Villabuena del Puente,-5.408,41.38,28
24,El Helmantico,-5.661,40.994,20
24,Playa de las Americas,-16.728,28.059,20
112,Morales de Toro,-5.306,41.536,55
33,Tamariz de Campos,-5.023,41.977,28
94,Sotoserrano,-6.032,40.435,55
46,Arafo,-16.419,28.338,20
79,Miranda del Castanar,-5.996,40.484,33
24,Taco,-16.296,28.449,20
39,Villabaruz de Campos,-4.995,42.011,24
33,Correpoco,-4.273,43.168,20
55,Tardaguila,-5.573,41.114,33
94,Villabragima,-5.114,41.821,55
33,Barranco Hondo,-16.347,28.398,20
397,Fuentesauco,-5.495,41.231,160
28,Lloredo,-4.159,43.353,20
1183,Salamanca,-5.667,40.966,685
112,Ahigal,-6.187,40.19,94
94,Cisneros,-4.857,42.22,66
134,Linares de Riofrio,-5.92,40.583,134
112,Las Veguillas,-5.831,40.715,94
46,Aldeatejada,-5.693,40.922,28
33,Las Caletillas,-16.361,28.377,20
1183,Santa Cruz de Tenerife,-16.267,28.462,476
94,Los Cristianos,-16.711,28.053,94
66,La Boveda de Toro,-5.41,41.344,66
28,Herrera de Ibio,-4.179,43.301,28
39,Maria Jimenez,-16.226,28.495,33
55,Valdeobispo,-6.247,40.083,33
46,Guarrate,-5.441,41.289,39
55,Anaza,-16.298,28.424,20
134,Candelaria,-16.37,28.355,66
55,Guimar,-16.41,28.317,33
28,Alagon del Rio,-6.316,39.974,28
24,Ubiarco,-4.099,43.417,20
24,Guijo de Granadilla,-6.163,40.193,20
28,Cabo Blanco,-16.672,28.071,28
55,Aldeanueva de Figueroa,-5.524,41.148,55
39,La Sierpe,-5.856,40.645,39
160,Aliseda,-6.692,39.423,79
112,Los Tojos,-4.253,43.154,46
66,Casasola de Arion,-5.24,41.578,46
28,Herguijuela del Campo,-5.863,40.631,20
46,San Miguel de Valero,-5.921,40.543,33
66,La Velles,-5.567,41.073,28
230,Medina de Rioseco,-5.041,41.883,192
24,San Andres,-16.192,28.505,24
33,Villanueva de San Mancio,-5.01,41.928,33
28,La Viuda,-16.367,28.341,20
24,Santillana del Mar,-4.106,43.387,24
33,Cruz de Tea,-16.591,28.133,20
28,Bustillo del Paramo,-4.739,42.355,28
24,El Fronton,-16.611,28.112,20
112,Albala,-7.119,38.804,28
46,Villalbarba,-5.212,41.604,20
28,Carbajosa de la Sagrada,-5.649,40.933,20
79,Rio Caya,-7.036,38.914,20
39,Palm-Mar,-16.701,28.023,20
55,Igueste de San Andres,-16.154,28.526,28
33,Tagle,-4.074,43.423,20
39,San Miguel,-16.617,28.098,28
66,Cervatos de la Cueza,-4.77,42.29,66
160,Villamoronta,-4.699,42.403,66
55,Membribe de la Sierra,-5.805,40.69,24
112,San Roman de Hornija,-5.286,41.479,46
55,Villaescusa,-5.463,41.206,24
55,El Socorro,-16.363,28.328,24
28,Castil de Vela,-4.958,41.984,28
46,Bascones de Ojeda,-4.526,42.671,46
46,Cabrerizos,-5.607,40.979,20
39,Cho II,-16.66,28.049,20
66,Mazuecos de Valdeginate,-4.839,42.168,24
46,El Escobonal,-16.428,28.261,20
33,Las Torres,-5.653,40.908,20
39,San Cebrian de Muda,-4.386,42.894,33
66,San Cebrian de Mazote,-5.148,41.68,33
28,La Florida,-16.471,28.22,24
39,Molinillo,-5.944,40.469,20
46,Pinedas,-5.959,40.445,33
79,Mota del Marques,-5.177,41.632,66
94,Granadilla de Abona,-16.576,28.121,39
33,Muda,-4.394,42.876,20
24,Moriscos,-5.582,41.008,20
160,Villarramiel,-4.912,42.043,66
94,Villaeles de Valdavia,-4.582,42.566,28
66,Villafranca de Duero,-5.3,41.432,33
112,Puertito de Guimar,-16.375,28.295,24
33,Valverde de Campos,-5.037,41.835,33
46,Fasnia,-16.439,28.236,46
28,Los Llanos,-16.582,28.102,20
134,Galisteo,-6.265,39.976,39
28,Cortijo de los Cuartos de Valhondo,-7.079,38.815,28
39,San Esteban de la Sierra,-5.905,40.506,39
94,Riolobos,-6.303,39.92,94
94,Carcaboso,-6.214,40.05,79
66,Payo de Ojeda,-4.478,42.719,33
112,Canaveral,-6.391,39.791,94
39,Puente San Miguel,-4.086,43.361,20
94,Frechilla,-4.841,42.137,46
66,Aldehuela de Jerte,-6.238,40.012,24
46,Arapiles,-5.643,40.893,28
160,Suances,-4.044,43.428,66
24,La Serna,-4.663,42.416,24
230,Villar del Rey,-6.847,39.132,94
33,Monleon,-5.846,40.585,28
24,Morille,-5.697,40.807,24
46,Valdelageve,-5.989,40.37,24
39,Villa de Arico,-16.501,28.166,20
46,Las Chafiras,-16.617,28.059,46
112,El Fraile,-16.668,28.012,39
24,Pajares de la Laguna,-5.508,41.088,20
33,Pedrosa del Rey,-5.203,41.556,24
46,Gomecello,-5.536,41.043,33
24,Villaverde de Guarena,-5.522,41.064,20
28,El Rio,-16.523,28.14,28
276,Cheles,-7.281,38.511,134
55,Hinojedo,-4.049,43.398,24
39,Cantillana de Molano,-6.941,38.984,20
55,Mozarbez,-5.65,40.857,46
55,Villaturde,-4.67,42.378,24
66,Frades de la Sierra,-5.782,40.657,55
66,Salinas de Pisuerga,-4.376,42.851,66
94,Arroyo de la Luz,-6.582,39.485,94
134,San Francisco de Olivenza,-7.104,38.747,46
39,El Tablado,-16.402,28.24,24
46,La Orbada,-5.482,41.103,28
39,Riberos de la Cueza,-4.725,42.279,24
28,Los Roques,-16.413,28.223,20
66,Capillas,-4.89,42.014,24
46,Revilla de Collazos,-4.503,42.629,33
28,Adalia,-5.121,41.649,28
39,Coo,-4.105,43.274,20
33,Micieces de Ojeda,-4.461,42.691,24
112,Castromonte,-5.038,41.773,46
66,Villasila de Valdavia,-4.557,42.532,24
55,Vadillo de la Guarena,-5.353,41.282,24
39,Aldealengua,-5.55,40.981,28
66,Branosera,-4.307,42.936,28
24,Villalumbroso,-4.771,42.19,24
24,Cudon,-4.015,43.416,20
79,Zarza de Granadilla,-6.048,40.235,79
33,Casas de San Juan,-16.485,28.145,20
39,Cristobal,-5.889,40.469,33
39,Cartes,-4.068,43.326,20
571,San Isidro,-16.557,28.078,276
24,Autillo de Campos,-4.832,42.087,24
33,Parada de Rubiales,-5.436,41.148,33
24,Requejada,-4.027,43.389,20
55,Endrinal,-5.803,40.591,39
94,Valdebotoa,-6.923,38.967,33
33,Monterrubio de la Sierra,-5.691,40.756,33
55,Las Eras,-16.423,28.195,24
55,Casas de Millan,-6.327,39.816,46
160,Torrelavega,-4.049,43.347,160
79,Meneses de Campos,-4.919,41.942,66
28,Riocorvo,-4.07,43.311,20
24,Miengo,-3.998,43.431,20
28,Abarca de Campos,-4.84,42.063,20
28,Cortijo de Merino,-7.109,38.699,20
66,San Benito de la Contienda,-7.157,38.632,46
28,Olmos de Ojeda,-4.424,42.722,28
46,Los Abrigos,-16.591,28.03,28
192,Castronuno,-5.265,41.388,66
79,Lagunilla,-5.969,40.325,55
24,Collazos de Boedo,-4.482,42.62,20
28,Cabezabellosa de la Calzada,-5.488,41.044,20
28,Calvarrasa de Abajo,-5.552,40.946,28
39,Barros,-4.077,43.28,20
33,Pedrosillo de los Aires,-5.704,40.715,33
33,Posadillo,-4.019,43.373,20
79,Poris de Abona,-16.432,28.163,55
28,Horcajo de Montemayor,-5.893,40.422,28
55,Pitiegua,-5.466,41.062,33
66,Cuatro Calzadas,-5.634,40.808,39
66,Espinilla,-4.225,43.021,20
134,Urbanizacion El Encinar,-5.583,40.883,46
331,Olivenza,-7.098,38.684,134
55,Aldearrubia,-5.497,41.007,33
79,Bahillo,-4.578,42.442,46
2940,Badajoz,-6.959,38.873,1183
55,Vega de Valdetronco,-5.113,41.593,28
28,Mogro,-3.969,43.431,20
28,La Jaca,-16.463,28.121,20
94,Barruelo de Santullan,-4.287,42.905,94
28,San Morales,-5.501,40.993,20
79,Villalar de los Comuneros,-5.137,41.549,79
28,Cardenosa de Volpejera,-4.702,42.233,24
94,Espino de la Orbada,-5.424,41.107,46
94,Los Santos,-5.797,40.544,66
66,Barranco del Rio,-16.481,28.1,39
160,Los Corrales de Buelna,-4.066,43.262,66
55,Las Vaguadas,-6.971,38.844,20
79,Villayuso,-4.088,43.221,20
79,El Cabezo,-16.537,28.046,28
66,Oliva de Plasencia,-6.085,40.112,55
33,Casafranca,-5.759,40.592,28
55,Castromocho,-4.822,42.031,39
24,La Granja,-5.995,40.238,20
55,San Rafael de Olivenza,-7.053,38.72,28
66,Hinojal,-6.356,39.709,46
55,Aldeacipreste,-5.897,40.381,28
46,Montealegre de Campos,-4.899,41.902,33
33,Sopenilla,-4.043,43.282,20
24,Torrecilla de la Torre,-5.049,41.667,20
33,Abadia,-5.976,40.259,28
28,Dehesa de Romanos,-4.434,42.639,28
28,Villasexmir,-5.064,41.639,24
39,Sagrajas,-6.901,38.922,24
39,Olea de Boedo,-4.45,42.609,20
24,La Pilara,-6.931,38.88,20
39,Valdefuentes de Sangusin,-5.832,40.466,39
24,Urbanizacion los Montitos,-6.943,38.861,20
94,Canizal,-5.367,41.166,66
66,Castrillo de la Guarena,-5.325,41.23,33
46,San Pelayo,-5.033,41.68,24
39,Villacantid,-4.205,43.003,33
28,Machacon,-5.524,40.926,20
24,Oruna,-3.958,43.408,20
79,Cortijo del Guarda de la Peralta,-6.808,39.045,79
79,Liencres,-3.923,43.461,39
39,El Cerro,-5.915,40.327,20
112,Mirabel,-6.23,39.864,46
66,Boo,-3.939,43.427,24
28,Villerias de Campos,-4.855,41.944,28
28,Valdemierque,-5.581,40.822,24
55,Santibanez de Ecla,-4.373,42.708,24
331,Belena,-5.627,40.75,46
24,Valdehijaderos,-5.847,40.419,20
24,Montemayor del Rio,-5.893,40.348,24
28,Barcenilla,-3.955,43.388,20
28,Buenavista,-5.611,40.767,20
39,Sotobanado y Priorato,-4.441,42.59,39
79,Dehesilla de Calamon,-6.95,38.821,20
55,Malpartida de Caceres,-6.508,39.445,39
28,Villameriel,-4.475,42.528,28
55,El Pedroso de la Armuna,-5.398,41.081,24
39,Valdelamatanza,-5.923,40.29,24
55,La Mudarra,-4.944,41.78,46
66,El Pinar de Alba,-5.546,40.853,24
46,Jarilla,-6.002,40.172,28
55,Barcena de Campos,-4.498,42.484,20
112,Torrelobaton,-5.024,41.649,79
46,Arce,-3.932,43.406,20
46,Castillejo,-5.654,40.683,28
94,Casar de Caceres,-6.417,39.559,79
33,La Vid de Ojeda,-4.384,42.659,24
39,Velascalvaro,-4.971,41.231,24
66,Penaflor de Hornija,-4.979,41.712,39
28,Aldeanueva del Camino,-5.93,40.259,28
33,Terradillos,-5.541,40.838,20
397,Miajadas,-5.909,39.151,160
160,Villanueva del Fresno,-7.165,38.376,134
79,San Cebrian de Campos,-4.53,42.201,66
66,Encinas de Abajo,-5.469,40.934,33
66,Lloreda,-3.819,43.294,20
28,Gilbuena,-5.605,40.415,20
24,Peromingo,-5.771,40.464,24
1702,Plasencia,-6.085,40.036,397
94,Aldea del Cano,-6.319,39.289,66
55,Gallegos de Solmiron,-5.447,40.537,28
24,Maono,-3.917,43.42,20
66,Valdestillas,-4.771,41.48,33
39,Encinas de Arriba,-5.556,40.772,39
94,Banos de Montemayor,-5.857,40.318,33
33,Torrecilla de la Abadesa,-5.087,41.484,28
24,Pizarral,-5.65,40.615,20
28,Baquerin de Campos,-4.781,42.016,24
66,Santiago del Campo,-6.363,39.629,46
160,Encinasola,-6.871,38.137,112
55,Parbayon,-3.89,43.375,28
160,Villanueva de los Castillejos,-7.271,37.499,94
33,San Jorge de Alor,-7.055,38.645,33
94,Mazariegos,-4.714,42.027,46
46,Valdelacasa,-5.763,40.506,33
24,San Mames de Campos,-4.565,42.355,24
33,Cueto,-3.802,43.481,20
28,Salto del Negro,-15.426,28.061,24
160,Serradilla,-6.14,39.828,112
331,Paredes de Nava,-4.691,42.153,134
46,Playa del Hombre,-15.376,27.996,24
39,Villaescusa de Roa,-4.017,41.728,20
33,Pelayos,-5.574,40.65,24
39,Alcazaba,-6.738,38.954,20
24,Pueblonuevo del Guadiana,-6.756,38.924,24
55,Renedo,-3.95,43.353,55
28,San Vicente de Toranzo,-3.937,43.21,20
134,Navaluenga,-4.704,40.411,79
33,Matilla de los Canos,-4.966,41.548,20
112,Arenas de Iguna,-4.049,43.187,55
39,Segura de Toro,-5.947,40.224,20
79,Casas del Monte,-5.961,40.203,46
28,Casas del Castanar,-5.904,40.108,28
66,Sorihuela,-5.678,40.444,24
28,Robladillo,-4.909,41.608,20
33,Pedrena,-3.768,43.44,24
39,Rebolledo de la Torre,-4.226,42.687,39
66,Pomar de Valdivia,-4.167,42.774,55
79,Fresno Alhandiga,-5.616,40.713,33
33,Villagonzalo de Tormes,-5.496,40.892,28
33,Cabezabellosa,-6.002,40.137,33
55,Larrodrigo,-5.448,40.737,24
66,Santibanez de Bejar,-5.61,40.487,39
79,Valdecarros,-5.42,40.77,55
55,Santa Cecilia del Alcor,-4.658,41.934,46
55,Villar de Gallimazo,-5.287,40.954,24
33,La Calzada de Bejar,-5.815,40.41,28
79,Vargas,-3.961,43.321,24
134,Novelda del Guadiana,-6.833,38.938,39
28,Bercero,-5.055,41.564,28
46,Nueva Villa de las Torres,-5.056,41.267,28
33,Villamarciel,-4.884,41.531,20
94,Palaciosrubios,-5.193,41.052,55
33,Fresno del Rio,-4.143,43.016,20
39,Gajates,-5.364,40.782,20
112,Sierra de Fuentes,-6.272,39.439,55
160,Fromista,-4.405,42.267,66
79,Higuera de Vargas,-6.973,38.445,79
39,Guadajira,-6.68,38.852,33
66,Monzon de Campos,-4.493,42.116,66
55,Pradanos de Ojeda,-4.347,42.681,20
46,Rubalcaba,-3.742,43.325,20
24,Gargantilla,-5.919,40.248,20
79,Villalba de los Alcores,-4.858,41.864,55
192,Alaejos,-5.216,41.307,79
24,Arabayona de Mogica,-5.385,41.048,24
28,Hijas,-3.981,43.278,20
94,Talavan,-6.281,39.715,66
66,Trigueros del Valle,-4.649,41.829,55
39,Guemes,-3.642,43.454,20
55,La Seca,-4.905,41.413,33
33,La Serna,-4.043,43.172,20
112,Pollos,-5.124,41.444,79
24,Tamara de Campos,-4.392,42.203,24
46,Vallesa de la Guarena,-5.325,41.136,28
112,Lobon,-6.624,38.848,33
79,Siete Iglesias de Trabancos,-5.183,41.352,33
79,Bobadilla del Campo,-5.022,41.205,55
46,Puerto Castilla,-5.626,40.289,46
2450,Valladolid,-4.731,41.65,1183
46,Bustantegua,-3.752,43.214,33
24,Puente Viesgo,-3.965,43.298,20
39,La Carcoba,-3.713,43.275,20
79,Santovenia de Pisuerga,-4.688,41.694,33
79,Ciudad Jardin Virgen del Milagro,-4.515,41.955,33
28,San Roman,-3.861,43.468,20
112,Castrillo de Villavega,-4.48,42.454,55
331,Alaraz,-5.287,40.749,66
33,Babilafuente,-5.425,40.977,33
28,Urbanizacion Tres Arroyos,-6.887,38.843,28
66,Boveda del Rio Almar,-5.21,40.857,33
24,Berceruelo,-5.031,41.58,20
28,Villafranco del Guadiana,-6.858,38.883,24
66,Duenas,-4.546,41.878,39
39,Padilla de Arriba,-4.19,42.438,24
28,Hornedo,-3.625,43.363,24
24,Diego Alvaro,-5.323,40.665,24
134,Laguna de Duero,-4.722,41.584,55
39,Mancera de Abajo,-5.198,40.84,20
28,Viana de Cega,-4.748,41.525,28
24,Cortegana,-6.62,38.75,20
192,Venta de Banos,-4.492,41.919,79
46,Sieteiglesias de Tormes,-5.576,40.741,20
46,Puerto de Bejar,-5.838,40.35,24
28,La Maya,-5.612,40.687,20
986,Reinosa,-4.137,43,276
39,Rubi de Bracamonte,-4.923,41.214,39
192,Astudillo,-4.293,42.193,160
33,Pascualcobo,-5.276,40.656,20
39,Valdeolivos,-6.057,40.021,20
24,Matamorosa,-4.143,42.987,20
112,La Roca de la Sierra,-6.69,39.108,55
397,Aguilar de Campoo,-4.26,42.795,160
39,Cantagallo,-5.818,40.372,20
39,Villasarracino,-4.496,42.413,24
39,Villodre,-4.245,42.211,33
33,Villoruela,-5.392,41.009,20
112,Barcena de Pie de Concha,-4.054,43.127,46
46,Moraleja de las Panaderas,-4.825,41.276,33
94,Villalaco,-4.258,42.155,33
33,Torremormojon,-4.777,41.961,28
134,Alba de Tormes,-5.512,40.826,94
24,Riba,-3.56,43.283,20
39,Munosancho,-5.035,40.92,24
79,Villasandino,-4.108,42.372,46
24,Cubillas de Cerrato,-4.466,41.798,24
66,Pesquera,-4.078,43.082,24
160,Villoldo,-4.594,42.246,46
66,Tortoles,-5.26,40.561,24
46,Ogarrio,-3.539,43.287,28
24,Olmos de Esgueva,-4.521,41.688,24
39,Aes,-3.955,43.283,20
24,Cotillo,-4.004,43.203,24
24,San Miguel de Corneja,-5.286,40.487,20
33,Benquerencia,-6.084,39.31,28
28,Las Herrerias,-7.293,37.61,28
28,Campillo de Salvatierra,-5.676,40.57,20
39,La Parra,-6.621,38.522,39
28,Penacastillo,-3.856,43.443,24
39,Cantiveros,-4.954,40.951,20
46,Muriel,-4.842,41.122,33
28,Calahorra de Boedo,-4.384,42.574,28
66,Hurtumpascual,-5.113,40.692,20
66,Vallejera,-4.151,42.182,39
24,Caserio de Tovilla,-4.531,41.58,24
24,Canales,-4.901,41.003,20
33,El Vivero,-6.3,38.935,28
33,Limpias,-3.424,43.361,20
24,Casas de Miravete,-5.743,39.727,24
66,Villalcazar de Sirga,-4.542,42.317,33
46,Villamedianilla,-4.145,42.161,20
55,San Pablo de la Moraleja,-4.776,41.16,20
160,Ampuero,-3.413,43.345,55
134,Ramales de la Victoria,-3.464,43.257,66
134,Puebla de Obando,-6.625,39.176,134
55,Balboa,-6.816,38.905,28
66,Agaete,-15.698,28.099,46
33,Pomaluengo,-3.927,43.31,20
39,Castrodeza,-4.959,41.649,28
160,La Aldea de San Nicolas,-15.781,27.98,79
79,Cabezas Rubias,-7.086,37.727,66
46,Sanchotello,-5.753,40.438,24
55,Vecindad de Enfrente,-15.672,28.079,20
94,Valverde de Leganes,-6.979,38.67,66
79,Montejo,-5.622,40.632,39
39,Camporredondo,-4.504,41.474,28
94,Lantueno,-4.081,43.051,39
39,Madrigal de la Vera,-5.367,40.148,39
66,Burguillos del Cerro,-6.59,38.379,66
331,Guijuelo,-5.671,40.556,134
39,Isar,-3.93,42.362,20
39,Llano de Olmedo,-4.614,41.268,20
192,Hervas,-5.861,40.272,79
46,Hornillos del Camino,-3.925,42.338,20
33,Silio,-4.019,43.148,24
66,Tharsis,-7.121,37.602,46
33,Cordovilla,-5.405,40.951,24
46,Valdehuncar,-5.523,39.837,33
55,Artenara,-15.646,28.021,28
112,Munana,-5.015,40.589,66
24,Munotello,-5.041,40.542,20
79,Muriedas,-3.852,43.42,20
94,Arucas,-15.522,28.118,28
39,Higuera la Real,-6.688,38.141,28
112,Ampudia,-4.779,41.914,112
230,Villoria,-5.373,40.994,94
39,Mesas de Ibor,-5.545,39.755,39
33,San Cristobal de la Vega,-4.642,41.112,20
46,Pedraza de Campos,-4.734,41.984,33
276,Fregenal de la Sierra,-6.652,38.167,134
46,Castroverde de Cerrato,-4.22,41.756,46
46,Velilla,-5.004,41.559,28
46,La Torre,-4.964,40.589,33
112,Santa Maria del Campo,-3.973,42.132,112
46,Lomas,-4.549,42.274,28
685,Santander,-3.822,43.463,476
46,Torrecilla de la Orden,-5.223,41.219,33
79,El Torno,-5.944,40.136,55
39,Veredas,-6.829,37.884,20
55,Fuentes de Bejar,-5.692,40.508,28
134,Alar del Rey,-4.309,42.659,46
94,Ledrada,-5.718,40.468,55
112,Cantalpino,-5.33,41.053,39
46,La Culata,-15.598,27.977,20
39,Pino Santo Alto,-15.535,28.035,20
39,Ciadoncha,-3.932,42.159,24
33,San Bernardo,-4.263,41.63,20
46,Villaprovedo,-4.395,42.516,33
134,Coca,-4.521,41.214,55
79,La Nava,-6.743,37.962,24
33,Mahamud,-3.94,42.12,20
66,Tarazona de Guarena,-5.25,41.172,46
66,Lezana,-3.342,43.083,39
46,Arroyal,-3.748,42.412,24
39,Marlin,-4.828,40.711,20
55,Villanueva de Gomez,-4.715,40.883,20
24,Gutierre-Munoz,-4.637,40.983,24
112,Malpartida de Plasencia,-6.044,39.979,55
46,Iruz,-3.934,43.265,33
160,Alconchel,-7.07,38.516,66
160,Solosancho,-4.903,40.552,94
55,Traslavina,-3.214,43.241,28
66,Bodonal de la Sierra,-6.557,38.146,24
33,Torrepadre,-3.937,42.044,24
94,Medina de las Torres,-6.411,38.344,39
33,Quintanaortuno,-3.683,42.45,20
55,Villacienzo,-3.756,42.327,20
66,La Zarza,-6.855,37.714,46
571,Bejar,-5.764,40.386,230
28,Cazadores,-15.513,27.954,20
66,Wamba,-4.917,41.675,33
79,Pesquera de Duero,-4.158,41.64,39
94,Adanero,-4.603,40.944,39
79,Martiherrero,-4.779,40.674,24
33,Fataga,-15.563,27.887,20
33,Valdesangil,-5.748,40.405,20
134,Mataporquera,-4.163,42.875,66
79,Becerril de Campos,-4.639,42.109,39
55,Cuevas del Valle,-5.01,40.294,20
55,Mengabril,-5.932,38.936,24
55,Villaherreros,-4.463,42.388,55
28,Temisas,-15.508,27.909,20
986,Burgos,-3.673,42.354,685
39,Narrillos de San Leonardo,-4.724,40.695,33
331,Herrera de Pisuerga,-4.332,42.595,160
33,El Salobre,-15.619,27.779,24
66,Ramacastanas,-5.047,40.185,24
28,San Esteban del Valle,-4.98,40.275,24
33,Torreon de los Mogollones,-6.448,39.376,33
55,Garvin,-5.345,39.72,20
33,San Pedro Galdames,-3.097,43.254,28
24,Los Marines,-6.621,37.903,24
46,Perales,-4.58,42.193,20
94,Riofrio,-4.774,40.548,28
33,Castanuelos,-6.58,37.937,20
24,Linares de la Sierra,-6.62,37.88,20
33,Rublacedo de Abajo,-3.501,42.553,33
94,Hinojosa del Valle,-6.184,38.483,66
46,Serranillos,-4.91,40.337,20
79,Villamayor de los Montes,-3.765,42.106,46
66,Pinarejos,-4.293,41.26,28
39,Cardenajimeno,-3.62,42.33,20
46,Garcihernandez,-5.434,40.861,46
24,Manquillos,-4.567,42.206,20
986,Caceres,-6.371,39.475,476
24,Aldeavieja de Tormes,-5.616,40.583,24
134,Olombrada,-4.159,41.415,66
28,San Pedro Martir II,-15.445,27.839,20
55,Navales,-5.479,40.789,33
33,Errekatxo/El Regato,-3.016,43.264,20
24,Castrillo del Val,-3.585,42.314,20
79,Pedro Bernardo,-4.909,40.243,28
66,Casa del Toril,-5.014,40.051,28
94,Los Pinos,-6.792,37.518,39
33,San Cristobal de Boedo,-4.352,42.542,28
134,Monasterio de Rodilla,-3.467,42.457,66
112,Sangarcia,-4.414,40.947,46
33,Gavilanes,-4.853,40.276,20
55,Corteconcepcion,-6.503,37.895,39
24,Fresnedoso,-5.709,40.436,20
79,Atapuerca,-3.507,42.377,33
46,Castrejon de Trabancos,-5.169,41.253,39
79,Tornadizos de Avila,-4.612,40.625,46
55,Mediana de Voltoya,-4.562,40.7,46
46,Irabien,-3.027,43.153,24
39,Rebollar,-5.898,40.154,20
33,Escobedo,-3.905,43.267,20
55,La Horra,-3.874,41.742,33
28,Palomares,-5.737,40.389,20
28,Quintanaelez,-3.297,42.669,20
28,Liano,-3.835,43.382,20
79,Aguilar de Bureba,-3.328,42.59,33
39,Nava de Bejar,-5.677,40.475,24
55,Sotillo de la Ribera,-3.825,41.777,55
46,Fuentepelayo,-4.173,41.222,46
39,Abia de las Torres,-4.421,42.421,28
79,Cabanes de Esgueva,-3.786,41.831,39
55,Marazoleja,-4.338,40.962,24
55,Berlangas de Roa,-3.873,41.689,24
28,Guijo de Avila,-5.639,40.531,24
24,Aldeaseca de Alba,-5.447,40.819,24
33,La Cabeza de Bejar,-5.662,40.496,20
39,Arlanzon,-3.458,42.323,39
55,Ermita de los Clarines,-6.772,37.404,20
230,Tordesillas,-4.999,41.503,134
230,Monesterio,-6.271,38.088,134
33,Berreagamendi,-2.851,43.326,20
55,Aldea Real,-4.164,41.186,24
66,Palos de la Frontera,-6.896,37.228,39
46,Cuevas de San Clemente,-3.567,42.13,28
46,El Herradon,-4.559,40.565,20
46,Bahabon de Esgueva,-3.729,41.862,33
24,Elexalde,-2.886,43.222,20
112,Moguer,-6.835,37.275,66
39,Aguilafuente,-4.109,41.227,39
55,Ugao-Miraballes,-2.902,43.179,24
66,Valle de la Serena,-5.797,38.702,66
46,Candelario,-5.742,40.367,20
46,San Miguel de Aguayo,-4.023,43.056,33
24,Velliza,-4.945,41.579,20
55,El Astillero,-3.816,43.398,20
24,Cascon de la Nava,-4.64,42.056,24
79,Talavera la Real,-6.769,38.877,79
39,Villamartin de Campos,-4.663,42.016,24
33,Penarandilla,-5.392,40.883,28
160,Galinduste,-5.538,40.662,94
39,Espinosa de Villagonzalo,-4.37,42.479,39
79,Saron,-3.853,43.324,55
46,Villaumbrales,-4.613,42.089,20
46,Taliga,-7.013,38.528,39
24,Anaya de Alba,-5.491,40.728,24
33,Sobarzo,-3.84,43.343,20
24,Villovieco,-4.481,42.295,20
66,Ontaneda,-3.923,43.199,66
33,Villan de Tordesillas,-4.921,41.593,24
28,Cabarceno,-3.824,43.359,20
55,Revenga de Campos,-4.481,42.284,33
28,Santa Maria de Cayon,-3.851,43.31,20
79,Alconada,-5.362,40.911,24
66,Foncastin,-5.018,41.435,33
28,Ventosa del Rio Almar,-5.347,40.927,20
39,Garguera,-5.927,40.061,33
46,Valdastillas,-5.878,40.133,20
94,Nava del Rey,-5.081,41.331,94
79,Alvarado,-6.79,38.809,55
112,Villanubla,-4.838,41.699,39
276,Monroy,-6.209,39.637,134
28,Poveda de las Cintas,-5.259,41.046,28
66,Villaflores,-5.234,41.084,28
55,Arroyal,-4.076,42.91,55
28,Las Rozas de Valdearroyo,-4.032,42.973,28
46,Pedrosillo de Alba,-5.394,40.822,28
66,Cespedosa de Tormes,-5.578,40.544,55
39,La Costana,-4.003,43.016,28
66,Guadiana del Caudillo,-6.69,38.928,28
28,Penagos,-3.805,43.341,20
24,Fresno el Viejo,-5.144,41.197,24
94,Cigunuela,-4.855,41.641,33
46,Autilla del Pino,-4.632,41.992,46
39,Rubayo,-3.752,43.421,20
55,Barrado,-5.88,40.085,20
28,Heras,-3.767,43.396,20
66,Somo,-3.733,43.452,39
66,Vega,-3.849,43.259,24
24,Neila de San Miguel,-5.65,40.424,20
192,Cabezuela del Valle,-5.805,40.192,66
33,Langre,-3.718,43.471,20
134,Cantalapiedra,-5.182,41.125,112
112,La Tala,-5.535,40.59,33
94,Osorno,-4.36,42.411,66
112,Grijota,-4.583,42.053,39
33,Valdelacalzada,-6.7,38.889,33
79,La Albuera,-6.823,38.717,79
134,Piornal,-5.847,40.116,55
46,Las Navedas,-3.853,43.23,24
28,Ribas de Campos,-4.516,42.153,28
46,Los Fresnos,-6.682,38.908,20
46,Tordillos,-5.351,40.851,39
33,Geria,-4.876,41.579,20
66,Valdesalor,-6.348,39.378,55
192,Carpio,-5.108,41.214,66
39,El Campo de Penaranda,-5.257,40.986,39
55,Zarzosa de Rio Pisuerga,-4.267,42.536,55
46,Medinilla,-5.617,40.44,28
28,Suesa,-3.712,43.442,20
46,Mucientes,-4.76,41.743,28
94,Becedas,-5.635,40.404,39
28,Esles,-3.805,43.282,20
24,Bucarrero,-3.762,43.354,20
46,Marcilla de Campos,-4.395,42.318,39
46,Jerte,-5.75,40.222,39
46,Solares,-3.734,43.384,46
112,Rueda,-4.959,41.413,66
46,Villaverde de Medina,-5.026,41.307,28
24,Cubas,-3.707,43.425,20
39,Husillos,-4.525,42.09,20
79,La Poblacion,-3.943,43.03,28
24,Abionzo,-3.812,43.245,20
79,Amusco,-4.469,42.173,33
33,San Miguel de Luena,-3.901,43.095,33
46,Fuensaldana,-4.763,41.706,39
46,Castrillo de Riopisuerga,-4.251,42.515,20
55,Galizano,-3.671,43.468,39
46,Corcos,-4.692,41.81,28
112,Valencia del Mombuey,-7.119,38.243,112
39,Pina de Campos,-4.436,42.214,28
55,Tejeda de Tietar,-5.868,40.019,33
46,Pedraza de Alba,-5.374,40.754,24
28,Hermosa,-3.731,43.362,20
28,Lierganes,-3.742,43.344,24
39,Nava de Sotrobal,-5.284,40.89,39
24,Villaverde de Pontones,-3.698,43.413,20
39,Quintanilla de Trigueros,-4.658,41.854,20
112,Quintanas de Valdelucio,-4.12,42.717,55
79,Entrepinos,-4.839,41.571,39
33,Simancas,-4.826,41.591,20
46,Coterrillo,-3.788,43.26,20
39,Zaratan,-4.781,41.657,28
39,Zorita de la Frontera,-5.196,41.014,28
160,Arija,-3.945,42.992,94
66,Villanueva de Duero,-4.866,41.517,39
331,Selaya,-3.805,43.214,94
94,Tornavacas,-5.688,40.255,46
28,Brahojos de Medina,-5.041,41.231,20
28,Hoznayo,-3.695,43.389,20
79,Fuentes de Valdepero,-4.499,42.075,33
28,Puebla de la Calzada,-6.626,38.892,20
79,La Nava de Santiago,-6.504,39.063,79
28,Pasaron de la Vera,-5.82,40.051,28
230,Montijo,-6.612,38.909,160
33,Puente del Congosto,-5.525,40.489,33
66,Santa Gadea de Alfoz,-3.953,42.954,28
192,Torrejon el Rubio,-6.011,39.77,66
192,Cigales,-4.698,41.758,66
66,Arroyo de la Encomienda,-4.788,41.611,33
55,Garganta la Olla,-5.776,40.11,39
46,Cortijo del Barbancillo,-6.537,39.007,39
33,El Campillo,-5.013,41.258,24
46,La Cavada,-3.707,43.352,20
79,Sotresgudo,-4.175,42.579,79
94,Cordobilla de Lacara,-6.435,39.148,55
46,Narrillos del Alamo,-5.465,40.567,20
