rs,name,lon,lat,r1
94,Mathrakion,19.524,39.764,79
28,Gousades,19.704,39.778,20
24,Valaneion,19.756,39.734,20
46,Nymfai,19.784,39.755,28
112,Kato Korakiana,19.827,39.69,46
24,Kato Agios Markos,19.84,39.704,20
33,Pelekas,19.823,39.593,20
24,Porta,19.917,39.75,20
28,Sinarades,19.848,39.566,20
33,Kanalion,19.892,39.609,20
79,Viros,19.883,39.584,20
66,Benitsai,19.912,39.546,20
33,Linia,19.943,39.441,20
134,Othonoi,19.407,39.842,94
192,Ereikoussa,19.578,39.88,79
134,Avliotai,19.663,39.777,55
94,Afion,19.66,39.722,20
55,Kavvadades,19.681,39.747,24
33,Sidarion,19.709,39.791,24
28,Dafni,19.699,39.73,20
39,Makrades,19.689,39.69,20
39,Pagoi,19.702,39.708,24
33,Mesaria,19.725,39.739,20
46,Karousades,19.745,39.781,46
28,Agrafoi,19.743,39.766,20
28,Agros,19.724,39.72,20
24,Astrakeri,19.759,39.793,20
24,Platonas,19.778,39.771,20
39,Doukades,19.74,39.688,20
28,Roda,19.788,39.79,20
66,Liapades,19.741,39.67,33
24,Klimatia,19.784,39.743,20
331,Acharavi,19.818,39.795,134
33,Kanakades,19.762,39.649,20
33,Episkepsis,19.817,39.759,20
28,Ano Korakiana,19.796,39.708,20
39,Giannades,19.762,39.633,28
24,Felekas,19.789,39.679,20
55,Poulades,19.808,39.663,24
33,Agios Ilias,19.874,39.797,28
28,Gazatika,19.817,39.676,20
66,Spartylas,19.842,39.722,20
33,Templonion,19.805,39.641,20
24,Vatos,19.79,39.608,20
55,Kokkinion,19.814,39.61,33
28,Vasilika,19.825,39.625,20
79,Kassiopi,19.921,39.789,66
39,Nisakion,19.896,39.725,33
55,Agnitsini,19.934,39.76,20
28,Potamos,19.876,39.625,20
28,Kato Garouna,19.866,39.54,20
33,Kynopiastai,19.884,39.569,20
33,Ano Pavliana,19.862,39.521,20
822,Kerkyra,19.919,39.622,571
24,Perama,19.913,39.578,20
112,Agios Matthaios,19.873,39.494,79
39,Strongyli,19.911,39.509,20
28,Moraitika,19.925,39.487,28
24,Chlomatiana,19.921,39.463,20
39,Chlomos,19.957,39.457,20
24,Agios Georgios,19.948,39.426,20
33,Argyrades,19.976,39.435,20
66,Petriti,20.001,39.455,24
28,Gymnotopos,20.903,39.289,28
33,Protopappas,20.689,39.781,24
33,Ammoudia,20.483,39.24,24
55,Perasma,21.467,40.754,24
39,Anthochorion,21.13,39.734,24
33,Peponia,21.41,40.293,20
28,Asprokklision,20.223,39.616,20
39,Perivolion,20.015,39.421,33
94,Pogoniani,20.424,40.004,55
79,Ktismata,20.397,39.898,39
66,Lakka,20.136,39.235,33
331,Igoumenitsa,20.264,39.505,230
24,Platanos,20.163,39.21,20
28,Kryonerion,20.5,39.887,20
79,Lista,20.468,39.743,39
24,Kato Koritiani,20.387,39.516,24
94,Kouklioi,20.556,39.819,33
28,Molos,20.047,39.439,20
33,Neochorion,20.436,39.51,20
230,Leptokarya,20.513,39.666,79
33,Iliorrachi,20.703,40.056,20
230,Pyrgos,20.784,40.16,46
39,Kato Zalongon,20.531,39.615,28
33,Pyrsogianni,20.81,40.212,33
66,Kourenta,20.611,39.65,39
192,Oinoi,21.085,40.516,46
134,Nestorion,21.059,40.416,79
112,Grammenon,20.71,39.654,39
33,Valanidorachi,20.519,39.222,20
112,Vrysochorion,20.887,39.999,66
28,Choika,20.586,39.344,20
46,Kypseli,21.029,40.289,33
66,Neos Oikismos,21.201,40.623,66
24,Kleisoura,20.597,39.285,20
55,Melanthion,21.129,40.396,39
112,Makrochorion,21.262,40.672,33
192,Lefkimmi,20.073,39.423,112
55,Sistrounion,20.699,39.41,20
66,Anthrakitis,20.866,39.766,39
39,Platania,20.745,39.496,33
28,Dodonoupoli,20.786,39.559,20
28,Simos Ioannidis,21.359,40.778,28
276,Niki,21.419,40.909,33
46,Maniakoi,21.244,40.501,20
24,Kladorrachi,21.396,40.827,20
24,Katsikas,20.888,39.622,20
160,Vovousa,21.049,39.937,66
28,Palaiochorion,20.068,39.39,28
33,Tropaiouchos,21.442,40.741,20
66,Baltouma,20.994,39.696,28
55,Chrysavgi,21.221,40.168,39
112,Louros,20.751,39.163,79
46,Stavropotamos,21.394,40.545,20
24,Kolchiki,21.484,40.739,20
55,Vronti,21.293,40.293,24
33,Platania,21.348,40.38,20
46,Chorigos,21.33,40.32,24
134,Meliti,21.583,40.833,94
134,Megaron,21.265,40.113,66
39,Romia,20.852,39.22,20
94,Germas,21.429,40.456,39
66,Strongyli,20.812,39.126,24
24,Kleisoura,21.469,40.535,20
112,Sagiada,20.194,39.624,55
39,Neos Gorgomylos,20.923,39.335,28
94,Chavdata,20.386,38.204,33
134,Neapolis,21.385,40.314,94
55,Vaptistis,21.038,39.552,39
134,Aetos,21.556,40.661,39
192,Vasiliki,20.609,38.627,28
55,Monolithion,21.018,39.445,24
276,Metsovon,21.183,39.77,160
39,Lixourion,20.438,38.202,33
55,Fiskardon,20.575,38.46,46
39,Platania,20.976,39.288,20
24,Katochorion,20.693,38.667,20
39,Trikomon,21.317,39.98,20
39,Chalkiades,20.933,39.158,20
79,Mavranaioi,21.343,40.035,28
79,Agios Nikolaos,20.804,38.87,46
39,Eratyra,21.511,40.342,28
28,Makriotika,20.557,38.309,28
230,Amyntaion,21.679,40.691,134
24,Ferentinata,20.575,38.318,20
55,Pontikatai,20.382,39.97,28
66,Kestrini,20.198,39.56,39
79,Kavos,20.115,39.383,28
94,Drymades,20.44,40.062,33
46,Ragion,20.245,39.576,20
66,Charavgi,20.397,39.868,24
46,Palaiopyrgos,20.487,40.028,39
39,Nea Selefkeia,20.256,39.524,20
24,Kastrion,20.274,39.554,20
112,Agioi Pantes,20.352,39.717,55
276,Delvinakion,20.462,39.933,79
192,Filiates,20.31,39.6,66
79,Mavroudion,20.283,39.541,20
39,Ladochorion,20.268,39.486,20
55,Vrysella,20.317,39.573,20
66,Syvota,20.243,39.408,39
79,Agia Marina,20.434,39.807,46
28,Longos,20.161,39.226,20
112,Plataria,20.277,39.453,39
28,Parapotamos,20.325,39.548,24
46,Molyvdoskepastos,20.57,40.062,39
39,Stratinista,20.481,39.856,24
112,Kefalovryson,20.559,40.015,112
46,Vissani,20.532,39.947,33
24,Agia Marina,20.314,39.471,20
230,Gaios (Paxoi),20.186,39.197,112
24,Faskomilia,20.308,39.449,20
46,Agios Georgios,20.349,39.529,20
55,Limni,20.539,39.915,24
46,Pigadoulia,20.374,39.555,20
39,Sitaria,20.524,39.87,28
66,Keramitsa,20.431,39.67,55
39,Argyrotopos,20.315,39.417,24
79,Aetos,20.396,39.576,28
24,Vasilikon,20.601,40.009,24
160,Perdika,20.303,39.368,66
55,Vasilikos,20.348,39.455,24
24,Polynerion,20.327,39.404,20
55,Kokkinia,20.43,39.6,24
79,Antipaxos,20.224,39.152,33
39,Doliana,20.58,39.904,28
66,Plikation,20.769,40.296,55
46,Ano Ravenia,20.605,39.94,28
134,Parakalamos,20.569,39.861,79
55,Geroplatanos,20.627,39.971,28
39,Palaiochorion,20.435,39.545,20
79,Mazarakia,20.377,39.421,46
33,Raveni,20.486,39.652,20
79,Mazion,20.667,40.04,39
46,Amarantos,20.726,40.162,33
112,Neraida,20.438,39.526,46
39,Granitsopoula,20.53,39.722,20
39,Vrontismeni,20.594,39.839,20
46,Karterion,20.382,39.386,28
39,Plakoti,20.475,39.582,28
79,Gkrika,20.425,39.468,39
28,Kalyvia,20.667,39.981,24
79,Vronteron,21.018,40.742,28
66,Kalpakion,20.625,39.887,33
134,Pyli,21.038,40.777,55
55,Kallithea,20.687,40.01,24
55,Agia,20.359,39.312,28
55,Ieromnimi,20.578,39.774,28
55,Despotikon,20.565,39.738,28
46,Mazarakion,20.608,39.805,33
46,Ampelia,20.435,39.432,28
24,Anthousa,20.373,39.299,20
79,Aristi,20.673,39.935,33
397,Aetomilitsa,20.856,40.31,112
33,Kefalovryson,20.474,39.486,28
571,Konitsa,20.747,40.045,276
28,Zalongon,20.539,39.598,20
94,Papigkon,20.719,39.969,66
112,Margariti,20.432,39.359,46
230,Parga,20.401,39.285,134
28,Voutsaras,20.588,39.667,20
24,Sevaston,20.479,39.424,20
66,Eleftherion,20.429,39.316,24
39,Ligopsa,20.663,39.808,20
55,Pigi,20.785,40.068,24
276,Laimos,21.14,40.835,112
79,Dipotamia,20.986,40.489,55
79,Ano Pedina,20.706,39.881,46
66,Lagkada,20.86,40.213,24
94,Zitsa,20.648,39.755,55
160,Paramythia,20.513,39.465,134
66,Radovizion,20.574,39.593,46
33,Granitsa,20.586,39.611,20
55,Karvounarion,20.484,39.391,28
94,Pefkos,20.954,40.39,66
94,Kefalochori,20.886,40.24,55
28,Paliouri,20.634,39.697,24
33,Kariotion,20.52,39.449,20
46,Xirolofos,20.506,39.41,20
55,Agia Kyriaki,20.448,39.285,28
28,Gavrisioi,20.695,39.808,20
39,Karitsa,20.663,39.735,20
79,Kallithea,21.154,40.797,28
66,Krystallopigi,21.085,40.637,66
24,Chionaton,21.015,40.477,20
28,Monodendrion,20.747,39.883,24
33,Morfion,20.481,39.312,24
46,Klimatia,20.672,39.705,33
66,Asprangeloi,20.728,39.823,24
66,Prodromion,20.542,39.427,28
134,Ieropigi,21.081,40.578,46
46,Drosopigi,20.915,40.213,20
28,Pteria,21.055,40.505,20
66,Agia Paraskevi,20.895,40.145,66
94,Eleftheron,20.855,40.057,46
39,Neochorion,20.711,39.747,24
112,Karyai,20.737,39.791,66
79,Agios Nikolaos,20.635,39.544,28
79,Chrysi,20.975,40.274,39
66,Kipoi,20.792,39.864,28
28,Asfaka,20.75,39.775,20
66,Frosyni,20.599,39.452,24
39,Agora,20.566,39.38,20
66,Antartikon,21.206,40.758,39
134,Polygyros,20.665,39.578,55
94,Gardikion,20.564,39.361,79
46,Rodotopion,20.727,39.707,39
160,Tsepelovon,20.82,39.905,94
46,Fourka,20.943,40.161,28
46,Dendrochorion,21.141,40.583,33
46,Themelon,20.531,39.259,20
33,Agia Kyriaki,21.12,40.525,20
66,Ano Lapsista,20.762,39.74,20
94,Kypseli,20.556,39.295,33
24,Kranochorion,21.099,40.458,24
46,Perivleptos,20.779,39.764,28
46,Mesopotamon,20.531,39.237,46
39,Koroni,20.552,39.278,20
24,Koumaria,20.679,39.546,24
28,Petralona,20.74,39.664,20
55,Avlotopos,20.626,39.418,33
94,Loutsa,20.531,39.197,20
24,Agioi Apostoloi,20.793,39.749,20
33,Tyria,20.69,39.53,20
39,Kalochorion,21.134,40.486,20
94,Eptachori,21.021,40.222,79
28,Glyki,20.606,39.328,28
94,Lagka,21.081,40.349,39
28,Kastrion,20.571,39.252,20
79,Artopoula,20.689,39.497,28
66,Mesopotamia,21.158,40.504,55
112,Zotikon,20.675,39.462,39
24,Kontsika,20.759,39.64,20
79,Akritas,21.302,40.815,28
66,Eleousa,20.794,39.707,39
79,Pentavryson,21.141,40.454,33
28,Chochla,20.566,39.217,20
24,Koromilea,21.182,40.536,20
39,Mouzakaiika,20.598,39.274,20
66,Melas,21.265,40.703,24
112,Alona,21.302,40.777,33
46,Asvestochorion,20.778,39.626,24
46,Narkissos,20.608,39.255,20
276,Kanallakion,20.601,39.233,192
134,Fragkades,20.883,39.831,55
39,Krya,20.835,39.72,20
24,Kardamitsia,20.818,39.678,20
46,Lefki,21.207,40.52,24
46,Laista,20.955,39.972,46
24,Avgi,21.175,40.449,20
28,Chiliodendron,21.193,40.487,24
94,Samarina,21.018,40.104,66
28,Lygia,20.579,39.153,20
55,Aidonia,20.614,39.203,20
134,Romanos,20.7,39.385,55
66,Cheimadion,20.597,39.166,46
46,Perama,20.846,39.694,20
46,Elafos,20.728,39.44,24
33,Monodendron,20.722,39.424,20
28,Aposkepos,21.251,40.559,20
33,Kosmira,20.805,39.594,24
33,Manteion,20.78,39.54,20
24,Valanidoussa,20.633,39.218,20
24,Tsiflikopoulon,20.839,39.656,20
94,Polykastanon,21.137,40.294,39
39,Lakkomata,21.202,40.429,20
79,Distraton,21.018,40.027,66
46,Alepochorion,20.708,39.362,20
33,Kefalarion,21.268,40.57,20
28,Polyplatanon,21.408,40.878,24
1183,Ioannina,20.853,39.665,986
28,Lachanokipoi,21.215,40.447,24
112,Kato Kleinai,21.398,40.849,46
24,Chloi,21.258,40.534,20
33,Palaiochorion,20.713,39.345,20
28,Nisos Ioanninon,20.873,39.681,20
79,Melingoi,20.799,39.522,33
66,Proti,21.395,40.816,24
331,Kastoria,21.263,40.522,230
134,Damaskinia,21.18,40.336,66
46,Nostimon,21.204,40.388,28
66,Vyssinea,21.311,40.622,33
28,Chioniasa,20.834,39.583,20
46,Pedini,20.843,39.598,24
55,Anatoli,20.865,39.637,20
46,Doliani,20.951,39.822,28
24,Ligkiades,20.891,39.69,20
66,Ampelia,20.834,39.569,20
112,Polypotamon,21.364,40.719,39
134,Toichion,21.304,40.583,46
28,Ano Rachi,20.676,39.226,24
39,Vrysoula,20.697,39.265,33
46,Despotiko,20.668,39.203,20
28,Megadendron,20.634,39.125,24
24,Manoliasa,20.828,39.526,20
134,Argos Orestikon,21.259,40.455,55
134,Pentalofos,21.141,40.195,112
94,Avgerinos,21.164,40.24,39
1419,Florina,21.414,40.783,192
28,Karyai,20.932,39.733,20
66,Kastrosykia,20.638,39.105,20
79,Flampourarion,20.991,39.854,39
28,Kryopigi,20.661,39.151,20
33,Ano Kalliniki,21.452,40.861,28
28,Skopia,21.409,40.763,20
24,Derviziana,20.781,39.401,24
33,Metamorfosis,21.32,40.564,20
33,Vargiades,20.813,39.466,20
28,Ampelochorion,21.26,40.43,20
24,Neos Kafkasos,21.471,40.89,24
28,Skalochorion,21.238,40.375,24
24,Neokaisareia,20.874,39.589,20
39,Dispilion,21.289,40.481,24
79,Asprokklisia,21.256,40.406,39
39,Episkopikon,20.855,39.54,20
33,Neon Bizanion,20.871,39.568,20
33,Ano Kotsanopoulon,20.713,39.23,20
24,Atrapos,21.405,40.725,20
55,Pentolakkos,20.816,39.442,20
55,Kamarina,20.672,39.134,39
94,Dotsikon,21.137,40.127,39
39,Kerasovon,20.77,39.338,20
79,Meliana,20.784,39.362,39
46,Mavrochori,21.319,40.513,33
66,Miliotades,20.963,39.732,55
33,Agios Theodoros,21.218,40.281,33
79,Kopani,20.849,39.479,33
46,Foteini,21.341,40.541,24
39,Kastritsa,20.922,39.632,20
24,Theriakision,20.864,39.507,20
46,Grevenition,21.004,39.806,46
33,Armenochorion,21.461,40.803,20
28,Ampelokipoi,21.309,40.465,20
331,Smixi,21.123,40.058,160
66,Longades,20.939,39.66,33
28,Kato Kotsanopoulon,20.723,39.201,24
33,Krepeni,21.324,40.493,20
39,Kranea,20.745,39.245,24
24,Marina,21.492,40.861,20
39,Kato Mousiotitsa,20.818,39.397,20
24,Vouliasta,20.837,39.428,20
134,Koutselion,20.912,39.588,24
94,Mesochorion,21.513,40.884,39
46,Morfi,21.208,40.21,28
94,Nea Mousiotitsa,20.839,39.414,55
24,Vasiliki,20.948,39.642,20
112,Pappadatai,20.794,39.313,46
55,Pappagiannis,21.498,40.839,33
46,Velos,21.294,40.38,28
28,Avgon,20.902,39.529,20
46,Filippaioi,21.157,40.078,20
33,Perdika,20.882,39.482,20
112,Avdella,21.127,40.007,39
28,Tripotamos,21.5,40.825,20
66,Ammochorion,21.483,40.783,39
112,Kato Kryfovon,20.9,39.515,33
55,Perivolion,21.117,39.979,24
55,Ydroussa,21.461,40.722,20
230,Kanalion,20.695,39.069,55
39,Asproula,21.286,40.336,24
39,Neon Kostarazion,21.331,40.434,33
79,Thesprotikon,20.783,39.253,66
46,Zervon,20.802,39.29,20
24,Neos Oropos,20.737,39.153,20
28,Karadimas,20.948,39.599,20
46,Drosopigi,21.455,40.69,24
94,Drosochorion,20.971,39.627,24
39,Korisos,21.377,40.505,39
28,Charokopion,20.952,39.585,24
66,Omali,21.266,40.258,28
94,Tyrgia,20.783,39.209,24
28,Sitsaina,21.043,39.763,20
28,Ano Ydroussa,21.475,40.7,20
28,Ravenia,20.917,39.489,20
28,Varlaam,20.89,39.422,28
66,Ellinikon,20.952,39.549,28
24,Neochorakion,21.542,40.828,24
66,Pesta,20.917,39.462,33
55,Nea Sampsous,20.741,39.088,28
28,Velanidia,21.331,40.351,20
112,Lithia,21.409,40.52,20
55,Vasileias,21.43,40.565,33
39,Dafnoula,20.988,39.604,20
39,Stefani,20.789,39.178,24
79,Mytikas,20.707,38.999,33
66,Chrysovitsa,21.074,39.779,66
79,Potamia,20.884,39.367,20
33,Agios Vartholomaios,21.528,40.761,24
46,Polynerion,21.203,40.048,33
39,Sitaria,21.543,40.791,33
33,Agios Nikitas,20.614,38.789,24
66,Molocha,21.355,40.363,39
39,Panagia,20.883,39.345,33
39,Megali Gotista,21.042,39.683,33
28,Asprogeia,21.47,40.614,20
28,Nikopolis,20.733,39.026,20
28,Kalamitsion,20.604,38.757,28
28,Vogatsiko,21.381,40.415,28
46,Flampoura,20.75,39.06,20
112,Mega Peristerion,21.062,39.724,46
55,Analipsi,21.075,39.751,24
24,Verga,21.446,40.553,20
46,Agios Georgios,20.855,39.268,33
24,Ano Drymon,20.886,39.331,20
28,Kerasona,20.874,39.305,20
39,Nymfaion,21.493,40.644,20
55,Michalitsion,20.747,39.038,33
24,Athanion,20.571,38.664,20
79,Flampouron,21.523,40.706,33
46,Kydoniai,21.282,40.173,33
39,Ampelakia,21.065,39.705,20
112,Tsotylion,21.324,40.261,46
39,Chortata,20.604,38.717,24
66,Petra,20.814,39.156,20
46,Kalentzion,20.977,39.49,46
66,Atheras,20.417,38.318,39
46,Pigadia,20.967,39.462,24
79,Sklithron,21.502,40.623,33
79,Agia Thekli,20.385,38.246,20
33,Agios Georgios,20.948,39.421,28
66,Achlada,21.613,40.862,28
39,Kaminarata,20.379,38.223,20
160,Lechovon,21.492,40.585,94
55,Lofoi,21.588,40.796,20
33,Votonosion,21.119,39.768,28
39,Pantanassa,20.874,39.24,20
55,Agios Petros,20.601,38.665,55
79,Karya,20.649,38.759,39
46,Anthochorion,21.347,40.238,20
28,Agrapideai,21.536,40.648,20
476,Preveza,20.751,38.958,192
46,Lazarata,20.667,38.779,20
55,Egklouvi,20.647,38.73,24
39,Psathaki,20.766,38.976,20
24,Skopos,21.641,40.867,20
24,Chavriata,20.384,38.183,20
28,Ampelochorion,21.029,39.527,20
24,Nea Kerasous,20.856,39.157,20
39,Kalirachi,21.29,40.081,24
46,Ziakas,21.268,40.03,20
79,Filippias,20.883,39.205,66
276,Lefkas,20.707,38.833,112
55,Varikon,21.503,40.539,33
28,Livadion,20.426,38.245,28
46,Rodia,21.328,40.146,28
39,Agios Spyridon,20.863,39.145,39
24,Oropedion,21.316,40.116,20
33,Agios Ilias,20.647,38.69,20
28,Kampi,20.9,39.218,20
79,Vevi,21.616,40.768,39
24,Agios Dimitrios,20.43,38.23,20
33,Limnochorion,21.556,40.623,28
28,Syvros,20.647,38.671,28
46,Aktion,20.772,38.933,20
24,Antipata,20.549,38.465,20
28,Soullaroi,20.416,38.186,20
33,Aliakmon,21.428,40.319,28
476,Platanoussa,21.011,39.417,79
230,Ammotopos,20.943,39.272,46
79,Spilaion,21.285,40.004,55
94,Kardakata,20.468,38.277,39
24,Prosilion,21.086,39.572,20
33,Pedinon,21.588,40.661,20
33,Monachition,21.273,39.968,24
66,Vigla,20.861,39.086,20
55,Agkon,20.485,38.301,20
55,Ampelia,20.929,39.226,20
94,Lygia,20.721,38.787,33
33,Ai Giannis,20.771,38.891,24
28,Agia Varvara,20.746,38.836,20
39,Syndendron,21.351,40.122,20
39,Peratia,20.743,38.824,20
39,Valtonera,21.587,40.637,20
46,Syrrakon,21.107,39.594,39
33,Marantochorion,20.65,38.629,24
39,Pelekanos,21.466,40.367,33
39,Klima,21.409,40.242,24
192,Milea,21.23,39.852,66
46,Nikiana,20.718,38.765,20
46,Sisanion,21.499,40.435,20
33,Ktistades,21.072,39.509,20
24,Anilion,21.188,39.758,20
66,Amygdaleai,21.374,40.156,28
66,Elatos,21.34,40.079,33
24,Plagia,20.739,38.797,20
24,Koukkoulia,21.04,39.43,20
24,Milochorion,21.538,40.505,24
79,Asos,20.54,38.378,28
33,Chanopoulon,20.936,39.204,20
33,Xinon Neron,21.624,40.69,33
24,Polydroson,20.888,39.094,20
134,Rodavgi,20.999,39.327,46
94,Vasilikiades,20.562,38.411,39
28,Rachi,20.901,39.115,20
46,Farsa,20.476,38.229,24
46,Foufas,21.554,40.521,20
55,Vlychon,20.697,38.683,20
94,Vlasti,21.525,40.454,33
685,Nydrion,20.71,38.707,94
24,Fternon,20.686,38.656,20
160,Agios Georgios,21.409,40.196,55
230,Pramanta,21.101,39.523,134
33,Christoi,21.117,39.556,28
94,Agnanta,21.08,39.475,39
28,Perigialion,20.723,38.72,20
46,Elatos,20.974,39.247,24
28,Kalovatos,20.919,39.127,24
112,Kranea,21.28,39.898,39
66,Rodon,21.632,40.662,20
46,Kyrakali,21.374,40.097,20
112,Kella,21.688,40.788,46
33,Namata,21.522,40.417,20
66,Anargyroi,21.611,40.602,28
46,Kosmation,21.338,40.002,28
66,Chalikion,21.192,39.684,46
46,Divarata,20.55,38.331,20
66,Olympias,21.6,40.57,55
79,Petrai,21.674,40.729,28
24,Galateia,21.597,40.558,20
79,Anarrachi,21.571,40.492,66
79,Poros,20.708,38.642,33
33,Kivotos,21.444,40.207,20
822,Argostolion,20.487,38.179,276
112,Aneza,20.923,39.087,46
28,Sotir,21.663,40.676,20
94,Dilinata,20.515,38.225,39
66,Mega Seirinion,21.411,40.119,28
46,Kalonerion,21.491,40.288,33
46,Ramia,21.079,39.397,24
66,Droseron,21.604,40.536,20
39,Grammenitsa,20.978,39.183,20
55,Mikrospilia,21.092,39.423,20
55,Katarraktis,21.104,39.448,20
39,Kostakioi,20.959,39.137,24
46,Doxaras,21.394,40.064,20
112,Matsoukion,21.163,39.568,39
24,Mikron Seirinion,21.426,40.129,20
39,Gavria,20.949,39.103,20
28,Platreithias,20.644,38.461,20
46,Faraklata,20.523,38.201,20
39,Melissourgoi,21.147,39.508,28
134,Koronisia,20.916,39.016,55
28,Demoutsantata,20.554,38.153,20
24,Korydallos,21.342,39.809,20
24,Sarantaporon,21.835,39.158,24
39,Agios Georgios,21.542,38.395,28
986,Arta,20.987,39.161,397
55,Megkla,21.042,39.24,33
24,Polydendron,21.481,40.221,20
28,Lefkovrysi,21.78,40.271,24
94,Stavros,20.647,38.447,66
94,Flamouria,22.017,40.752,39
39,Levaia,21.702,40.645,20
55,Stanos,21.174,38.805,33
28,Mikrokastron,21.503,40.267,20
79,Kallithea,21.356,39.847,28
276,Kipoureion,21.361,39.953,55
33,Poulata,20.606,38.236,24
79,Magoula,21.803,39.456,28
46,Malakasion,21.283,39.781,28
79,Neochorion,22.444,40.666,33
33,Kompothekrata,20.504,38.144,20
28,Kleiston,21.08,39.179,20
28,Brinia,21.321,38.04,20
39,Moschochorion,22.397,40.266,20
55,Amaranta,22.815,41.191,20
160,Kallifonion,21.962,39.277,66
79,Damasion,22.188,39.714,55
46,Pefki,21.381,39.796,24
39,Nision,21.421,37.984,24
24,Dasochorion,22.034,39.268,20
55,Dounaiika,21.331,37.743,20
94,Kitros,22.578,40.375,33
46,Fyllon,22.184,39.431,20
24,Anchialos,22.78,40.715,24
66,Olympiaki Akti,22.585,40.24,24
46,Kokkinia,21.485,40.208,24
986,Grevena,21.428,40.083,192
79,Kalomoira,21.411,39.751,55
39,Milea,21.475,40.18,20
55,Kalloni,21.093,39.353,20
79,Anthrakia,21.521,39.924,46
66,Digaleton,20.694,38.17,39
66,Karydia,21.956,40.847,24
24,Garefeion,22.046,41.025,20
33,Floriada,21.168,39.111,24
134,Vonitsa,20.89,38.917,94
55,Mavrodendrion,21.77,40.381,24
79,Anemorrachi,21.08,39.312,55
94,Agia Effimia,20.597,38.302,39
46,Ermakia,21.852,40.498,46
28,Protochorion,21.75,40.244,20
33,Koila,21.79,40.33,20
46,Boukka,21.142,38.927,20
39,Aidon,21.467,39.605,20
46,Agios Dimitrios,21.549,39.776,28
134,Neraidochori,21.439,39.529,55
66,Sotira,22.046,40.858,28
39,Xifiani,22.081,40.93,28
46,Ampelia,21.518,39.693,33
28,Vegora,21.716,40.681,24
79,Kypseli,21.115,39.376,66
39,Pogonia,20.839,38.793,28
55,Palaiochorion,21.689,40.046,20
33,Theotokos,21.604,39.849,24
112,Galatini,21.553,40.318,46
160,Katouna,21.114,38.786,66
24,Aetos,21.083,38.708,24
33,Dimitra,21.664,39.947,28
112,Akrini,21.906,40.435,79
160,Skala,20.798,38.073,66
94,Mesopyrgos,21.344,39.208,46
46,Agia Paraskevi,20.991,39.099,24
66,Ano Komi,21.829,40.226,28
66,Vatolakkos,21.482,40.152,39
66,Paliouria,21.729,39.957,39
39,Kalonerion,21.586,39.636,28
94,Karaiskakis,21.089,38.581,33
46,Ardassa,21.634,40.478,33
46,Svoronata,20.522,38.116,20
33,Myrsina,21.474,40.125,24
46,Neos Agios Athanasios,21.796,40.834,28
55,Potamia,21.309,39.003,20
55,Empesos,21.322,39.027,46
46,Marathos,21.434,39.262,20
79,Agios Leon,20.718,37.77,39
79,Tetralofon,21.964,40.386,28
66,Pigaditsa,21.412,39.984,28
24,Mavrovounion,22.155,40.782,20
39,Agios Stefanos,21.205,38.724,20
112,Kali,22.176,40.82,39
79,Agios Panteleimon,21.75,40.724,39
79,Prionia,21.366,39.883,46
112,Neo Chalkiopoulo,21.329,38.973,79
94,Katomerion,20.789,38.656,55
66,Kedra,21.451,39.184,24
33,Anydron,22.208,40.833,20
112,Panagia,21.329,39.798,66
134,Filotas,21.708,40.625,46
28,Dialekton,21.651,39.596,20
55,Tranovalton,21.866,40.058,46
39,Kionion,20.691,38.447,28
39,Flampouresion,21.761,39.804,24
39,Peta,21.035,39.165,28
46,Stenimachos,22.127,40.603,24
66,Vatsounia,21.586,39.409,46
66,Agalas,20.774,37.709,28
79,Kalochorion,21.75,39.745,33
55,Pyli,21.621,39.459,28
55,Kalyvia,22.219,40.757,33
55,Agioi Anargyroi,21.025,39.138,24
39,Vanaton,20.851,37.793,28
112,Polymylos,22.069,40.371,94
55,Rigani,21.237,38.58,24
24,Liparon,22.248,40.748,20
33,Zervi,21.82,40.857,20
33,Parapotamos,21.698,39.533,20
192,Siatista,21.551,40.261,134
28,Kato Potamia,21.492,39.078,20
94,Ellinokastron,21.798,39.689,24
24,Kastaneri,22.388,40.979,20
476,Zakynthos,20.896,37.783,276
276,Velventos,22.069,40.257,192
33,Droseron,21.74,39.511,20
79,Angelokastron,21.296,38.567,46
28,Argasion,20.919,37.766,20
39,Neos Mylotopos,22.356,40.818,39
79,Katochi,21.255,38.413,66
79,Makrochorion,22.252,40.552,28
33,Potamoula,21.435,38.757,28
66,Perdikkas,21.697,40.56,39
46,Mesi,22.266,40.528,20
79,Peratata,20.559,38.135,33
55,Taxiarchis,21.525,40.176,24
55,Giannota,22.042,39.98,20
397,Ptolemais,21.679,40.513,160
112,Agrelia,21.931,39.72,55
66,Milea,22.076,40.028,28
24,Asprokampos,21.516,40.15,20
55,Azoros,22.079,40.001,20
46,Taxiarchai,21.892,39.576,28
39,Glinos,21.864,39.512,20
55,Nision,22.389,40.635,33
66,Valsamata,20.585,38.174,66
39,Lykoudion,22.114,39.967,24
192,Palairos,20.882,38.782,112
55,Kainourgion,21.487,38.604,24
66,Kastanea,21.797,39.238,24
79,Agios Dimitrios,22.231,40.156,39
39,Praitorion,22.066,39.792,28
192,Neochorion,21.022,39.07,46
55,Zygos,21.087,39.207,24
33,Agios Charalampos,21.126,39.29,24
39,Aimilianos,21.439,39.962,20
28,Lofos,22.185,40.017,20
33,Spartia,20.562,38.111,20
79,Mikron Eleftherochorion,22.164,39.944,24
79,Pythion,22.23,40.066,33
46,Maniakion,21.775,40.693,24
46,Melatai,21.106,39.24,33
66,Kokkinopilos,22.253,40.096,28
331,Karditsa,21.922,39.365,134
33,Myrsini,21.237,37.922,20
46,Rousson,21.904,39.314,28
79,Makrychorion,21.965,39.44,39
66,Aspros,22.629,40.903,33
55,Paliampela,20.952,38.911,39
55,Sitaria,22.656,40.958,28
55,Mikron Monastirion,22.547,40.708,33
39,Asvestopetra,21.673,40.46,24
33,Megali Sterna,22.726,41.09,20
112,Panagitsa,21.85,40.851,46
24,Eleftherochorion,21.482,40.039,24
192,Andravida,21.271,37.906,46
39,Kallirroi,21.293,39.628,33
28,Tornos,21.674,38.738,20
28,Prodromos,21.975,39.376,28
28,Stavros,21.972,39.363,20
134,Kastanea,21.685,38.75,46
94,Gastouni,21.254,37.851,66
79,Palaiostani,22.464,40.417,39
33,Platanos,22.549,40.566,24
28,Aronas,22.433,40.29,20
66,Prochoma,22.668,40.799,28
46,Antigonos,21.762,40.64,33
46,Argyron Pigadion,21.701,38.689,20
46,Aetopetra,21.677,38.619,39
46,Kastanoussa,22.894,41.277,33
55,Savalia,21.296,37.82,28
134,Theodoriana,21.21,39.436,46
230,Thermon,21.667,38.572,112
28,Neon Keramidion,22.462,40.286,20
28,Stavrochorion,22.798,41.036,20
55,Kato Makrinou,21.628,38.486,24
112,Amvrakia,21.715,38.666,55
192,Arnissa,21.836,40.798,94
28,Neapolis,21.415,38.018,20
192,Sami,20.646,38.249,94
39,Pelargos,21.755,40.614,20
33,Agia Paraskevi,22.043,39.306,20
39,Koromilea,22.855,41.076,20
46,Kommenon,21.032,39.047,20
55,Agios Ioannis,21.36,37.826,20
112,Argyropouleion,22.307,39.826,55
66,Poros,21.528,40.108,33
94,Agios Konstantinos,21.459,38.009,39
33,Matonerion,21.368,39.759,28
33,Cheimadion,22.895,41.091,20
160,Tyrnavos,22.288,39.739,94
33,Megali Kapsi,21.912,38.928,20
55,Borsion,21.439,37.927,24
79,Tymfristos,21.916,38.911,79
134,Efkarpia,22.908,41.073,66
33,Grizata,20.641,38.222,24
112,Monastirakion,20.945,38.853,46
28,Parapotamos,22.989,41.239,20
66,Rodopolis,23.001,41.26,24
66,Palaiokatounon,21.176,39.337,33
192,Loutropigi,22.046,39.118,55
24,Xylokeratea,22.841,40.856,20
66,Ano Poroia,23.034,41.286,46
39,Pedinon,22.873,40.909,28
39,Elaiochorion,21.569,38.081,20
46,Peraia,21.822,40.737,39
39,Proastion,21.711,40.489,24
397,Ithaki,20.718,38.364,160
24,Sykeai,21.054,39.063,20
46,Orma,21.927,40.953,20
33,Perachorion,20.716,38.348,20
79,Kompotion,21.078,39.104,33
39,Anatolikon,21.749,40.545,33
55,Ano Petra,21.113,39.166,24
134,Athamanion,21.215,39.375,94
66,Komnina,21.776,40.591,39
79,Loutrakion,21.947,40.971,46
94,Palaiokastron,21.6,40.203,39
134,Epano Sesi,21.161,39.253,55
33,Trygon,21.412,39.789,20
66,Agioi Theodoroi,21.503,39.984,33
33,Kakoplevrion,21.432,39.829,33
46,Foteinon,21.108,39.134,24
55,Vlachata,20.624,38.123,39
160,Panagia,21.137,39.191,66
66,Kastanea,21.381,39.709,33
28,Anthotopos,21.671,40.335,24
66,Sideras,21.695,40.384,39
33,Palaiochorakion,21.123,39.15,20
79,Palaiochorio,21.299,39.525,39
55,Agios Christoforos,21.756,40.515,24
94,Fellion,21.533,40.024,66
112,Kranea,21.347,39.622,46
94,Xirolimni,21.66,40.295,46
79,Agnantia,21.464,39.867,28
66,Mavropigi,21.733,40.449,28
28,Alonakia,21.67,40.308,20
112,Pyrgoi,21.833,40.669,55
46,Sykoula,21.099,39.068,20
33,Lykostomon,21.984,40.989,20
46,Sarakinoi,21.954,40.915,24
79,Drymos,21.02,38.882,39
94,Promachoi,22.007,41.026,39
28,Megaplatanos,21.971,40.941,20
94,Knidi,21.592,40.096,55
79,Mesovounon,21.835,40.628,33
46,Vryta,21.913,40.801,46
134,Kandila,20.949,38.705,55
24,Monastirakion,21.976,40.926,20
79,Exarchos,21.63,40.159,33
55,Nision,21.932,40.823,20
79,Lygeri,21.712,40.329,20
46,Metamorfosis,21.678,40.25,33
66,Menidion,21.118,39.042,46
79,Keraseai,21.963,40.877,46
112,Mesochora,21.325,39.473,66
79,Oxyneia,21.49,39.827,39
94,Desi,21.368,39.561,39
79,Mytikas,20.946,38.668,28
66,Kato Grammatikon,21.894,40.707,39
192,Pontokomi,21.761,40.411,46
160,Kalamos,20.929,38.622,39
39,Orthovounion,21.468,39.762,33
24,Piperiai,22.017,40.97,20
55,Xirokampos,21.489,39.802,20
46,Sosandra,22.034,40.999,20
112,Kastos,20.91,38.571,39
46,Varnakas,20.987,38.726,24
66,Itea,21.616,40.064,24
28,Nea Nikopolis,21.741,40.327,28
55,Polykarpion,22.018,40.926,28
55,Kleidion,21.206,39.153,33
66,Elafion,21.47,39.713,39
39,Achyra,21.031,38.78,24
46,Vateron,21.736,40.292,20
24,Palaiochorion,21.423,39.609,24
66,Nision,21.607,40.006,20
28,Panagoula,21.001,38.708,20
46,Tsakoi,22.039,40.955,20
112,Kleinon,21.454,39.669,46
28,Pyloroi,21.652,40.089,20
39,Anoixis,21.573,39.914,33
24,Kentron,21.622,40.018,20
55,Voreinon,22.081,41.028,28
66,Sparton,21.106,38.903,39
79,Myrofyllon,21.325,39.366,46
331,Aridaia,22.061,40.974,134
55,Valerianos,20.717,38.083,24
79,Agiofyllon,21.561,39.863,66
79,Tryfos,21.076,38.827,28
79,Kastanea,21.305,39.31,33
66,Chrysopigi,21.212,39.112,46
94,Platanos,21.29,39.271,79
28,Tzanata,20.749,38.14,20
24,Z.E.P.,21.757,40.274,20
28,Margarita,22.031,40.882,20
46,Theriakision,21.204,39.084,24
94,Profitis Ilias,21.168,39.002,33
46,Agras,22.003,40.805,28
46,Mesounta,21.333,39.343,20
46,Sarakina,21.652,40.026,20
66,Agia Eirini,20.752,38.122,24
66,Lefkopigi,21.749,40.231,33
160,Karperon,21.62,39.948,66
230,Pontini,21.677,40.072,79
24,Polynerion,21.365,39.394,20
94,Skoulikaria,21.261,39.172,79
192,Poros,20.774,38.151,94
79,Archontochorion,21.039,38.701,55
55,Kompoti,21.067,38.759,28
46,Anoixiatikon,21.169,38.971,20
33,Kalogriani,21.489,39.648,24
397,Kozani,21.789,40.3,230
33,Pastra,20.75,38.095,20
112,Apsalos,22.058,40.893,66
39,Petra,21.252,39.126,20
55,Rodiani,21.752,40.203,24
66,Mourgkani,21.541,39.738,33
24,Kato Kateleios,20.75,38.066,24
230,Volimai,20.658,37.875,66
46,Drepanon,21.828,40.348,20
160,Krikellos,21.177,38.945,66
55,Anafonitria,20.651,37.847,20
46,Gianniotion,21.277,39.148,20
55,Nea Charavgi,21.823,40.326,24
39,Agia Foteini,22,40.713,20
39,Trikokkia,21.62,39.877,28
28,Rizochorion,22.132,41.007,20
79,Chromion,21.74,40.135,46
33,Pertoulion,21.466,39.541,20
46,Ellinika,21.392,39.379,33
24,Karyditsa,21.798,40.253,20
134,Chrysomilea,21.501,39.607,79
46,Filoteia,22.151,41.035,20
331,Edessa,22.05,40.801,134
55,Exaplatanos,22.131,40.979,39
39,Chrysi,22.116,40.945,20
134,Gavros,21.596,39.799,46
46,Neochorion,21.685,39.986,28
28,Kampos,21.188,38.917,20
24,Iera Moni Analipseos,21.837,40.311,20
28,Milea,22.144,40.993,20
66,Krokos,21.817,40.262,28
33,Trifyllion,21.647,39.891,20
397,Amfilochia,21.166,38.863,192
33,Ekklisiochorion,22.067,40.815,20
79,Agios Nikolaos,20.705,37.907,28
46,Foustani,22.174,41.054,20
94,Rodochorion,22.018,40.691,46
28,Platani,22.05,40.762,20
33,Glykomilea,21.53,39.62,20
39,Kerasea,21.795,40.196,24
397,Thyamos,21.277,39.07,33
66,Konopina,21.128,38.754,24
79,Notia,22.209,41.102,33
79,Mariai,20.676,37.819,33
28,Orthoniai,20.693,37.851,24
46,Vliziana,21.089,38.661,33
39,Ampelakion,21.216,38.923,28
55,Nea Zoi,22.105,40.851,33
55,Mileai,21.379,39.266,33
94,Ida,22.177,41.01,28
66,Sardinia,21.202,38.889,24
24,Kallithea,21.474,39.466,20
46,Diava,21.58,39.691,28
28,Agios Nikolaos,21.391,39.28,20
33,Skeparion,21.631,39.795,20
33,Ptelea,21.879,40.331,24
33,Exo Chora,20.685,37.801,20
79,Katakali,21.687,39.902,33
192,Asprokklisia,21.664,39.852,66
39,Rizarion,22.088,40.784,24
79,Petrana,21.866,40.291,28
46,Agios Dimitrios,21.923,40.412,20
66,Stournaraiika,21.49,39.452,46
230,Aiani,21.819,40.165,79
28,Kato Komi,21.843,40.21,20
28,Vasilopoulon,21.09,38.596,20
94,Aidonia,21.421,39.293,20
28,Giannakochorion,22.057,40.672,24
28,Lagkadion,21.456,39.362,20
46,Metamorfosis,21.465,39.381,28
66,Anthiron,21.459,39.348,46
66,Vlachava,21.658,39.774,39
276,Kalampaka,21.626,39.705,112
28,Kipos,21.848,40.187,20
46,Theodorakeion,22.192,40.95,39
46,Koilas,21.928,40.358,24
33,Kalogiroi,21.526,39.483,20
66,Oinoi,21.914,40.321,24
33,Perikleia,22.265,41.101,20
55,Elati,21.539,39.501,33
276,Astakos,21.084,38.537,112
55,Kato Vermion,22.025,40.552,33
66,Bampini,21.146,38.659,33
24,Pappadatos,21.172,38.71,20
28,Vitoumas,21.614,39.647,20
46,Kechrinia,21.227,38.821,33
24,Genesion,21.585,39.579,20
192,Naousa,22.068,40.63,94
24,Sparton,21.874,40.202,20
94,Katastarion,20.757,37.83,66
46,Kaisareia,21.865,40.172,28
55,Rivion,21.199,38.743,28
94,Vragkiana,21.434,39.24,55
39,Marina,22.101,40.691,24
24,Antallaxima,21.607,39.608,20
55,Machairas,21.15,38.634,20
33,Prodromos,21.59,39.566,20
192,Archangelos,22.28,41.082,66
39,Sarakina,21.637,39.662,28
28,Argyrion,21.417,39.192,20
39,Neon Argyrion,21.401,39.154,20
28,Agioi Theodoroi,21.31,38.961,20
55,Pyrgos,21.897,40.222,20
55,Vathylakkos,21.914,40.258,33
94,Fyteiai,21.186,38.695,66
46,Gorgogyrion,21.588,39.548,33
28,Xyloparoikon,21.582,39.534,20
24,Pigadakia,20.764,37.817,20
79,Perdikakion,21.362,39.05,24
39,Rizon,22.138,40.735,20
112,Skydra,22.153,40.769,66
46,Arkochorion,22.073,40.589,28
39,Rogkia,21.443,39.218,20
28,Chrysovitsa,21.146,38.589,20
55,Karya,21.491,39.315,24
39,Kotronion,21.561,39.464,28
39,Ropoton,21.541,39.419,28
55,Rymnion,21.871,40.133,24
46,Paraskevi,21.77,39.909,24
33,Alikanas,20.789,37.843,20
55,Kapnochorion,21.977,40.359,20
55,Varetada,21.286,38.869,39
28,Roditis,21.939,40.268,20
24,Skourtou,21.183,38.643,20
39,Agios Ioannis,21.558,39.436,20
46,Megarchi,21.641,39.611,33
46,Avra,21.689,39.712,33
33,Lefkadia,22.118,40.652,20
55,Pialeia,21.595,39.505,33
79,Vrouviana,21.409,39.109,39
55,Skoulikadon,20.781,37.8,20
79,Mandalon,22.213,40.857,33
46,Dafnoula,21.424,39.133,20
46,Mesovounion,21.521,39.339,20
46,Episkopi,22.139,40.687,39
28,Alonia,20.801,37.828,24
66,Elati,21.822,39.98,46
33,Voskochorion,22.007,40.382,20
39,Theopetra,21.684,39.674,24
331,Argithea,21.537,39.358,46
33,Kouvaras,21.224,38.695,24
46,Prodromos,21.179,38.599,24
112,Arsenion,22.16,40.713,24
94,Lefkara,21.971,40.292,20
24,Lipochorio,22.181,40.756,20
55,Mikrovalton,21.876,40.082,20
160,Livadia,22.292,41.005,55
39,Goulai,21.915,40.159,28
55,Kopanos,22.13,40.634,39
28,Koiliomenos,20.774,37.749,24
331,Deskati,21.809,39.927,192
24,Filyra,21.61,39.492,20
66,Lazarades,21.853,40.018,33
79,Koumaria,22.089,40.518,39
33,Spathades,21.716,39.698,20
33,Fyteia,22.111,40.562,24
24,Lakka,22.243,40.855,20
33,Neraida,21.966,40.24,20
24,Itea,21.453,39.13,20
33,Lagkadakia,20.804,37.774,20
134,Petrochorion,21.53,39.283,55
55,Nea Malesiada,21.346,38.893,20
79,Foteinon,21.79,39.842,66
46,Valtinon,21.659,39.549,24
55,Xirolivadon,22.082,40.467,39
33,Kranidia,21.958,40.194,28
46,Chariessa,22.165,40.651,20
46,Gouriotissa,21.222,38.615,28
112,Vasiliki,21.705,39.64,55
46,Dasochorion,21.817,39.881,33
24,Podogora,21.339,38.855,20
39,Machairadon,20.81,37.758,20
33,Leontiton,21.534,39.265,20
28,Prosilion,21.944,40.151,20
94,Raptopoulon,21.48,39.149,33
55,Droseron,22.247,40.823,24
134,Amorgianoi,21.348,38.867,66
46,Manina Vlizianon,21.19,38.536,28
55,Topoliana,21.445,39.07,24
134,Fiki,21.656,39.517,46
28,Avlai,21.963,40.179,20
94,Trigonikon,21.932,40.11,33
46,Kypseli,21.266,38.683,20
46,Aspron,22.214,40.734,20
33,Agios Vlasios,21.474,39.12,24
33,Dafni,22.233,40.77,20
46,Kefalovryson,21.693,39.581,46
55,Rizoma,21.734,39.665,24
66,Skra,22.383,41.095,66
55,Platania,21.605,39.382,20
33,Trilofon,22.151,40.573,24
55,Angelochorion,22.199,40.678,39
39,Porti,21.626,39.423,24
46,Oxya,21.596,39.357,39
33,Monospita,22.175,40.62,20
55,Valaora,21.447,39.039,55
28,Gypsochorion,22.26,40.808,20
28,Stavrodromion,22.217,40.712,20
134,Lepenou,21.292,38.71,79
112,Mouzakion,20.821,37.736,46
66,Planos,20.864,37.817,20
112,Koniskos,21.799,39.781,46
55,Imera,22.04,40.295,28
46,Palaiomonastiron,21.658,39.463,24
28,Valamandrion,21.699,39.548,20
33,Lithakia,20.828,37.719,20
33,Vlasion,21.581,39.29,33
39,Trygona,21.633,39.398,20
39,Rogkia,21.712,39.561,20
28,Ochthia,21.287,38.658,20
160,Servia,22,40.185,66
28,Lygaria,21.684,39.494,20
39,Ano Zervochorion,22.215,40.656,20
24,Mega Kefalovryson,21.729,39.589,20
28,Nea Zoi,21.792,39.726,28
46,Palaiomanina,21.241,38.552,33
112,Agios Georgios,22.194,40.602,39
28,Palaifyton,22.275,40.782,20
39,Aravissos,22.304,40.844,33
55,Triklinon,21.445,38.973,55
46,Raxa,21.745,39.612,20
46,Limni Keriou,20.826,37.685,20
33,Platanos,21.769,39.66,24
55,Pigi,21.701,39.512,28
276,Kerion,20.816,37.661,46
230,Livaderon,21.942,40.034,66
192,Mouzakion,21.664,39.43,112
28,Komnineion,22.164,40.518,20
192,Granitsa,21.511,39.101,112
39,Platanorrevma,22.024,40.201,20
46,Metaxas,21.971,40.084,28
66,Patris,22.187,40.56,28
39,Petrilon,21.596,39.271,20
39,Ampelokipoi,20.872,37.758,24
112,Galatades,22.278,40.756,55
66,Alevrada,21.438,38.929,33
66,Kastrakion,21.348,38.738,33
94,Kastanea,22.122,40.407,33
112,Kalyvia,21.292,38.619,39
39,Gerakarion,21.85,39.807,28
55,Stratos,21.318,38.668,28
66,Mavrelion,21.867,39.838,46
39,Akrotiri,20.902,37.804,20
33,Esovalta,22.263,40.707,20
28,Laganas,20.865,37.724,24
39,Loutron,21.933,39.968,24
46,Mouria,21.717,39.487,20
28,Kryopigi,21.663,39.37,20
55,Spolaita,21.346,38.698,20
112,Georgianoi,22.168,40.468,20
79,Pentalofon,21.246,38.485,55
66,Lesinion,21.231,38.454,24
24,Tripotamos,22.18,40.493,20
28,Akrolimni,22.266,40.683,24
39,Ardanion,21.788,39.63,20
24,Mavrommation,21.693,39.423,20
39,Anthochorion,21.662,39.357,20
24,Achladochorion,22.343,40.837,20
66,Akri,21.964,39.998,28
39,Karyotissa,22.313,40.77,20
33,Gelanthi,21.706,39.44,20
66,Limerion,21.532,39.065,28
24,Margaraiika,20.897,37.742,20
112,Trovaton,21.603,39.216,55
476,Veroia,22.206,40.521,230
66,Agios Loukas,22.296,40.72,24
24,Ellinokastron,21.693,39.397,20
571,Trikala,21.768,39.556,397
28,Platanos,21.323,38.61,20
79,Eleftherochorion,22.374,40.884,39
66,Stamna,21.281,38.515,28
39,Nea Lykogianni,22.237,40.572,20
66,Karpi,22.421,40.984,24
46,Griva,22.41,40.955,24
46,Lefkopetra,22.178,40.429,28
28,Nea Nikomideia,22.25,40.588,28
46,Voulpi,21.539,39.042,20
46,Krinitsa,21.795,39.588,20
24,Neapoli,21.363,38.67,20
46,Chamilon,22.482,41.104,20
39,Lazarina,21.738,39.462,20
46,Omalon,22.399,40.909,20
24,Lioprason,21.839,39.672,24
112,Krya Vrysi,22.303,40.687,94
46,Pentalofon,22.412,40.929,20
112,Kranea Elassonos,21.971,39.952,94
55,Longa,21.904,39.805,28
33,Rachi,22.214,40.485,20
55,Kryonerion,21.687,39.333,39
28,Agios Ilias,21.288,38.488,20
46,Palaiopyrgos,21.815,39.607,33
33,Axos,22.362,40.801,20
28,Melission,22.353,40.775,20
46,Fylakti,21.683,39.303,24
28,Kefalovrysos,21.307,38.505,20
39,Eidomeni,22.512,41.122,28
33,Tsapournia,22.029,40.043,20
55,Triantaiika,21.382,38.655,20
39,Mastron,21.278,38.437,20
39,Ampeleiai,22.388,40.835,20
79,Plagia,22.497,41.08,33
28,Epiniana,21.615,39.143,24
28,Agios Prokopios,21.555,39.017,28
55,Ellinopyrgos,21.735,39.4,28
55,Tripotamon,21.524,38.946,33
55,Raina,21.419,38.722,28
112,Megala Kalyvia,21.784,39.497,46
94,Ampelia,21.467,38.818,39
33,Magoula,21.265,38.394,20
33,Lysimacheia,21.338,38.546,28
39,Daskion,22.172,40.337,24
46,Magoulitsa,21.761,39.439,24
46,Agia Varvara,22.246,40.496,28
94,Sarantaporon,22.053,40.066,55
134,Goumenissa,22.451,40.946,66
33,Kappas,21.755,39.413,20
39,Agia Kyriaki,21.803,39.516,20
33,Dokimion,21.379,38.615,20
46,Tsoukka,21.556,38.984,24
66,Sfikia,22.209,40.386,28
33,Marmara,21.292,38.415,20
28,Lefka,21.38,38.588,20
66,Stavros,22.308,40.59,33
33,Ano Vasilikos,20.968,37.733,20
33,Chrysavgi,21.852,39.585,20
79,Pigi,22.498,41.011,28
28,Bouza,21.31,38.429,20
66,Megalochorion,21.844,39.56,46
55,Morfovounion,21.75,39.353,55
79,Polydendron,22.24,40.42,28
112,Agrafa,21.65,39.138,79
685,Agrinion,21.409,38.627,276
230,Rizomata,22.211,40.35,55
24,Longos,21.837,39.529,20
397,Giannitsa,22.411,40.793,230
79,Chrysovergion,21.352,38.501,33
134,Kyparissos,21.482,38.769,79
28,Agios Akakios,21.772,39.382,20
55,Evzonoi,22.558,41.105,24
112,Fteri,22.15,40.194,55
112,Vasilikos,20.981,37.716,46
28,Giannouzi,21.409,38.595,20
46,Krentis,21.603,39.001,33
160,Neochorion,21.733,39.276,66
28,Chalikion,21.355,38.477,20
39,Fanarion,21.799,39.416,28
39,Kouloura,22.318,40.547,33
33,Palaiochorion,21.826,39.469,20
24,Stathis,22.5,40.951,20
46,Filyria,22.479,40.9,24
33,Leptokarya,22.462,40.862,28
66,Chouni,21.536,38.841,39
79,Damianon,22.45,40.829,33
33,Kanalia,21.799,39.399,20
94,Marathos,21.653,39.086,39
39,Belokomiti,21.734,39.256,20
192,Verdikoussa,21.977,39.781,112
46,Patoulia,21.864,39.536,20
39,Valanida,22.046,39.927,39
33,Agnanteron,21.847,39.488,33
28,Kamaroula,21.445,38.63,20
55,Kefalovryson,21.365,38.461,20
112,Aitolikon,21.354,38.437,55
46,Skoutera,21.475,38.686,33
94,Dytiki Fragkista,21.605,38.957,94
66,Mikron Dasos,22.572,41.07,24
39,Kleisoura,22.07,39.954,20
46,Gorgopi,22.524,40.961,24
33,Kranea,21.836,39.446,24
28,Nea Avorani,21.443,38.609,20
39,Zevgarakion,21.412,38.536,39
28,Kampochorion,22.371,40.607,20
79,Vergina,22.318,40.486,46
28,Episkopi,22.365,40.59,20
28,Axioupoli,22.542,40.986,20
230,Livadi,22.157,40.127,94
28,Faneromeni,21.891,39.546,20
33,Kerasochorion,21.639,39.006,20
39,Pentakorfon,21.534,38.783,33
79,Panaitolion,21.443,38.584,33
28,Kefalochorion,22.366,40.569,20
55,Moschaton,21.795,39.319,24
94,Pefkodasos,22.577,41.039,33
24,Kato Ellinika,21.401,38.484,20
33,Agios Athanasios,21.779,39.282,28
94,Agios Georgios,21.599,38.9,46
55,Paralimni,22.453,40.751,24
24,Lamperon,21.78,39.271,20
24,Kastanoula,21.537,38.755,20
33,Polypetron,22.513,40.877,20
94,Kyllini,21.144,37.934,33
24,Elatochorion,22.267,40.32,24
192,Polykastron,22.57,40.996,160
66,Kefalovryson,22.072,39.891,28
24,Vrysakion,22.403,40.62,20
66,Toumpa,22.544,40.935,20
24,Palatitsia,22.343,40.484,20
55,Paliampela,22.01,39.752,20
55,Rizovounion,21.867,39.438,20
94,Pontoirakleia,22.622,41.105,94
39,Mesianon,22.479,40.78,20
33,Arkoudi,21.11,37.846,24
24,Ano Mousoura,21.406,38.457,20
33,Agrosykea,22.508,40.843,20
55,Sitomena,21.531,38.717,20
55,Gerania,22.135,40.011,33
28,Petroporos,21.929,39.56,24
55,Sykea,22.054,39.829,28
112,Kastron,21.139,37.891,46
94,Loutros,22.401,40.589,33
33,Servota,21.908,39.504,20
66,Proastion,21.902,39.489,33
112,Agia Paraskevi,21.529,38.69,55
55,Karoplesion,21.758,39.174,24
55,Dolichi,22.169,40.064,39
79,Mitropolis,21.837,39.34,46
33,Fragkon,21.844,39.355,20
39,Schoinas,22.435,40.648,20
46,Dytikon,22.531,40.857,28
112,Korona,22.667,41.163,39
66,Drosopigi,21.569,38.76,24
39,Ampelia,22.04,39.767,24
46,Agia Trias,21.899,39.462,20
55,Prodromos,22.396,40.551,24
24,Nea Pella,22.492,40.762,20
46,Kokkinogeion,22.165,40.034,20
39,Nea Viniani,21.674,38.977,24
28,Valtotopion,22.573,40.941,20
39,Agia Varvara,21.53,38.671,20
55,Ano Kerasovon,21.444,38.489,33
79,Evropos,22.554,40.896,66
33,Palaiokklision,21.863,39.377,24
24,Ryzia,22.57,40.93,20
24,Nomi,21.935,39.529,20
46,Diasellon,22.017,39.704,39
94,Ritini,22.284,40.289,66
46,Petroton,21.963,39.585,20
33,Metamorfosis,22.659,41.118,20
33,Agios Georgios,21.835,39.297,20
28,Peristerion,21.529,38.649,20
79,Moschopotamos,22.309,40.326,33
192,Oichalia,21.98,39.607,94
276,Alexandreia,22.446,40.628,134
39,Glyfa,21.144,37.842,20
134,Mataragka,21.473,38.525,46
134,Meliki,22.398,40.518,94
46,Kato Retsina,21.43,38.43,20
55,Lygia,21.155,37.86,24
33,Magoula,22.081,39.814,20
28,Paravola,21.521,38.614,20
192,Ampelia,21.628,38.838,39
24,Artesianon,21.894,39.404,20
55,Sykea,22.376,40.455,24
33,Nea Kavala,22.617,40.989,24
112,Dafni,21.726,39.034,66
39,Rachona,22.54,40.811,24
94,Pedinon,21.953,39.517,28
33,Xinonerion,21.861,39.317,20
33,Katafygion,21.83,39.251,20
134,Evangelismos,22.104,39.839,55
24,Mesia,22.575,40.882,20
55,Pella,22.526,40.762,28
24,Karyes,22.294,40.239,20
46,Drymos,22.147,39.916,28
24,Neokastron,22.415,40.504,20
24,Velota,21.628,38.799,20
66,Neraida,21.79,39.141,46
24,Krini,22.012,39.615,20
24,Mesaia Milia,22.303,40.25,20
28,Agrilia,21.443,38.403,20
79,Ampelikon,21.857,39.278,28
46,Neochorion,21.205,37.908,20
46,Agios Petros,22.583,40.868,20
55,Machos,21.194,37.884,20
28,Filothei,21.436,38.384,20
33,Neos Prodromos,22.435,40.536,20
28,Nisellion,22.463,40.595,24
230,Mesolongion,21.431,38.369,192
39,Vria,22.323,40.274,20
112,Kallithea,22.191,39.981,66
66,Aspropyrgos,21.638,38.787,33
33,Palaiokarya,21.564,38.631,24
24,Meliadion,22.351,40.323,24
55,Karditsomagoula,21.924,39.392,24
55,Vlachogiannion,22.087,39.742,55
46,Sella,21.681,38.87,28
55,Katalonia,22.367,40.351,20
39,Vafiochorion,22.661,41.01,39
39,Klokotos,22.008,39.565,28
46,Pantanassa,21.556,38.602,24
66,Stenoma,21.733,38.973,39
46,Lampirion,21.606,38.703,39
66,Ryakia,22.393,40.403,24
39,Marathea,21.996,39.531,24
33,Arachos,22.51,40.66,20
66,Foteina,22.312,40.22,33
39,Gavalou,21.527,38.528,33
33,Vartholomio,21.207,37.862,33
94,Domenikon,22.119,39.791,39
28,Trichonion,21.536,38.542,20
55,Lagorrachi,22.351,40.295,28
66,Agkathia,22.47,40.555,39
94,Athyra,22.591,40.825,39
79,Mega Eleftherochorion,22.078,39.691,39
66,Grizanon,22.054,39.632,33
134,Koufalia,22.577,40.781,94
66,Rachoula,21.874,39.239,28
46,Domianoi,21.771,39.016,28
46,Agios Thomas,21.472,38.387,24
28,Kato Milia,22.343,40.254,24
55,Elafos,22.397,40.373,39
94,Kalyvia,22.241,40.023,39
39,Koryfi,22.503,40.603,33
28,Palaiochora,22.498,40.59,20
55,Akritas,22.745,41.146,33
46,Psathochorion,21.99,39.475,20
79,Vracha,21.8,39.066,46
39,Doirani,22.761,41.178,28
24,Panagitsa,22.052,39.605,20
66,Lechaina,21.263,37.937,24
33,Mouriai,22.796,41.254,24
476,Elasson,22.189,39.895,112
55,Loudias,22.543,40.677,24
39,Myrina,21.965,39.408,24
39,Kallithiron,21.906,39.281,33
24,Agios Andreas,21.552,38.527,20
24,Vareia,21.587,38.594,20
55,Platy,22.532,40.64,55
24,Toxon,22.398,40.342,20
55,Kastanea,22.451,40.458,20
55,Koskinas,22.012,39.494,28
39,Mavrika,21.942,39.343,20
46,Mesochorion,21.826,39.088,20
33,Axiochorion,22.643,40.875,20
46,Stefanovounon,22.181,39.845,33
66,Iliolouston,22.732,41.063,28
94,Kallithea,21.614,38.624,33
79,Farkadon,22.068,39.592,55
46,Olympias,22.254,39.987,28
33,Zaimion,21.939,39.299,20
160,Molocha,21.871,39.153,46
28,Manolas,21.349,38.047,20
66,Kolindros,22.484,40.479,33
33,Flampouron,22.253,39.97,20
55,Kavasilas,21.267,37.876,20
24,Lefkon,21.621,38.613,20
46,Araxos,21.408,38.165,28
94,Kourtesion,21.318,37.979,39
112,Lofos,22.381,40.244,39
39,Exochi,22.429,40.349,20
39,Palaiomylos,21.612,38.586,28
28,Paliampela,22.504,40.511,24
94,Chalkidon,22.602,40.732,39
28,Neon Mikron Chorion,21.735,38.843,20
28,Agios Charalampos,22.814,41.205,20
276,Stathmos Mourion,22.839,41.262,192
24,Thanasoulaiika,21.342,38.013,20
55,Metochion,21.4,38.126,20
39,Metamorfosis,22.053,39.507,24
94,Chorygion,22.727,40.995,79
24,Eleftherochorion,22.761,41.074,20
79,Myriofyton,22.828,41.223,33
160,Drosaton,22.803,41.166,66
66,Akropotamos,22.66,40.838,20
39,Tsaritsani,22.228,39.88,24
46,Megali Gefyra,22.526,40.533,20
66,Keramidion,22.083,39.559,24
24,Ano Kourtesion,21.329,37.966,20
79,Trikala,22.557,40.599,28
94,Klafsion,21.762,38.869,24
94,Mega Chorion,21.743,38.827,66
28,Agioi Theodoroi,21.32,37.944,20
28,Ptelopoula,21.978,39.326,20
160,Agia Trias,21.819,38.987,66
46,Gorgovitai,22.014,39.402,24
39,Eleousa,22.627,40.748,20
94,Trilofos,22.457,40.37,46
276,Varda,21.364,38.031,79
28,Parthenion,22.607,40.699,24
39,Kastanas,22.661,40.82,20
39,Kalindria,22.791,41.114,20
160,Cherso,22.781,41.09,66
33,Mesarista,21.587,38.485,20
28,Nea Manolas,21.381,38.053,20
24,Agios Theodoros,22.005,39.369,20
397,Karpenision,21.794,38.914,276
33,Drymon,21.665,38.635,20
112,Adendron,22.605,40.672,39
46,Zarkos,22.124,39.609,33
24,Dafnospilia,21.947,39.228,24
66,Evinochorion,21.537,38.36,66
33,Kastaneai,22.764,41.025,20
33,Traganon,21.315,37.898,28
24,Koroivos,21.298,37.862,20
39,Kokori,21.546,38.376,20
46,Markos,22.044,39.431,28
94,Apidea,21.938,39.199,24
33,Kapsorachi,21.612,38.505,20
160,Fourna,21.876,39.061,79
39,Koutsocherion,21.571,38.415,20
55,Lapas,21.419,38.098,33
46,Kapeleton,21.37,37.997,28
79,Lakkopetra,21.455,38.171,46
24,Agia Mavra,21.312,37.875,20
28,Valtochorion,22.637,40.719,20
112,Vlochos,22.093,39.52,39
230,Aiginion,22.542,40.502,94
55,Karpochorion,22.01,39.335,46
28,Psarion,21.387,38.021,20
46,Palaion Gynaikokastron,22.745,40.95,24
55,Petrochorion,21.647,38.547,24
276,Palamas,22.081,39.47,94
55,Palaion Keramidion,22.467,40.313,33
46,Anthofyton,22.711,40.853,28
33,Vaptistis,22.773,40.992,20
28,Agia Kyriaki,22.831,41.121,20
39,Kalyvakia,22.075,39.446,20
39,Katachas,22.541,40.467,28
24,Makrinou,21.618,38.473,20
46,Roupakion,21.324,37.862,28
33,Apideon,21.428,38.074,20
79,Neon Gynaikokastron,22.747,40.921,55
55,Kleidion,22.589,40.567,24
28,Ampelokampos,21.312,37.831,20
46,Melissa,21.373,37.951,39
28,Olga,21.35,37.9,24
39,Neon Agionerion,22.706,40.813,20
24,Koukkos,22.515,40.385,20
46,Paliourion,21.982,39.219,39
28,Vrachia,22.64,40.661,24
39,Svoronos,22.465,40.269,28
46,Megali Vrysi,22.795,41.006,39
39,Vrontou,22.433,40.192,28
33,Marathea,21.31,37.796,20
28,Agios Spyridon,22.443,40.206,20
33,Kouroutas,21.297,37.768,24
55,Plagia,22.845,41.105,39
28,Kato Apostoloi,22.758,40.907,20
46,Limnochorion,21.48,38.142,20
66,Vathylakkos,21.952,39.13,28
94,Mataragka,22.074,39.39,39
134,Sitaralona,21.661,38.511,46
28,Kalamakion,21.493,38.157,24
66,Kontariotissa,22.461,40.226,28
94,Sagaiika,21.471,38.107,46
24,Metallikon,22.817,41.02,20
46,Sfendamio,22.547,40.413,28
66,Kalyvia,21.365,37.885,20
66,Pineias,22.175,39.591,33
39,Vathylakkos,22.708,40.769,28
39,Pitsiota,21.908,39.017,24
39,Gefyra,22.693,40.733,24
24,Palouki,21.306,37.756,20
39,Alonia,22.543,40.393,20
33,Pyrgos Kieriou,22.077,39.368,20
28,Mavrilon,21.879,38.946,20
24,Kryonerion,21.594,38.344,20
28,Theodoreion,22.933,41.263,20
55,Sykaminea,22.352,39.963,24
33,Kagkadion,21.45,38.042,20
66,Ermitsion,22.105,39.42,28
33,Kato Chrysovitsa,21.701,38.56,24
66,Antigoneia,22.877,41.129,24
55,Ampelos,22.046,39.288,33
55,Kentrikon,22.894,41.165,46
24,Nea Trapezous,22.526,40.335,20
24,Nea Agathoupolis,22.583,40.459,20
46,Platanakia,22.952,41.291,33
24,Loutron,22.017,39.221,20
33,Koniska,21.751,38.656,33
112,Riolos,21.463,38.056,33
46,Agios Nikolaos,21.865,38.895,28
39,Sevasti,22.544,40.359,20
134,Trikorfon,21.64,38.41,55
33,Gomoston,21.503,38.121,20
24,Kato Agios Ioannis,22.531,40.323,24
55,Gavrolimni,21.63,38.383,24
55,Methoni,22.588,40.446,24
66,Thrapsimion,22.006,39.173,33
55,Aidonochorion,21.969,39.093,24
39,Avarikos,21.703,38.53,24
230,Amalias,21.351,37.797,94
822,Katerini,22.511,40.269,276
66,Petrinon,22.158,39.497,33
33,Diasellakion,21.737,38.598,33
66,Kardamas,21.34,37.767,24
55,Anatoli,22.948,41.239,24
160,Karitsa,22.48,40.188,66
55,Kato Vasiliki,21.625,38.352,46
134,Mikrokampos,22.773,40.842,39
24,Kefalaiika,21.466,38.019,20
66,Filia,22.054,39.255,24
24,Nea Efesos,22.5,40.227,24
55,Mesokomi,21.803,38.719,33
94,Chavarion,21.386,37.849,46
24,Ano Apostoloi,22.804,40.903,20
24,Astritsa,22.145,39.446,20
230,Karya,22.393,39.983,94
33,Merkada,21.912,38.944,24
24,Nea Chrani,22.542,40.309,20
39,Kritiri,22.291,39.756,20
160,Sofades,22.098,39.337,112
24,Alykai,21.541,38.156,20
94,Agios Athanasios,22.727,40.714,55
33,Krinos,21.499,38.066,20
94,Rentina,21.974,39.065,46
24,Makrinitsa,22.986,41.297,20
94,Kedros,22.043,39.21,33
28,Dion,22.486,40.172,20
46,Dikastron,21.942,38.992,33
39,Krikellon,21.851,38.797,20
33,Panagia,21.363,37.78,20
33,Analipsis,21.707,38.493,33
28,Achladokastron,21.75,38.582,20
24,Mavrachades,22.073,39.267,20
24,Myrtos,21.509,38.077,20
46,Korakochorion,21.315,37.675,20
66,Anatolikon,22.711,40.663,24
28,Skafidia,21.328,37.698,20
79,Itea,22.165,39.456,55
55,Mavronerion,22.814,40.886,33
39,Kymina,22.693,40.615,24
24,Peristasis,22.541,40.274,20
160,Makrygialos,22.606,40.415,66
39,Xirochorion,22.779,40.803,28
79,Loutron,22.209,39.544,33
276,Kato Achaia,21.552,38.144,112
39,Diplatanos,21.807,38.676,33
79,Amygdalea,22.264,39.654,24
94,Katakolon,21.316,37.651,33
134,Domnista,21.848,38.756,55
46,Zacharaton,22.887,41.027,24
33,Gerakarion,22.922,41.104,28
55,Myrtea,21.35,37.714,39
55,Kypseli,22.141,39.375,33
66,Perista,21.792,38.631,24
79,Kristoni,22.858,40.957,33
571,Kilkis,22.876,40.995,276
94,Nea Mesimvria,22.77,40.752,33
39,Gerakion,21.395,37.795,28
33,Dafni,21.428,37.861,20
66,Kentron,21.447,37.898,33
33,Ampelon,22.168,39.418,20
39,Karya,21.546,38.103,28
79,Mandra,22.26,39.615,33
28,Chanakia,21.369,37.726,20
39,Sykeai,22.205,39.486,28
39,Dafni,21.475,37.941,20
33,Nea Zoi,22.128,39.318,20
28,Aetorrachi,21.468,37.926,20
112,Platanos,21.792,38.601,39
46,Stavloi,21.876,38.775,20
112,Korinos,22.587,40.315,46
79,Agios Georgios,21.958,38.946,33
24,Agios Ilias,21.454,37.885,20
33,Agios Vissarios,22.127,39.3,20
24,Agios Nikolaos,21.513,38.004,24
28,Skourochorion,21.358,37.686,20
160,Chalastra,22.734,40.627,46
46,Alyki,22.625,40.379,28
79,Rovoliarion,21.995,39.007,46
39,Kryoneron,21.435,37.834,20
55,Kallithea,22.578,40.271,33
33,Platanoulia,22.308,39.677,20
331,Litochoron,22.505,40.105,134
39,Rodia,22.366,39.799,39
24,Agios Dimitrios,21.836,38.662,20
134,Vathi,22.971,41.143,66
33,Pougkakia,21.93,38.851,20
55,Michoion,21.51,37.972,20
39,Anavra,22.093,39.191,24
33,Analipsis,21.436,37.809,20
55,Keramidia,21.458,37.854,46
28,Riza,21.703,38.356,20
66,Pitsinaiika,21.743,38.435,46
79,Vounaina,22.245,39.501,24
112,Vounargon,21.408,37.736,33
33,Rachoula,22.295,39.608,24
79,Kallipefki,22.46,39.966,46
230,Arachova,21.866,38.686,79
66,Limin Litochorou,22.546,40.154,39
28,Achaikon,21.597,38.123,20
46,Giannouli,22.396,39.665,20
28,Monastirakion,23.033,41.225,24
55,Ampelon,22.361,39.745,46
33,Egnatia,22.917,40.694,20
55,Riganion,21.772,38.484,39
66,Lousika,21.592,38.109,28
24,Ano Velitsai,21.53,37.953,24
46,Filothei,21.967,38.45,28
66,Fyska,22.994,41.11,24
28,Velanidion,21.508,37.889,24
79,Kappadokikon,22.141,39.265,55
112,Mikron Vounon,22.256,39.457,33
79,Myra,22.547,39.454,33
28,Karperi,23.306,41.133,20
94,Dendra,22.338,39.689,33
192,Kampanis,22.916,40.889,39
55,Livadia,23.076,41.252,24
28,Molykreion,21.753,38.359,20
55,Kato Ktimeni,22.119,39.134,33
33,Panteleimon,22.892,40.831,20
55,Komma,22.433,38.856,24
66,Nea Filadelfeia,22.84,40.797,39
28,Skepaston,22.074,38.043,24
28,Adam,23.302,40.555,20
79,Ano Diakopton,22.23,38.136,39
55,Palaiopyrgos,21.842,38.5,33
79,Nea Santa,22.919,40.843,46
55,Latas,21.546,37.878,20
66,Skotina,22.554,40.016,33
33,Paralimnion,23.67,40.986,28
46,Argyroupolis,22.928,40.991,33
24,Portaria,22.997,39.389,20
55,Mavrovounion,22.269,39.53,24
24,Keramidia,21.404,37.706,20
39,Rentina,23.614,40.657,33
33,Vryotopos,22.375,39.758,20
66,Varvara,23.659,40.57,39
160,Giannitsou,22.112,38.995,39
66,Kanalia,21.965,38.874,33
66,Gialtra,22.976,38.864,39
112,Rion,21.785,38.297,46
66,Makrychorion,22.492,39.804,46
39,Kaminia,21.62,38.148,28
39,Kallithea,21.728,38.164,20
66,Varvasaina,21.5,37.673,39
55,Koryfi,21.434,37.76,24
39,Agios Vasileios,21.817,38.313,20
66,Makrakomi,22.116,38.942,24
55,Terpyllos,22.955,41.039,33
192,Argyria,22.055,38.798,79
79,Epitalion,21.495,37.626,39
66,Examilion,23.004,40.865,20
192,Platamon,22.624,39.991,46
230,Spercheias,22.126,38.908,192
24,Kastrakion,21.895,38.418,20
24,Salmoni,21.534,37.66,20
39,Elatou,21.978,38.584,20
33,Latzoion,21.56,37.708,20
66,Ano Kastritsion,21.835,38.272,33
39,Panagia,22.225,39.093,28
46,Orfana,22.221,39.406,24
39,Lastaiika,21.407,37.695,24
39,Kato Theodorakion,23.007,41.145,20
24,Barakes,21.677,37.9,20
33,Gallikos,22.881,40.858,24
79,Goumeron,21.62,37.762,55
28,Agios Sostis,22.164,38.897,24
33,Makyneia,21.725,38.346,24
46,Lagyna,23.005,40.723,24
66,Theodosia,23.127,40.986,39
46,Chara,22.43,39.418,20
24,Prasinon,21.422,37.715,20
276,Peraia,22.926,40.501,66
46,Sindos,22.802,40.673,33
134,Koilada,22.304,39.573,39
33,Dipotamos,22.958,41.023,20
28,Oraia,21.493,37.857,20
46,Pylaia,22.986,40.601,20
39,Lithotopos,23.223,41.135,24
24,Polylofon,21.571,38.018,20
39,Agios Dimitrios,21.786,37.994,33
55,Eleftherion,22.578,39.676,33
55,Neon Petritsion,23.294,41.276,55
33,Makrisia,21.604,37.61,20
46,Samikon,21.586,37.573,20
28,Tragano,21.406,37.675,20
46,Lefkas,21.998,38.909,28
28,Ptelea,22.01,38.934,20
24,Kampos,21.502,37.869,20
55,Pontismenon,23.285,41.21,24
79,Paschalitsa,22.209,39.356,28
55,Trilofon,22.97,40.468,33
46,Lefka,22.351,39.105,20
39,Myrovrysi,21.957,38.243,20
28,Petroton,22.873,40.814,20
112,Stomion,22.731,39.868,55
79,Peristerion,21.475,37.805,33
66,Arla,21.598,38.057,33
28,Valteron,23.32,41.179,24
55,Evangelistria,23.236,40.984,20
39,Leianokladion,22.303,38.916,39
134,Leontarion,22.133,39.182,79
66,Melia,22.607,39.567,33
66,Ampeleia,22.493,39.31,28
160,Lampeia,21.807,37.858,55
39,Charopon,23.377,41.264,20
28,Kalamakion,21.622,38.102,20
39,Ammoudia,23.335,41.142,28
46,Glyfada,22.076,38.381,39
66,Gardikion,21.973,38.835,28
33,Klepa,21.903,38.682,24
24,Schinoi,21.677,37.481,20
66,Milea,22.147,38.449,39
94,Skotoussa,23.381,41.129,55
55,Livartzion,21.909,37.924,24
55,Lofiskos,23.225,40.773,39
55,Santomerion,21.574,37.988,33
39,Plaka,22.563,40.099,33
55,Gefyria,22.193,39.292,24
39,Mandrai,22.909,40.871,20
331,Aigion,22.081,38.248,230
46,Pentalofos,22.853,40.744,46
33,Livadochorion,23.362,41.025,20
66,Voutsis,21.859,37.767,28
39,Melissia,22.062,38.184,20
79,Melivoia,22.797,39.75,33
39,Rachai,21.843,37.716,20
66,Palaia Giannitsou,22.075,39.033,28
55,Eleftheriani,21.854,38.565,33
33,Ampeloi,23.371,41.008,28
160,Divri,22.454,38.975,46
33,Elaia,21.691,37.375,20
66,Kapnofyton,23.502,41.291,28
79,Kontovazaina,21.899,37.797,46
55,Nea Gonia,23.094,40.363,20
476,Filiatra,21.587,37.157,276
33,Gorgopotamos,22.395,38.833,20
24,Lefki,22.24,39.385,20
55,Gerakarou,23.218,40.627,55
66,Eretria,22.616,39.297,20
39,Falanna,22.397,39.722,24
24,Avgi,23.314,40.813,20
39,Eliki,22.123,38.218,20
33,Efyra,21.516,37.855,20
134,Malandrinon,22.238,38.456,55
33,Lagkouvardos,21.584,37.091,20
55,Terpsithea,22.351,39.62,39
79,Kalon Neron,21.698,37.297,39
24,Mandrini,21.938,38.73,20
24,Vitoli,22.036,38.937,20
79,Vrachnaiika,21.668,38.163,33
160,Stefanovikeion,22.743,39.465,66
39,Kokkinia,23.008,41.073,28
24,Anthopyrgos,21.439,37.687,20
94,Anthili,22.481,38.85,28
24,Monodendrion,21.676,38.174,20
46,Kastellia,22.417,38.697,20
55,Doumena,22.137,38.106,24
28,Eleftherai,22.338,39.577,20
33,Ampelakiotissa,21.887,38.613,24
24,Vyzikion,21.961,37.721,20
230,Zagkliverion,23.289,40.572,79
46,Chrysopigi,23.559,41.168,20
66,Pigadia,21.606,38.021,28
33,Kato Damasta,22.493,38.803,28
39,Peristerona,23.343,40.661,20
46,Ampelon,21.465,37.729,33
476,Amfissa,22.379,38.527,276
46,Mouria,22.019,37.762,20
55,Ano Lousoi,22.138,38,24
66,Nea Triglia,23.209,40.306,55
230,Portai,21.569,37.94,66
46,Pournaria,22.035,37.783,20
822,Pyrgos,21.439,37.672,476
79,Leptokarya,22.564,40.058,39
46,Servos,21.989,37.659,24
46,Matesion,21.926,37.53,33
112,Gonnoi,22.475,39.86,79
33,Krannon,22.319,39.518,28
94,Kouvelas,21.877,37.375,33
112,Paralia,21.698,38.198,39
55,Vathytopos,23.711,41.352,46
66,Platanitis,21.781,38.37,28
112,Kerkini,23.084,41.219,94
55,Tsoukka,22.058,38.956,39
55,Kalamoton,23.374,40.556,55
66,Antirrion,21.763,38.331,24
46,Oinoi,21.525,37.837,28
66,Vavdos,23.323,40.426,33
66,Xiropotamos,23.484,40.763,33
24,Sana,23.376,40.507,20
24,Asimochorion,22.164,39.173,20
79,Ypereia,22.265,39.389,28
24,Chrisso,22.466,38.475,20
46,Parapotamos,22.469,39.83,20
33,Neos Platanos,22.794,39.163,24
46,Dimini,22.894,39.358,33
33,Monolofon,22.909,40.804,20
24,Agion Pnevma,23.681,41.101,20
160,Molos,22.645,38.809,79
24,Pyrgotos,22.944,40.881,20
112,Gyrtoni,22.437,39.754,28
55,Diavata,22.857,40.686,39
33,Krimni,23.448,40.547,20
39,Fytokon,22.937,39.407,20
66,Kryoneria,21.922,38.648,24
33,Patrikion,23.61,40.901,20
24,Kokkalou,23.493,40.625,20
24,Chaikalion,21.663,38.102,20
112,Achinos,22.724,38.893,66
134,Stavros,22.238,39.315,55
28,Soulinarion,21.807,36.97,20
94,Fteri,22.045,38.899,39
39,Achinos,23.654,40.92,28
33,Neon Ikonion,22.22,39.274,20
2042,Patrai,21.735,38.245,1419
112,Kato Mazarakion,21.651,38.07,55
66,Toumpa,23.707,41.023,20
24,Makrinitsa,22.987,39.401,20
79,Lefka,21.966,38.73,46
66,Kalyvai Polygyrou,23.392,40.284,55
331,Kato Nevrokopion,23.867,41.344,112
39,Akropotamia,22.974,40.931,20
66,Strefion,21.89,37.052,55
112,Koronouda,23,40.99,20
28,Kamaria,21.774,36.811,20
33,Kyriakochorion,22.014,38.824,28
28,Psychikon,22.3,39.437,28
112,Mikropolis,23.822,41.191,94
39,Dasochorion,22.418,39.692,24
46,Cheimadion,21.505,37.761,24
39,Kydonea,21.961,38.71,20
46,Paniperion,21.88,36.985,20
55,Androusa,21.943,37.11,33
28,Flokas,21.636,38.029,20
66,Zoni,22.12,37.462,33
24,Dafni,21.909,37.018,20
24,Agia Sotira,21.887,36.972,20
39,Grammatikon,22.214,39.245,28
46,Gazoros,23.773,41.022,33
33,Lefkochora,21.931,37.05,20
66,Gavriani,22.875,39.001,33
94,Agios Antonios,23.059,41.111,39
46,Eptalofos,23.015,41.01,39
33,Agia Sofia,22.862,40.665,20
55,Agriani,23.829,41.09,33
24,Kolirion,21.475,37.688,20
112,Aidonochorion,23.725,40.843,24
39,Polynerion,22.265,39.349,28
192,Zagora,23.103,39.444,94
33,Agia Marina,22.707,38.569,24
28,Peristerion,22.958,40.868,20
24,Kokkinogeia,23.933,41.191,24
55,Kalochorion,22.859,40.642,33
39,Kallithea,23.447,40.075,20
28,Kato Pitsa,22.539,38.108,24
39,Myrkinos,23.819,40.901,28
24,Sopion,21.513,37.748,20
24,Dendron,22.526,38.03,20
112,Glyfa,22.967,38.953,39
33,Panteleimon,22.572,39.993,20
39,Mavronerion,22.782,38.524,28
28,Ovria,21.729,38.189,20
24,Stefani,21.7,38.128,20
39,Makryrrachi,22.155,39.087,20
33,Paralia Skotinis,22.588,40.027,20
55,Myrrini,23.889,40.951,20
24,Skala,21.842,38.423,20
28,Koulourion,22.441,39.703,20
46,Alea,22.427,37.752,28
39,Laganas,21.557,37.831,20
46,Amfipolis,23.846,40.825,20
24,Mandrakion,23.141,41.264,20
160,Potamoi,24.099,41.395,79
39,Ano Chora,21.924,38.591,33
94,Anthochorion,22.829,38.553,28
230,Nafpaktos,21.831,38.394,134
28,Anavryti,21.897,38.534,20
28,Chrysopetra,22.983,40.899,20
39,Itea,22.518,39.863,24
112,Anavryton,23.05,41.05,33
94,Xylokastron,22.635,38.077,79
46,Angista,23.962,40.976,20
134,Simopoulon,21.572,37.849,55
79,Agioi Anargyroi,22.366,39.525,46
39,Demenika,21.743,38.202,20
24,Isoma,21.695,38.101,20
33,Krinis,23.985,40.994,20
39,Lygias,21.844,38.412,20
2042,Larisa,22.419,39.639,822
46,Mazarakion,21.589,37.879,24
33,Melissochorion,22.929,40.768,20
39,Kentriki,21.919,38.566,20
112,Agios,23.059,38.905,20
66,Analipsis,22.833,38.409,24
33,Paralia Panteleimonos,22.591,40.011,24
66,Nedousa,22.233,37.144,28
46,Ekkara,22.198,39.155,46
55,Kalloni,21.976,38.681,24
55,Laodikinon,22.996,40.91,33
46,Roupakia,21.636,37.968,28
33,Elatovrysi,21.965,38.654,28
66,Kalfas,21.606,37.903,20
28,Evangelismos,22.516,39.834,20
46,Grammeni Oxya,22.007,38.736,24
46,Rapsani,22.549,39.902,24
28,Kato Varvasaina,21.49,37.657,20
39,Magoula,21.791,38.278,20
24,Ellinikon,22.298,39.351,20
192,Oraiokastron,22.922,40.725,46
28,Platystomon,22.121,38.97,20
28,Kranea,22.564,39.927,20
66,Lanthion,21.518,37.707,24
24,Kato Kastritsion,21.802,38.293,20
24,Dafni,21.864,38.422,20
28,Agia Varvara,21.63,37.933,20
39,Skioessa,21.788,38.258,28
94,Karatoulas,21.536,37.736,46
112,Katafygion,21.912,38.517,46
46,Mouzakion,21.56,37.783,33
46,Vasilikon,21.722,38.118,20
39,Agios Georgios,22.277,39.286,28
46,Krithia,22.983,40.843,33
55,Farai,21.715,38.091,39
24,Kefalovryson,21.762,38.187,20
112,Drymos,22.959,40.78,46
24,Angelochorion,22.834,40.497,24
55,Kyparissos,22.356,39.444,46
39,Akritochorion,23.178,41.271,33
24,Prodromos,21.61,37.864,20
66,Evosmon,22.916,40.673,28
33,Rodia,21.586,37.812,20
94,Perivolion,22.183,39.064,55
39,Ano Agoriani,22.21,39.122,20
55,Sofiada,22.251,39.206,28
24,Skliva,21.608,37.85,20
33,Neokastro,22.936,40.708,20
55,Romanos,21.792,38.228,20
33,Manesion,21.674,37.981,20
28,Elateia,22.535,39.812,24
79,Ampelakia,22.556,39.854,33
33,Neon Soulion,21.786,38.208,28
28,Vouliagmeni,21.606,37.835,24
134,Neon Monastirion,22.275,39.241,66
66,Chiona,21.695,38.017,24
94,Omorfochorion,22.475,39.675,33
160,Pyrgetos,22.59,39.919,66
24,Asterion,21.721,38.061,20
55,Melanthion,23.056,40.953,20
79,Perivolion,22.089,38.831,20
55,Trikorfon,21.908,38.448,20
46,Platanovrysi,21.759,38.136,20
79,Krini,22.351,39.387,46
24,Kato Mastrantonion,21.675,37.957,20
79,Aigani,22.612,39.952,24
28,Dafnoula,21.734,38.076,20
46,Anochorion,22.321,39.317,33
112,Artotina,22.034,38.7,33
33,Skouras,21.653,37.903,24
39,Velesiotai,22.247,39.151,33
24,Mikro Evydrio,22.338,39.346,24
24,Agios Georgios,21.567,37.722,20
24,Kypselochorion,22.534,39.767,24
24,Kolokythia,22.079,38.788,20
276,Terpsithea,21.974,38.564,94
39,Archanion,22.166,38.972,28
46,Managouli,21.895,38.396,20
39,Pontokerasea,23.129,41.089,39
39,Stavrodromion,21.677,37.938,39
39,Efkarpia,22.952,40.686,20
33,Liti,22.979,40.746,20
24,Agnanta,21.622,37.822,20
39,Smila,21.553,37.679,20
28,Karpeta,21.652,37.877,20
66,Loukas,21.619,37.808,20
55,Agia Trias,21.647,37.862,24
39,Alfeiousa,21.539,37.641,28
28,Polichni,22.948,40.663,20
33,Agia Trias,22.876,40.5,28
55,Nea Michaniona,22.861,40.465,33
24,Nea Kerasia,22.868,40.475,20
112,Psathopyrgos,21.876,38.329,33
46,Kato Starochori,21.748,38.061,20
66,Lefkochorion,23.07,40.925,28
28,Irakleia,21.571,37.694,20
24,Ellinikon,23.105,41.001,20
5079,Thessaloniki,22.944,40.636,2042
24,Pigadia,21.68,37.911,20
24,Neoi Poroi,22.65,39.977,20
46,Marmara,22.108,38.805,33
55,Vrysia,22.322,39.26,28
79,Efpalion,21.927,38.419,55
94,Assiros,23.031,40.821,39
39,Mesopotamia,22.168,38.924,20
112,Petroton,21.806,38.162,28
24,Sykies,22.955,40.646,20
134,Nikaia,22.465,39.562,55
39,Bantsaiika,21.712,37.965,20
46,Limnitsa,21.982,38.524,33
160,Chalandritsa,21.783,38.107,55
46,Limnochorion,23.207,41.206,20
33,Kato Aigani,22.647,39.95,20
55,Megalochorion,23.224,41.245,20
160,Erymantheia,21.725,37.982,46
79,Kalochorion,22.545,39.72,33
28,Karterai,23.082,40.91,20
94,Skiadas,21.684,37.883,66
33,Pournarion,22.575,39.775,20
39,Vasilis,22.374,39.332,28
66,Vardali,22.313,39.201,28
33,Agia Anna,21.637,37.777,20
33,Sella,21.882,38.283,28
33,Trilofon,22.221,38.999,24
55,Omvriaki,22.271,39.102,24
66,Pelopion,21.593,37.675,33
112,Kalamaria,22.95,40.583,39
33,Vyroneia,23.252,41.265,24
46,Omolion,22.642,39.896,33
134,Sykourion,22.579,39.758,94
66,Kastrion,22.204,38.946,46
331,Zappeion,22.446,39.464,55
24,Ossa,22.576,39.746,20
55,Zoodochos Pigi,22.402,39.366,24
79,Dichorion,22.068,38.653,39
55,Neai Karyai,22.469,39.51,39
55,Pefka,22.989,40.657,20
39,Pournarion,22.307,39.157,24
66,Anatoli,22.126,38.771,24
24,Kastri Loutro,22.679,39.967,20
28,Zorianos,22.025,38.558,24
55,Filyron,23.005,40.691,28
24,Irakleion,23.036,40.757,20
66,Chelidonion,21.623,37.714,33
24,Rachai,21.562,37.587,20
39,Peristerion,22.162,38.833,20
33,Kafkonia,21.615,37.688,20
79,Chalkiades,22.426,39.396,46
397,Domokos,22.302,39.128,134
55,Agios Stefanos,22.254,39.025,33
79,Pentagioi,22.053,38.592,46
66,Dorkas,23.103,40.886,39
28,Chrysochorafa,23.234,41.18,28
397,Farsala,22.385,39.296,276
112,Platykampos,22.536,39.621,39
46,Nea Lefki,22.497,39.536,24
24,Karya,22.211,38.913,20
24,Syka,22.198,38.882,20
46,Panopoulos,21.691,37.82,33
33,Kakotarion,21.701,37.837,20
79,Palaiopyrgos,22.682,39.918,24
28,Kouloura,22.688,39.932,20
79,Kalousion,21.8,38.033,46
112,Drosia,21.744,37.918,33
28,Pyrgos,22.172,38.813,20
55,Klindia,21.68,37.783,33
24,Kallikomon,21.586,37.589,20
24,Isoma,23.163,40.988,20
39,Kavallarion,23.043,40.712,20
33,Lychnon,22.199,38.863,20
33,Katarraktis,21.835,38.098,33
94,Vamvakou,22.42,39.336,39
33,Kampos,22.006,38.452,24
55,Moschokarya,22.264,38.998,20
46,Neraida,21.662,37.734,20
33,Marmarini,22.601,39.723,20
24,Kryonerion,21.657,37.721,20
24,Koromilea,22.284,39.036,20
24,Dafnos,22.099,38.639,20
94,Lagkadas,23.067,40.75,66
79,Nea Mesagkala,22.708,39.951,39
24,Rodonia,22.233,38.921,20
55,Archaia Olympia,21.626,37.646,24
66,Krokyleion,22.06,38.549,33
33,Dafni,22.157,38.753,20
160,Epanomi,22.929,40.427,55
66,Chalki,22.539,39.569,46
33,Dilofon,22.482,39.444,20
39,Asvestochorion,23.025,40.64,24
55,Ladikou,22.23,38.9,20
33,Chrysavgi,23.081,40.764,20
28,Kladeos,21.648,37.679,24
94,Spilia,22.647,39.796,39
28,Agios Konstantinos,22.469,39.402,24
46,Nea Persaina,21.69,37.758,20
66,Kastanea,22.211,38.846,24
46,Sofon,22.501,39.468,28
39,Kato Salmenikon,21.941,38.266,33
24,Polydendrion,23.117,40.817,24
94,Kato Samikon,21.596,37.545,24
39,Zilefton,22.26,38.931,24
28,Glafki,22.575,39.611,24
134,Neochorion,22.197,38.798,39
160,Xynias,22.313,39.044,46
55,Promachon,23.359,41.362,46
33,Foloi,21.718,37.791,20
192,Krestena,21.621,37.592,79
46,Achilleion,22.42,39.268,24
134,Irakleia,23.282,41.182,55
39,Chrysopigi,21.843,38.045,24
28,Mileai,21.693,37.735,20
112,Potidaneia,22.056,38.487,55
79,Petroton,22.388,39.19,46
94,Rizana,23.215,41.019,24
134,Marathias,22.015,38.395,55
79,Cheimarros,23.257,41.112,28
39,Panorama,23.026,40.587,28
94,Ypati,22.243,38.872,39
192,Xylopolis,23.179,40.927,79
66,Neon Rysion,22.989,40.496,24
28,Kyparissia,22.549,39.514,20
28,Trias,23.254,41.085,20
55,Diakopion,22.121,38.597,39
79,Nea Makrisi,22.35,39.079,33
55,Thermi,23.02,40.548,33
39,Dimitra,22.632,39.688,33
66,Vouzion,22.378,39.138,28
79,Lachanas,23.205,40.962,33
24,Lampirion,21.989,38.311,20
28,Strymonochorion,23.335,41.254,24
55,Kryovrysi,21.805,37.921,33
112,Athanasios Diakos,22.177,38.699,112
39,Vrina,21.637,37.57,20
24,Agios Georgios,22.335,39.031,20
79,Pefkai,21.689,37.674,33
160,Koumanis,21.746,37.792,66
33,Nikopolis,23.18,40.888,28
24,Nea Kalyvakia,21.672,37.635,24
24,Lakkomata,21.865,38.031,20
24,Loutra Ypatis,22.277,38.897,20
28,Moschochorion,22.558,39.499,28
79,Kamarai,21.996,38.298,39
39,Stirfaka,22.306,38.954,33
33,Linaria,21.684,37.648,20
55,Nea Skillountia,21.666,37.611,20
24,Verinon,21.967,38.23,20
24,Ano Scholarion,23.002,40.466,20
55,Dasolofos,22.492,39.344,46
55,Kolchikon,23.132,40.755,39
79,Pente Vrysai,23.156,40.808,28
276,Lalas,21.719,37.71,55
55,Namata,22.624,39.623,28
24,Kastriotissa,22.217,38.743,20
39,Zevgolation,23.283,41.085,20
24,Dilofon,22.455,39.242,20
66,Krini,21.959,38.19,24
112,Koniakos,22.177,38.642,39
28,Gryllos,21.67,37.58,20
94,Leontion,21.933,38.119,55
55,Anatoli,22.695,39.745,33
55,Kalamakion,22.352,39,24
112,Agios Vasileios,23.114,40.665,46
39,Nea Raidestos,23.052,40.525,24
79,Mavrolitharion,22.231,38.73,28
33,Mesimerion,23.009,40.413,20
33,Selianitika,22.027,38.283,20
55,Polydendrion,22.412,39.099,24
66,Neos Palamas,22.38,39.029,24
55,Xirochorion,21.654,37.509,20
39,Chorteron,23.369,41.22,20
46,Nerantziai,22.02,38.268,20
94,Chortiatis,23.1,40.61,39
28,Drakontio,23.158,40.737,20
55,Mexiatai,22.314,38.883,24
94,Narthakion,22.482,39.243,55
192,Ossa,23.204,40.837,46
79,Agkistron,23.441,41.375,66
39,Agia Paraskevi,23.049,40.483,33
24,Dafnai,21.997,38.207,20
39,Smerna,21.677,37.546,20
79,Vertiskos,23.228,40.884,33
24,Agios Nikolaos,21.654,37.496,20
24,Paraskevi,21.988,38.187,20
39,Karitsa,22.762,39.843,24
28,Kefalochorion,23.277,40.993,24
331,Zacharo,21.649,37.484,160
24,Panorama,21.645,37.472,20
46,Neon Perivolion,22.603,39.487,20
94,Kato Scholarion,23.03,40.428,39
33,Kamaroton,23.372,41.197,20
46,Plaka,21.865,37.917,20
24,Amourion,22.333,38.9,20
66,Lefkadition,22.197,38.609,24
276,Sidirokastron,23.391,41.236,112
55,Anagennisis,23.335,41.108,20
24,Louvron,21.736,37.647,20
55,Mikros Pontias,21.94,38.069,39
55,Kakovatos,21.644,37.457,24
66,Agios Antonios,22.478,39.204,28
39,Graikas,21.697,37.562,24
79,Lygaria,22.355,38.938,28
39,Kato Vasilika,22.542,39.34,28
28,Neo Chorio,21.717,37.601,20
39,Vidiakion,21.81,37.792,33
46,Ano Vlasia,21.911,38.001,28
33,Karyai,22.424,39.081,20
94,Mantasia,22.444,39.123,46
94,Anavra,22.701,39.679,39
28,Gefyroudion,23.364,41.16,20
46,Melissa,22.646,39.555,24
39,Oreini,21.852,37.87,28
46,Kalyvia Astra,21.865,37.894,20
134,Strymonikon,23.315,41.043,94
39,Achladini,21.782,37.723,20
79,Analipsis,23.174,40.72,28
94,Kastrion,22.682,39.624,24
39,Stromi,22.257,38.708,20
66,Skopia,22.468,39.156,28
24,Rododafni,22.051,38.264,20
55,Nea Irakleia,23.015,40.346,33
24,Kato Ampelia,23.399,41.213,20
112,Kounina,22.02,38.195,46
39,Vamvakia,23.343,41.083,20
24,Makrolivadon,22.419,39.037,20
33,Koumaris,22.037,38.228,20
79,Vasilakion,21.761,37.649,46
94,Kileler,22.639,39.504,39
46,Neochorion,21.658,37.434,20
28,Artemida,21.705,37.531,20
24,Aetolofos,22.725,39.687,20
28,Kompotades,22.347,38.869,24
79,Nemouta,21.791,37.701,46
94,Vamvakofyton,23.394,41.179,39
28,Kokkino Nero,22.795,39.832,20
39,Megalovryson,22.754,39.737,20
94,Diasella,21.735,37.576,66
55,Stavros,22.369,38.901,39
33,Arini,21.699,37.5,20
33,Lakkia,23.109,40.515,24
33,Lakkoma,23.054,40.391,28
55,Neraida,22.551,39.285,39
24,Souroti,23.092,40.473,24
28,Agrilia,22.387,38.929,20
24,Nea Tyroloi,23.377,41.113,20
33,Agnanteri,22.617,39.42,24
46,Agios Spyridon,22.124,38.368,33
331,Agia,22.754,39.717,160
55,Xirokampos,21.793,37.676,20
24,Kalokastron,23.336,41.015,20
39,Velimachion,21.865,37.821,24
66,Manesion,21.96,38.018,28
134,Lidorikion,22.204,38.527,112
33,Achilleion,22.675,39.535,20
55,Faia Petra,23.452,41.27,28
79,Lechourion,21.931,37.95,39
39,Melitaia,22.452,39.046,20
28,Polydameion,22.59,39.34,28
24,Panourgias,22.291,38.699,20
24,Kalidona,21.703,37.469,20
39,Agios Antonios,23.093,40.438,28
39,Kato Amygdali,22.712,39.596,24
66,Aspra Spitia,21.776,37.615,24
39,Palaiokastron,23.411,41.157,20
39,Kato Mavrikion,22.064,38.208,20
24,Milea,21.731,37.516,20
28,Niki,22.684,39.516,20
46,Kato Tripotama,21.907,37.866,28
39,Evangelismos,23.217,40.694,28
28,Agios Pavlos,23.061,40.341,24
66,Pentapolis,22.209,38.491,24
55,Platiana,21.756,37.544,24
112,Rigaion,22.614,39.35,20
39,Agrilos,21.595,37.211,20
55,Fyliadon,22.482,39.059,39
55,Provatas,23.39,41.068,28
24,Areti,23.254,40.758,20
55,Ardamerion,23.182,40.594,28
55,Kryonerion,23.281,40.815,46
39,Chora,21.837,37.698,24
160,Giannitsochorion,21.689,37.393,46
33,Frantzis,22.388,38.85,33
55,Pavliani,22.338,38.741,55
94,Peristera,23.165,40.548,46
94,Paliouria,22.833,39.807,28
192,Vasilika,23.136,40.479,55
24,Selinous,22.094,38.222,20
39,Exochikon,21.594,37.19,28
33,Triantafyllia,23.357,40.976,33
112,Nea Kallikrateia,23.063,40.313,94
24,Korfai,22.031,38.088,20
28,Agios Nikolaos,22.159,38.349,20
33,Trypiti,21.784,37.571,24
55,Petsakoi,22.039,38.098,28
55,Kaloskopi,22.321,38.69,39
33,Mikron Perivolakion,22.656,39.408,28
46,Lepreon,21.723,37.436,33
55,Sotirion,22.705,39.506,20
39,Armenion,22.697,39.488,33
33,Mega Monastirion,22.678,39.44,33
28,Digeliotika,22.12,38.25,20
24,Livadakion,21.828,37.639,20
46,Kala Dendra,23.426,41.101,24
66,Goumenissa,22.032,38.061,28
134,Kertezi,21.994,37.98,55
33,Agia Kyriaki,21.577,37.12,28
24,Monopigadon,23.135,40.433,24
1419,Lamia,22.434,38.9,397
79,Potamia,22.787,39.662,39
276,Kalamakion,22.746,39.571,66
46,Temeni,22.122,38.237,28
39,Terpsithea,21.636,37.231,20
39,Asprogeia,22.638,39.318,33
28,Ano Kamila,23.423,41.057,20
33,Tolofon,22.195,38.368,24
160,Achladochorion,23.54,41.32,79
33,Scholarion,23.256,40.672,20
46,Chrysochorion,21.851,37.646,39
79,Amygdalia,22.223,38.417,33
94,Spilia,21.64,37.211,33
33,Neochorion,22.519,39.038,24
39,Spatharis,21.906,37.747,33
24,Lagkadikia,23.247,40.636,20
33,Kato Christos,23.46,41.12,20
55,Nea Pavliani,22.399,38.77,20
230,Kyparissia,21.67,37.25,79
28,Plataniotissa,22.088,38.11,20
39,Marathopolis,21.577,37.058,39
94,Profitis,23.278,40.688,55
24,Eleftherochorio,22.643,39.284,20
79,Kallithea,21.82,37.551,55
55,Skiti,22.826,39.682,24
39,Vreston,21.8,37.509,28
33,Vergi,23.398,40.954,20
33,Agia Anastasia,23.186,40.475,20
24,Livadakion,21.814,37.53,20
94,Dimitritsion,23.413,40.985,39
33,Roditsa,22.463,38.889,20
28,Elafos,22.783,39.579,24
79,Agridion,21.99,37.892,28
230,Anavra,22.55,39.073,112
24,Anthotopos,22.602,39.184,20
39,Galarinos,23.183,40.46,33
33,Velika,22.862,39.748,20
79,Agaliani,21.728,37.35,28
112,Nea Figaleia,21.774,37.442,79
46,Kato Pteri,22.131,38.18,20
66,Krini,23.159,40.397,46
55,Kato Sotiritsa,22.858,39.731,24
66,Koumaria,23.435,41.015,24
46,Memi,21.698,37.276,20
94,Oiti,22.403,38.742,33
55,Moschochorion,22.443,38.826,24
94,Paos,21.982,37.856,33
66,Mitrousion,23.461,41.071,24
55,Nea Silata,23.133,40.329,39
24,Kato Mitrousion,23.457,41.059,20
46,Livadion,23.222,40.523,39
276,Erateini,22.229,38.36,94
230,Sochos,23.356,40.817,94
24,Chochlasti,21.604,37.066,20
46,Petralona,23.16,40.369,24
66,Valta,21.625,37.102,24
39,Irakleia,22.446,38.806,20
39,Doxa,21.923,37.707,20
24,Sisamia,23.423,40.957,20
33,Myronia,21.819,37.491,20
24,Plati,21.663,37.17,20
24,Rachai,21.717,37.279,20
79,Mamousia,22.141,38.153,39
66,Kerpini,22.107,38.081,33
79,Neochorakion,22.62,39.169,66
46,Kokkina,22.696,39.333,20
33,Chloi,22.731,39.402,20
66,Perivlepton,22.688,39.309,39
55,Perdikonerion,21.676,37.181,28
55,Lefkon,23.496,41.099,33
79,Kallianion,21.924,37.688,39
66,Priolithos,22.043,37.931,39
28,Vrysai,21.711,37.248,20
79,Rizomylos,22.748,39.427,28
55,Kato Amygdalies,21.845,37.519,24
55,Nikokleia,23.427,40.933,39
134,Sekoulas,21.878,37.585,33
79,Stivos,23.305,40.649,28
79,Agiokampos,22.878,39.699,55
33,Xirotopos,23.545,41.195,28
33,Alifeira,21.862,37.539,20
39,Nymfopetra,23.329,40.693,33
331,Tropaia,21.958,37.732,134
24,Elaiochoria,23.172,40.337,24
33,Kato Metochion,23.522,41.127,24
46,Sozopolis,23.147,40.278,33
46,Vounichora,22.306,38.449,33
160,Gargalianoi,21.637,37.067,66
33,Eleftherochorion,22.456,38.764,28
39,Sidirokastron,21.772,37.338,28
134,Velestinon,22.745,39.382,79
39,Stavrodromion,21.952,37.704,20
24,Rogoi,22.134,38.08,20
397,Kalavryta,22.111,38.032,134
24,Kato Kamila,23.483,41.02,24
28,Agia Paraskevi,23.456,40.949,20
79,Christianoupolis,21.684,37.14,33
39,Petralona,21.832,37.438,39
134,Diakopton,22.198,38.193,79
46,Sarakinion,21.933,37.64,20
55,Avlon,21.802,37.365,24
33,Fanarion,21.866,37.494,20
160,Gravia,22.43,38.671,66
160,Dafni,22.024,37.807,66
55,Agioi Pantes,22.295,38.368,39
134,Askos,23.387,40.751,46
66,Sklithron,22.874,39.609,28
55,Penteoria,22.316,38.411,28
33,Perdikonerion,21.993,37.735,24
46,Petrokerasa,23.285,40.516,33
39,Platania,21.825,37.383,20
39,Kakouraiika,21.923,37.584,28
24,Linistaina,21.858,37.447,20
24,Paralia Agion Panton,22.296,38.356,20
46,Avlakion,22.557,38.91,39
79,Agia Efthymia,22.358,38.481,39
112,Oreini,23.592,41.196,66
94,Aerinon,22.758,39.334,28
39,Lefki,21.665,37.044,20
33,Paloumpa,21.947,37.62,28
24,Agios Georgios Feron,22.777,39.369,20
1183,Serrai,23.55,41.09,397
160,Skoutari,23.519,41.017,66
39,Raptopoulon,21.742,37.186,39
112,Galatista,23.281,40.467,94
55,Peponia,23.513,40.989,24
112,Palaiochorion,22.482,38.718,39
33,Agios Georgios,22.385,38.511,20
79,Elaion,23.582,41.141,33
39,Pyrgos,21.694,37.074,20
28,Trapeza,22.23,38.176,24
39,Tritaia,22.365,38.457,20
55,Anthi,23.506,40.944,28
160,Andritsaina,21.905,37.484,160
55,Elaion,22.418,38.55,24
55,Mikrothivai,22.751,39.262,39
39,Mariolata,22.47,38.658,28
79,Mouzakion,21.718,37.096,20
33,Raftis,21.964,37.598,20
33,Aidinion,22.746,39.246,20
46,Petrochorion,21.663,36.981,20
24,Agia Marina,22.583,38.894,20
28,Agios Ioannis,23.582,41.1,20
55,Nea Tenedos,23.241,40.328,20
112,Kopanaki,21.818,37.289,94
397,Nigrita,23.501,40.908,160
33,Thermopylai,22.545,38.799,33
94,Sellas,21.786,37.209,24
66,Flogita,23.22,40.261,33
66,Koryfasion,21.684,37,46
112,Keramidion,22.91,39.572,66
28,Sernikakion,22.406,38.488,28
134,Kleitoria,22.125,37.894,112
46,Arachova,21.988,37.611,33
33,Anoixia,23.447,40.759,20
112,Mavrouda,23.468,40.805,55
55,Chora,21.718,37.052,55
46,Neochorion,23.579,41.052,24
28,Agia Eleni,23.559,41.005,24
46,Ano Vrontou,23.686,41.294,46
79,Lagkadia,22.029,37.682,55
46,Krokion,22.751,39.205,20
112,Kanalia,22.886,39.497,79
192,Stylis,22.616,38.913,112
79,Megali Volvi,23.427,40.696,39
94,Filia,22.115,37.853,33
46,Chalkias,21.873,37.353,20
24,Paralia Platanou,22.271,38.171,24
94,Doumpia,23.351,40.513,33
33,Lilaia,22.496,38.635,20
33,Kalamias,22.267,38.149,20
66,Sesklo,22.834,39.355,39
94,Planiteron,22.168,37.939,39
79,Aetos,21.834,37.246,33
160,Kofoi,22.721,39.103,55
33,Dorion,21.856,37.288,24
94,Mygdalia,22.081,37.75,33
331,Almyros,22.76,39.183,160
24,Monovrysi,23.605,41.06,20
134,Galaxidion,22.384,38.377,46
33,Myrsinochorion,21.729,37.024,20
112,Eptalofos,22.492,38.595,39
28,Iklaina,21.722,36.996,24
79,Glafyra,22.888,39.44,24
79,Psarion,21.886,37.328,33
192,Nea Anchialos,22.815,39.28,79
33,Agia Trias,22.6,38.816,28
79,Gialova,21.702,36.951,28
46,Kefalovryson,21.799,37.146,46
28,Dionysiou,23.269,40.273,20
46,Anavra,22.587,38.776,24
192,Itea,22.425,38.433,66
66,Flampouron,23.565,40.93,39
39,Metamorfosis,21.762,37.055,20
28,Koklas,21.87,37.272,20
28,Valtotopion,23.596,40.995,20
46,Drymaia,22.56,38.708,46
66,Neos Skopos,23.61,41.025,46
46,Theoktiston,22.127,37.797,46
66,Agios Sostis,21.955,37.443,39
112,Simantra,23.311,40.345,55
39,Skepaston,23.518,40.81,28
39,Polydrosos,22.531,38.641,39
476,Pylos,21.696,36.913,112
94,Neon Soulion,23.644,41.094,55
55,Therma,23.558,40.896,28
160,Nea Apollonia,23.441,40.626,79
33,Krinofyta,22.169,37.871,28
33,Malthi,21.862,37.236,20
55,Kerasea,22.922,39.464,28
55,Portaria,23.296,40.285,39
230,Dimitsana,22.041,37.595,66
28,Glyfada,21.753,37.003,20
24,Kirra,22.444,38.429,20
55,Valtesinikon,22.097,37.705,39
79,Agios Prodromos,23.379,40.465,33
39,Akrata,22.314,38.153,28
28,Pyla,21.734,36.946,20
46,Chryson,23.65,41.06,28
685,Nea Moudania,23.288,40.24,230
55,Limni,23.528,40.781,20
55,Kefalinos,21.86,37.197,33
94,Lagkadion,23.56,40.85,24
33,Ano Kalyvia,22.565,38.66,20
66,Vasilikon,21.896,37.265,28
39,Psychikon,23.629,41.004,20
28,Koukkounara,21.752,36.972,20
46,Melissatika,22.909,39.39,28
39,Kato Melpeia,21.932,37.328,28
28,Stenosia,21.751,36.957,24
55,Veneton,22.982,39.543,46
24,Koromilea,21.85,37.156,20
46,Kroki,22.499,38.501,20
28,Ampelos,22.328,38.138,20
112,Kato Vrontou,23.756,41.274,33
55,Mendenitsa,22.618,38.751,39
24,Choumnikon,23.584,40.879,20
112,Vlachopoulon,21.791,37.031,46
24,Prasinon,22.159,37.782,24
39,Ilektra,21.925,37.299,24
24,Anydron,22.702,38.924,20
94,Delfoi,22.494,38.48,46
28,Kokkotoi,22.775,39.079,24
28,Miliotion,21.816,37.071,20
79,Perithorion,23.781,41.314,46
39,Apollonia,23.486,40.639,24
55,Ampelokipoi,22.318,38.098,33
66,Kremmydia,21.781,36.992,28
55,Exochi,23.827,41.411,28
55,Dasoton,23.801,41.347,28
46,Melissourgos,23.475,40.599,24
24,Zermpisia,21.89,37.199,20
66,Lykouria,22.212,37.861,55
39,Olynthos,23.343,40.292,28
192,Methoni,21.706,36.82,79
39,Magouliana,22.127,37.678,20
94,Zarouchla,22.275,37.985,46
39,Kynigos,21.746,36.899,28
276,Aigeira,22.356,38.148,112
276,Amfikleia,22.59,38.641,112
46,Lykaion,22.002,37.414,33
28,Kallirroi,21.931,37.268,24
46,Marathos,22.894,39.291,46
33,Lefkouda,23.546,40.735,24
39,Agios Mamas,23.336,40.26,24
94,Karitaina,22.041,37.485,66
66,Palaiokerasea,22.731,38.929,28
24,Manganiakon,21.878,37.149,20
79,Marathoussa,23.472,40.559,33
33,Pentapolis,23.689,41.049,24
192,Daras,22.202,37.809,39
46,Sitochorion,23.618,40.883,39
66,Stemnitsa,22.081,37.555,28
79,Chandrinos,21.789,36.958,55
55,Trikorfon,21.874,37.131,46
94,Palaiochora,23.451,40.501,55
28,Portes,23.323,40.21,20
24,Emmanouil Pappas,23.71,41.086,20
33,Diastavrosi Palaiokastrou,23.431,40.441,33
28,Lampinos,22.367,38.132,20
79,Ellinikon,22.073,37.52,33
33,Pelekanada,21.845,37.053,24
24,Chatzis,21.828,37.018,24
94,Vrynaina,22.81,39.067,46
571,Volos,22.947,39.363,331
160,Diavolitsion,21.968,37.3,66
79,Nea Poteidaia,23.33,40.195,33
33,Monastirion,22.356,38.078,28
33,Stefanina,23.589,40.761,20
24,Mantzarion,21.964,37.265,20
55,Sterna,21.874,37.082,24
33,Karnasion,21.991,37.319,20
33,Kentrikon,21.971,37.278,20
112,Isaris,22.014,37.364,33
24,Mavrommation,21.924,37.179,20
112,Perithorion,22.338,38.031,39
46,Kamenitsa,22.193,37.729,39
24,Mesopotamos,21.827,36.979,20
28,Kallidromon,22.671,38.729,20
94,Arethousa,23.588,40.744,79
55,Arsinoi,21.923,37.167,28
46,Anakasia,22.975,39.381,20
24,Foiniki,21.751,36.816,20
94,Mikra Volvi,23.561,40.677,46
112,Desfina,22.527,38.416,55
66,Chrysokefalos,23.868,41.377,24
46,Perivolakia,21.773,36.856,20
94,Kallithea,21.785,36.879,55
28,Ellinoekklisia,21.912,37.134,24
46,Nymfasia,22.184,37.692,20
112,Amaliapolis,22.888,39.167,55
39,Evangelismos,21.771,36.833,24
55,Komnina,22.696,38.749,24
46,Sani,23.314,40.096,20
46,Panorama,23.821,41.244,39
24,Manesis,21.898,37.086,20
331,Polygyros,23.441,40.378,134
112,Vytina,22.184,37.67,66
39,Dafni,23.654,40.857,24
46,Ochyron,23.85,41.306,33
24,Charavgi,21.854,36.991,20
331,Meligalas,21.969,37.223,134
134,Lefkogeia,23.895,41.406,55
66,Dafnoudion,23.747,41.061,24
46,Kainourgion,22.725,38.793,39
33,Anthousa,21.966,37.208,20
39,Myloi,22.806,38.966,24
39,Agia Aikaterini,22.736,38.811,20
33,Daras,21.884,37.036,20
66,Nea Madytos,23.561,40.623,66
134,Pethelinos,23.711,40.96,28
28,Komi,22.257,37.795,20
192,Arachova,22.584,38.48,94
66,Derveni,22.421,38.132,46
66,Modion,22.671,38.661,39
46,Drymon,22.866,39.075,24
55,Neromylos,21.879,37.012,33
24,Oichalia,21.998,37.255,20
46,Fylakai Kassandras,23.341,40.115,33
55,Rachai,22.781,38.891,33
46,Chranoi,22.033,37.322,28
46,Filia,22.013,37.272,20
24,Kastanochorion,23.676,40.853,20
46,Meropi,22,37.242,20
39,Nea Spartia,22.802,38.919,24
160,Regkinion,22.71,38.719,55
55,Ivira,23.698,40.895,33
160,Gkoura,22.341,37.933,79
39,Vamvakia,23.61,40.689,24
134,Sourpi,22.894,39.103,94
55,Mesinon,22.333,37.908,20
66,Agria,23.008,39.341,39
28,Lampaina,21.966,37.148,20
94,Limni,22.277,37.782,39
24,Agios Christoforos,23.774,41.045,20
28,Mentourgianika,22.439,38.116,20
24,Lygia,22.447,38.131,20
66,Vlacherna,22.25,37.719,33
28,Lachanada,21.814,36.822,20
94,Foinikous,21.807,36.808,55
66,Valyra,21.983,37.165,39
94,Tithorea,22.668,38.585,24
33,Mosia,22.338,37.89,20
192,Pelasgia,22.84,38.948,134
33,Tsoukalaiika,22.007,37.202,20
94,Pyrgos,22.436,38.087,33
33,Aristodimeion,21.975,37.134,24
28,Anatoliki Militsa,21.846,36.87,28
28,Modion,23.609,40.627,24
79,Alonistaina,22.222,37.626,33
66,Pourion,23.095,39.478,24
112,Taxiarchis,23.522,40.425,46
94,Drakeia,23.05,39.376,33
24,Siamon,22.033,37.232,20
39,Anastasia,23.808,41.069,20
39,Katsaros,22.029,37.22,20
39,Charitomeni,23.851,41.166,20
46,Chania,23.062,39.396,20
160,Lykochia,22.165,37.495,66
24,Amfithea,21.967,37.091,20
55,Vrasna,23.652,40.704,28
160,Nea Fokaia,23.399,40.134,66
24,Avramion,21.941,37.034,20
39,Tholos,23.782,41,20
46,Paradeisia,22.079,37.316,39
33,Kato Lechonia,23.037,39.331,20
46,Siviri,23.36,40.036,28
55,Mation,22.331,37.821,33
39,Velika,21.934,37.006,20
33,Paralia Pelasgias,22.856,38.928,20
134,Stanos,23.591,40.544,39
192,Kamena Vourla,22.789,38.78,134
33,Kallithea,22.453,38.067,20
28,Agios Lavrentios,23.059,39.361,20
55,Kato Tithorea,22.713,38.609,33
276,Megalopolis,22.135,37.401,134
134,Mavrothalassa,23.75,40.89,112
28,Akritochorion,21.843,36.798,24
94,Chrysovitsion,22.211,37.546,46
46,Grammeni,23.893,41.206,28
28,Platanidia,23.049,39.315,20
230,Petalidion,21.928,36.958,79
39,Karterolion,21.99,37.076,20
28,Agios Vlasios,23.068,39.341,20
24,Chorefton,23.121,39.454,20
66,Vrastama,23.536,40.371,39
94,Aris,22.005,37.101,39
33,Yameia,21.864,36.811,20
276,Nea Zichni,23.829,41.03,134
66,Analipsis,21.968,37.021,28
134,Lykoporia,22.506,38.128,24
66,Kastanea,22.382,37.867,28
55,Ariochorion,22.027,37.131,24
94,Arnaia,23.595,40.486,55
331,Levidion,22.297,37.683,134
28,Antikyra,22.63,38.377,20
46,Psakoudia,23.496,40.26,33
55,Kalamakion,21.93,36.925,20
112,Arfara,22.044,37.157,55
24,Agioi Theodoroi,22.925,38.998,24
134,Longa,21.906,36.869,55
24,Skala Fourkas,23.384,39.997,20
33,Makryrrachi,23.124,39.425,20
112,Asprovalta,23.707,40.722,46
66,Chranoi,21.922,36.9,28
94,Pteleos,22.953,39.052,46
33,Nea Vrasna,23.702,40.707,20
46,Efkarpia,23.773,40.863,20
28,Pidima,22.046,37.142,20
230,Kassandreia,23.413,40.049,134
66,Afytos,23.435,40.098,28
79,Distomon,22.667,38.429,55
39,Vathykoilon,22.911,38.95,33
24,Lichas,22.864,38.849,20
33,Episkopi,21.921,36.884,20
46,Agia Paraskevi,22.741,38.583,20
66,Paralia Distomou,22.652,38.388,33
134,Elateia,22.765,38.627,112
94,Messini,22.008,37.051,66
28,Falanthi,21.897,36.824,20
134,Lafka,22.389,37.833,55
66,Kali Vrysi,23.905,41.146,33
112,Leontarion,22.144,37.321,66
46,Kissos,23.132,39.408,20
55,Xanthochorion,22.498,38.048,20
24,Antheia,22.043,37.109,20
66,Sfelinos,23.873,41.058,28
476,Stavros,23.701,40.663,160
39,Chrysokellaria,21.889,36.791,20
28,Karterion,22.407,37.845,20
46,Potamia,22.142,37.298,20
24,Kato Synoikia Trikalon,22.48,37.997,24
39,Nea Koroni,21.922,36.849,20
94,Tourkolekas,22.121,37.252,55
66,Palaiopyrgos,22.345,37.712,24
66,Fourka,23.414,40.005,28
134,Ormylia,23.544,40.293,79
46,Pagonerion,24.029,41.401,39
28,Agia Trias,23.105,39.323,20
112,Kalandra,23.4,39.972,55
33,Lefkochorion,22.769,38.6,20
46,Mesorrachi,23.859,41.004,20
55,Skopia,23.897,41.09,24
33,Parorion,22.756,38.563,33
24,Pigadion,22.977,39.037,20
79,Agios Georgios,22.886,38.84,55
112,Davleia,22.733,38.515,79
192,Kandila,22.379,37.771,79
112,Achilleion,22.963,39.004,39
28,Agrilos,22.072,37.137,20
24,Vounaria,21.925,36.837,20
55,Thouria,22.048,37.084,28
55,Rethion,22.503,38.021,24
66,Volax,24.002,41.317,66
55,Kallithea,23.918,41.117,24
33,Charakopio,21.916,36.808,28
46,Agios Konstantinos,22.858,38.759,46
28,Agios Ioannis,23.162,39.415,20
46,Palaiochorion,23.648,40.492,33
39,Ano Amfeia,22.07,37.107,20
66,Simiades,22.336,37.647,24
94,Dimitra,23.869,40.981,20
55,Kala Nera,23.12,39.307,20
33,Evangelismos tis Theotokou,23.558,40.273,20
79,Vasilitsion,21.909,36.764,20
28,Kassandrinon,23.447,40.013,20
39,Vatopedion,23.558,40.258,28
39,Steirion,22.712,38.409,33
331,Manna,22.511,37.98,33
33,Stymfalia,22.465,37.878,20
94,Tsagkarada,23.173,39.388,33
134,Prosotsani,23.972,41.179,112
33,Mandilion,23.912,41.041,20
79,Neochorion,23.679,40.509,20
55,Kamarion,22.575,38.099,39
192,Milies,23.151,39.328,66
39,Kryopigi,23.474,40.035,28
112,Kapsas,22.348,37.614,46
79,Palaion Trikerion,23.076,39.155,46
66,Artemision,22.378,37.675,55
79,Draviskos,23.872,40.923,66
28,Asprochoma,22.074,37.048,24
46,Skoteini,22.437,37.788,33
79,Asea,22.261,37.421,46
46,Molai Kalyvai,23.457,39.971,28
112,Agnanti,22.88,38.713,33
331,Koroni,21.958,36.796,192
24,Panarition,22.541,37.993,20
134,Pyrgoi,24.025,41.253,46
39,Kalianoi,22.493,37.89,24
46,Xorychtion,23.186,39.364,20
46,Kamara,22.183,37.244,39
33,Agiochorion,23.955,41.082,20
55,Nea Mesolakkia,23.854,40.848,24
24,Longos,22.911,38.763,24
112,Kefalarion,22.514,37.922,28
112,Megali Panagia,23.68,40.444,112
24,Stathmos Lefkotheas,23.932,41.014,24
112,Alistrati,23.956,41.065,66
112,Akovos,22.165,37.189,46
276,Trikerion,23.077,39.101,66
46,Petroussa,24.016,41.195,24
39,Nea Kerdylia,23.842,40.794,39
79,Riza,22.584,38.045,33
28,Agios Vlasios,22.8,38.5,20
94,Zelion,22.875,38.659,55
79,Sfaka,22.852,38.609,24
94,Paparis,22.261,37.365,55
28,Afyssos,23.165,39.272,20
39,Metamorfosis,23.604,40.231,39
160,Plana,23.665,40.368,33
46,Mikrokampos,24.004,41.135,20
2450,Kalamata,22.111,37.041,822
28,Domiros,23.922,40.946,20
46,Afetai,23.18,39.283,24
46,Makri,22.325,37.472,24
55,Tsoukalades,22.797,38.455,33
46,Kalapodion,22.882,38.634,20
94,Metagkitsion,23.655,40.324,55
39,Kalamakion,23.212,39.34,20
55,Kaisarion,22.563,37.953,46
24,Loutra Gialtron,22.988,38.851,20
79,Skortsinos,22.248,37.297,46
94,Palaiokomi,23.899,40.869,39
66,Polychronon,23.525,40.017,55
28,Zemenon,22.605,38.031,20
134,Psarion,22.528,37.867,79
134,Olympias,23.783,40.591,55
39,Pikernis,22.425,37.65,20
24,Merkovounion,22.375,37.542,20
28,Agiokampos,23.036,38.933,20
55,Milea,22.406,37.603,39
39,Dyrrachion,22.205,37.188,24
46,Goulemion,22.935,38.709,33
46,Stratoniki,23.763,40.527,39
33,Stavros,24.044,41.169,20
79,Skopi,22.392,37.558,20
33,Neochorion,23.218,39.307,28
66,Mikromilea,24.157,41.418,33
986,Tripolis,22.372,37.51,397
94,Chaironeia,22.845,38.496,46
46,Sitagroi,24.028,41.111,33
39,Agriakona,22.283,37.313,20
24,Asprokampos,22.561,37.887,20
46,Sagkas,22.458,37.671,33
24,Kariotika,22.647,38.064,20
66,Platanion,22.528,37.814,33
24,Argyroupolis,24.042,41.121,20
24,Pallantion,22.36,37.459,20
192,Kyriakion,22.788,38.353,79
79,Thanas,22.368,37.473,28
112,Logkanikos,22.251,37.231,28
55,Mikron Soulion,23.945,40.891,24
39,Agios Konstantinos,22.398,37.526,20
112,Nea Skioni,23.531,39.947,46
79,Ofrynion,23.91,40.797,28
46,Aidipsos,23.047,38.879,20
28,Neos Pyrgos,23.075,38.937,20
55,Paralia Vergas,22.156,37.007,33
192,Rodolivos,23.973,40.922,94
230,Loutra Aidipsou,23.043,38.856,94
46,Mylopotamos,24.073,41.149,33
55,Perivolakia,22.179,37.048,33
112,Paralia Ofryniou,23.905,40.762,79
33,Akontion,22.883,38.507,24
230,Nikiti,23.67,40.224,79
39,Avia,22.142,36.967,20
66,Oreoi,23.09,38.948,39
230,Argalasti,23.218,39.226,134
28,Thaleron,22.663,38.037,20
28,Kastrakion,22.595,37.893,20
39,Pyrgadikia,23.723,40.336,39
33,Perachorion,22.862,38.455,20
94,Kandalos,22.366,37.415,28
46,Mikra Mantineia,22.156,36.986,20
55,Soulion,22.642,37.987,20
39,Ammouliani,23.921,40.332,39
134,Nea Bafra,24.018,40.99,39
94,Kryonerion,22.636,37.962,46
28,Tzivas,22.397,37.465,20
33,Chaniotis,23.575,39.999,24
192,Stimagka,22.701,37.908,55
39,Chorton,23.217,39.191,20
112,Syki,23.26,39.285,55
46,Bozikas,22.609,37.915,20
24,Ampelakia,24.093,41.117,20
46,Sitaina,22.651,37.291,20
24,Koufos,23.918,39.972,20
66,Fotolivos,24.047,41.06,55
46,Spatharion,23.429,38.764,33
79,Xiropotamos,24.104,41.192,33
46,Leontion,22.595,37.798,20
28,Agoriani,22.269,37.207,20
160,Nestani,22.468,37.613,79
112,Patitirion,23.863,39.145,79
39,Kokkinochorion,24.002,40.813,20
55,Proti,24,40.945,20
39,Mavrovatos,24.145,41.112,33
112,Rizai,22.466,37.446,55
94,Skaloti,24.283,41.412,39
55,Agios Nikolaos,23.695,40.25,24
94,Elia,23.737,40.145,33
79,Agia Anna,22.905,38.316,33
39,Platanotopos,24.059,40.848,20
46,Melission,22.682,38.048,33
66,Symvoli,24.041,41.029,24
33,Thourion,22.89,38.487,28
39,Gouvai,23.246,39.004,28
55,Gonoussa,22.631,37.938,20
55,Kitriai,22.142,36.929,24
46,Archaia Nemea,22.706,37.807,28
112,Moustheni,24.113,40.861,66
66,Kaparellion,22.509,37.677,24
331,Neos Marmaras,23.784,40.095,230
94,Exarchos,22.943,38.588,55
46,Agios Sostis,22.414,37.477,20
571,Levadeia,22.874,38.436,276
46,Adriani,24.267,41.136,28
66,Kastrion,22.535,37.361,28
112,Agios Athanasios,24.246,41.074,46
66,Laliotis,22.674,38.012,24
33,Georgitsion,22.277,37.191,20
46,Akova,22.687,37.645,20
94,Loukas,22.46,37.566,39
28,Megali Mantineia,22.163,36.957,20
79,Agios Petros,22.547,37.326,33
230,Stratonion,23.825,40.514,79
112,Kalos Agros,24.085,41.106,39
33,Galipsos,23.952,40.8,20
112,Milina,23.22,39.171,46
39,Afision,22.451,37.09,20
24,Riviotissa,22.444,37.049,20
331,Argos,22.729,37.635,230
94,Amyklai,22.436,37.025,39
55,Petrion,22.602,37.849,39
55,Xinovrysi,23.259,39.249,24
192,Aliartos,23.101,38.373,94
55,Pappades,23.364,38.932,20
24,Chamokerasa,24.373,41.189,20
192,Malesina,23.23,38.622,134
79,Alagonia,22.246,37.108,55
39,Dalamanara,22.768,37.618,24
55,Megaplatanos,23.001,38.682,24
94,Arna,22.415,36.878,33
55,Taxiarchis,23.111,38.917,24
28,Kaminia,22.457,36.944,20
33,Polystylon,24.329,40.985,20
39,Orfanion,23.951,40.776,24
66,Arkitsa,23.032,38.744,24
28,Kato Examilia,22.94,37.908,20
94,Vlachokerasea,22.377,37.368,66
46,Kamarion,22.413,37.44,20
24,Potamia,22.477,36.93,20
66,Agionorion,22.88,37.754,24
28,Manthyrea,22.399,37.409,20
46,Lefkochoma,22.511,36.978,24
112,Gymnon,22.577,37.777,46
331,Astros,22.722,37.404,134
39,Amygdaleon,24.359,40.963,33
79,Dafni,22.631,37.888,33
55,Prosfyges,24.374,40.987,20
476,Atalanti,22.995,38.655,134
28,Eirini,23.012,37.955,24
134,Gkoritsa,22.566,37.029,66
66,Isthmia,23.009,37.92,39
33,Vamvakes,23.077,38.057,33
33,Lefktra,23.181,38.254,24
94,Glossa,23.616,39.175,79
28,Neochorion,22.454,37.509,28
571,Kavala,24.406,40.938,276
112,Agios Andreas,22.764,37.345,46
46,Pyrgiotika,22.878,37.579,28
46,Agioi Anargyroi,22.623,37.027,39
66,Gomation,23.795,40.396,46
134,Pefkochorion,23.614,39.989,112
160,Lyrkeia,22.551,37.704,55
230,Mantoudion,23.477,38.798,160
66,Neo Klima,23.645,39.139,24
94,Chosiarion,22.495,36.712,33
24,Lafkos,23.247,39.177,20
28,Stadion,22.436,37.459,20
28,Kormista,24.056,40.98,24
46,Panormos,23.665,39.11,20
160,Agioi Theodoroi,23.143,37.928,112
33,Agia Paraskevi,23.608,39.955,28
571,Istiaia,23.152,38.953,192
55,Pellana,22.32,37.206,24
160,Kastoreion,22.304,37.171,79
24,Stenon,22.463,37.497,20
230,Erythrai,23.323,38.216,79
230,Skala,22.667,36.851,79
24,Peristerion,22.677,36.87,20
160,Paralia Tyrou,22.861,37.246,66
112,Kollinai,22.361,37.287,66
397,Lygourio,23.039,37.613,134
112,Sidironeron,24.233,41.368,79
39,Dionysos,22.95,38.514,20
39,Myrtea,22.693,36.882,20
24,Mavrolefki,24.1,41.057,24
28,Romaiikon,22.939,38.488,20
94,Vilia,23.337,38.168,39
66,Pera Melana,22.882,37.21,28
33,Nea Sinasos,23.165,38.968,20
79,Adamion,23.073,37.573,28
39,Asterion,22.73,36.834,20
46,Kallithea,23.443,38.309,39
134,Livanatai,23.05,38.71,46
331,Drama,24.147,41.15,192
39,Lafystion,22.919,38.431,28
24,Agios Georgios,23.157,38.94,20
33,Ormos Prinou,24.577,40.758,20
28,Kato Diminion,22.73,38.029,20
79,Dimarion,24.844,41.352,39
28,Monastirakion,24.168,41.189,28
192,Kampos,22.204,36.938,39
94,Kremasti,22.873,36.978,39
66,Pigadion,22.921,37.07,28
66,Karya,22.547,37.639,28
986,Chalkis,23.597,38.46,276
24,Pasion,22.728,38.013,20
46,Tanagra,23.537,38.328,24
33,Rachonion,24.636,40.757,33
160,Taxiarchai,24.187,41.226,33
24,Agia Eleni,23.19,37.554,20
79,Elaia,22.801,36.751,39
39,Kariani,23.983,40.751,24
160,Schimatarion,23.579,38.346,79
46,Ilia,23.126,38.851,46
24,Kyrnos,24.777,40.987,20
24,Pakia,22.851,36.792,20
28,Palaia Morsini,24.848,41.128,20
112,Asminion,23.198,39.003,46
55,Promyrion,23.286,39.191,24
33,Moulkion,22.725,37.993,20
33,Oinoi,23.609,38.323,20
28,Asopos,22.855,36.73,20
66,Vasilikon,23.669,38.426,46
33,Nea Amisos,24.847,41.042,20
79,Podochorion,24.025,40.832,33
39,Sterna,22.597,37.719,24
24,Sikyon,22.724,37.983,20
24,Loukaition,23.236,37.457,20
46,Lampokampos,22.969,36.897,20
230,Spetsai,23.157,37.264,94
33,Kastaniotissa,23.158,38.9,33
94,Charax,22.996,36.916,39
24,Agios Spyridon,22.957,38.463,24
66,Agioi Anargyroi,23.246,37.353,24
55,Koutsion,22.668,37.851,24
94,Aspropyrgos,23.59,38.063,46
55,Vafaiika,24.957,41.089,20
55,Platania,23.274,39.141,24
33,Angelona,22.969,36.751,20
28,Kypseli,23.458,37.758,20
94,Agia Trias,22.909,38.355,33
28,Panorama,24.176,41.155,20
160,Elika,22.923,36.622,66
94,Skaramagkas,23.604,38.011,33
79,Agios Georgios,22.93,38.393,39
33,Mavrikion,22.451,37.39,20
230,Kiato,22.751,38.012,112
24,Agios Georgios,23.39,37.506,20
55,Ellinochorion,22.716,37.938,24
28,Avgaria,23.193,38.95,20
134,Orchomenos,22.979,38.492,55
46,Pantanassa,22.96,36.602,28
33,Nerofraktis,24.133,41.044,33
192,Nemea,22.662,37.822,112
28,Chaidarion,23.656,38.012,20
55,Portes,23.521,37.711,28
66,Amaxades,25.065,41.123,46
112,Gymnon,23.884,38.439,39
94,Xifias,23.028,36.641,39
46,Selinon,25.073,41.069,28
331,Poros,23.454,37.501,160
79,Amarynthos,23.883,38.393,55
79,Agioi Apostoloi,23.027,36.552,28
33,Metamorfosis,23.757,38.062,20
46,Skala,23.073,38.671,28
94,Akropotamos,24.035,40.79,79
24,Prosilion,22.237,36.916,20
79,Kyrtoni,23.04,38.586,39
79,Paliourion,23.663,39.942,39
24,Mikrochorion,24.176,41.102,20
55,Vervena,22.466,37.372,46
39,Parthenion,22.516,37.474,28
55,Malantrenion,22.639,37.728,55
33,Kato Monokarya,23.207,38.93,20
66,Velon,22.76,37.976,28
79,Kardamyli,22.233,36.889,33
79,Longastra,22.344,37.115,33
33,Kyparission,23.074,38.637,33
66,Kallifytos,24.216,41.173,33
476,Ierissos,23.876,40.397,192
39,Karya,22.998,38.471,20
24,Mesoropi,24.083,40.865,20
33,Gerakiou,23.235,38.98,20
46,Paralia,22.889,38.238,20
