rs,name,lon,lat,r1
66,Puodkaliai,21.532,56.234,28
24,Rudaiciai,21.455,55.742,20
46,Radailiai,21.214,55.788,20
66,Suke,21.348,55.982,46
112,Vente,21.199,55.35,66
94,Vaiteliai,21.374,55.796,39
66,Sakuciai,21.338,55.45,28
94,Kartena,21.474,55.919,33
24,Didieji Rusupiai,21.592,56.279,20
55,Lapiai,21.464,55.772,24
79,Siupariai,21.449,55.63,39
24,Erlenai,21.578,56.084,20
134,Rusne,21.374,55.295,55
94,Saugos,21.46,55.464,39
46,Antkoptis,21.583,55.703,28
39,Siemuliai,21.638,55.863,28
24,Kadaiciai,21.724,55.993,20
66,Zadeikiai,21.655,55.735,33
66,Kanteriskiai,21.573,55.249,28
33,Balsenai,21.672,55.606,24
28,Prusaliai,21.763,55.915,20
94,Gardamas,21.66,55.408,33
476,Palanga,21.077,55.928,192
39,Karkle,21.077,55.806,24
55,Girkaliai,21.116,55.871,24
46,Vydmantai,21.135,55.901,28
24,Kiauleikiai,21.144,55.916,20
66,Kalote,21.125,55.789,39
28,Normantai,21.129,55.803,20
79,Laukzeme,21.202,56.07,33
46,Rudaiciai,21.177,55.938,33
276,Neringa,21.011,55.312,192
55,Lazdininkai,21.202,56.002,20
24,Peskojai,21.156,55.831,20
33,Kveciai,21.191,55.911,20
79,Senoji Ipiltis,21.25,56.12,46
94,Kretingale,21.195,55.837,39
192,Darbenai,21.256,56.023,94
2450,Klaipeda,21.167,55.697,1419
24,Tarvydai,21.246,55.96,20
160,Lenkimai,21.315,56.192,79
112,Kretinga,21.234,55.884,79
33,Slengiai,21.196,55.743,20
66,Ginduliai,21.198,55.727,28
112,Truseliai,21.211,55.764,55
39,Nausedai,21.302,56.075,28
46,Padvariai,21.258,55.903,20
94,Kurmaiciai,21.267,55.931,24
24,Valenai,21.246,55.839,24
55,Tubausiai,21.286,55.956,20
33,Jakai,21.222,55.698,20
28,Baukstininkai,21.258,55.758,24
39,Dupulciai,21.293,55.876,20
28,Klibiai,21.305,55.913,20
39,Plikiai,21.282,55.788,28
39,Gruceikiai,21.239,55.624,24
46,Kumpikai,21.358,56.054,20
55,Vaineikiai,21.352,56.008,20
46,Kiskenai,21.28,55.683,28
94,Dreverna,21.247,55.519,33
66,Luknes,21.444,56.234,33
94,Gruslauke,21.406,56.071,66
33,Lebartai,21.297,55.666,20
33,Smilgynai,21.326,55.769,24
33,Jokubavas,21.343,55.83,24
28,Dituva,21.285,55.595,20
230,Dercekliai,21.282,55.581,79
39,Slapsile,21.33,55.718,28
55,Raguviskiai,21.378,55.86,24
79,Ziaukos,21.315,55.621,33
33,Pleskuciai,21.295,55.533,20
66,Kintai,21.265,55.423,66
24,Priekule II,21.307,55.567,20
39,Rubuliai,21.403,55.906,28
55,Dauksiai,21.486,56.179,46
46,Priekule,21.321,55.554,20
79,Dovilai,21.36,55.677,28
39,Kisiniai,21.35,55.636,20
46,Venckai,21.319,55.515,33
66,Baubliai,21.408,55.828,28
33,Baiciai,21.369,55.661,20
134,Gargzdai,21.392,55.71,94
46,Kvietiniai,21.406,55.748,33
55,Narvydziai,21.555,56.293,24
134,Kulupenai,21.474,55.961,79
39,Leliunai,21.505,56.063,24
55,Budriai,21.458,55.88,28
55,Juodupenai,21.519,56.09,28
46,Udraliai,21.55,56.197,24
24,Maciuiciai,21.417,55.695,20
24,Mazieji Rusupiai,21.575,56.268,20
55,Agluonenai,21.392,55.588,33
24,Gerduvenai,21.431,55.724,20
39,Snaukstai,21.42,55.662,24
112,Vilkyciai,21.394,55.516,39
192,Mosedis,21.578,56.167,79
24,Sakuteliai,21.398,55.504,20
39,Vanagai,21.418,55.565,20
79,Saukliai,21.575,56.131,28
276,Salantai,21.571,56.06,134
55,Vezaiciai,21.479,55.718,39
33,Zvainiai,21.57,56.042,20
46,Dauginciai,21.544,55.928,28
28,Samaliske,21.493,55.699,20
79,Imbare,21.583,56.022,20
24,Laiviai,21.606,56.069,20
55,Petreliai,21.442,55.436,24
79,Girininkai,21.511,55.682,28
66,Pezaiciai,21.492,55.573,39
79,Lubiai,21.581,55.89,28
79,Aleksandrija,21.692,56.288,46
33,Zemaitkiemis,21.459,55.418,20
55,Rukai,21.669,56.178,39
39,Traksedziai,21.459,55.369,20
33,Papieviai,21.635,55.959,24
28,Aleksandravas,21.628,55.927,28
134,Kaukolikai,21.713,56.232,46
39,Vindeikiai,21.687,56.131,24
571,Silute,21.473,55.349,276
66,Tilvikai,21.6,55.777,28
46,Pagryniai,21.486,55.325,20
24,Klauseikiai,21.749,56.288,20
112,Sateikiai,21.679,55.997,55
94,Notenai,21.708,56.098,55
24,Grabupiai,21.512,55.369,20
28,Macikai,21.518,55.357,20
55,Gesalai,21.779,56.309,28
39,Vileikiai,21.509,55.294,20
79,Veivirzenai,21.595,55.597,66
46,Narvaisiai,21.69,55.937,33
230,Kuliai,21.656,55.806,79
112,Sates,21.754,56.169,55
24,Armalenai,21.531,55.344,20
46,Gintaliske,21.725,56.048,39
46,Sateikiu Rudaiciai,21.72,56.016,20
33,Uzliekniai,21.518,55.278,20
79,Inkakliai,21.577,55.484,28
66,Sukaiciai,21.621,55.638,33
28,Gaideliai,21.535,55.313,24
55,Sliktine,21.758,56.12,20
55,Ramuciai,21.576,55.413,39
94,Karklenai,21.705,55.877,33
55,Rudgalviai,21.659,55.675,24
192,Sveksna,21.622,55.517,134
55,Nausedai,21.822,56.233,39
79,Vizanciai,21.857,56.339,46
28,Stonaiciai,21.738,55.888,20
46,Vydeikiai,21.762,55.97,20
66,Viestovenai,21.728,55.842,28
66,Lauciai,21.592,55.348,33
94,Juknaiciai,21.578,55.29,46
33,Dauksaiciai,21.659,55.575,33
46,Girdeniai,21.861,56.303,20
134,Ylakiai,21.855,56.28,112
55,Tarvydai,21.595,55.317,24
46,Kausenai,21.774,55.929,24
94,Endriejavas,21.719,55.697,94
134,Plateliai,21.816,56.043,112
79,Barstyciai,21.87,56.161,66
33,Didvyciai,21.813,55.946,20
46,Salpenai,21.726,55.572,33
46,Varkaliai,21.814,55.893,20
39,Pasysiai,21.664,55.303,39
276,Plunge,21.846,55.911,160
66,Pasile,21.943,56.25,46
55,Lumpenai,22.037,55.108,39
46,Pelaiciai,21.936,55.7,20
39,Milasaiciai,21.861,55.869,24
46,Gegrenai,21.922,56.093,39
160,Zemaiciu Naumiestis,21.705,55.359,112
24,Jatkanciai,22.249,55.263,20
39,Babrungas,21.87,55.927,20
55,Ukrinai,22.089,56.3,39
55,Rotinenai,22.032,56.08,20
112,Alsedziai,22.047,56.031,66
66,Juskaiciai,21.738,55.431,24
24,Truikiai,21.88,55.939,20
28,Pakerai,21.867,55.89,20
66,Ruzgai,22.177,56.349,28
66,Balciai,21.957,55.352,39
66,Natkiskiai,21.946,55.233,66
55,Uzgiriai,22.183,55.958,20
55,Syliai,21.745,55.402,39
94,Nevarenai,22.294,56.107,66
112,Judrenai,21.804,55.585,66
79,Juodainiai,22.199,55.665,33
46,Viesvenai I,22.323,55.936,20
112,Zidikai,22.012,56.323,66
79,Ritine,22.03,56.387,33
79,Usenai,21.722,55.235,79
66,Janapole,22.384,55.814,55
160,Stalgenai,21.885,55.824,46
24,Uzlieknis,21.903,55.884,20
39,Sarnele,21.97,56.131,24
39,Vytogala,22.375,55.454,28
55,Glaudziai,21.916,55.898,24
46,Kairiskiai,22.587,56.129,33
39,Vainociai,22.577,55.99,20
46,Baltrusaiciai,22.373,55.224,39
66,Dagiai,21.999,56.166,33
39,Pilsudai,22.519,55.415,33
79,Deguciai,21.77,55.316,33
55,Racaliai,22.035,56.276,24
94,Staneliai,21.95,55.95,33
79,Bubenai,21.908,55.782,24
55,Pasaltuonys,22.598,55.272,46
79,Zadvainai,21.879,55.655,39
94,Lyksilis,22.825,55.773,33
55,Kalniskiai,22.861,55.842,24
134,Zemaiciu Kalvarija,22.012,56.109,55
46,Budrikiai,21.918,55.749,20
55,Vadagiai,22.061,56.249,20
33,Daugedai,21.944,55.807,28
192,Pikeliai,22.109,56.417,79
397,Rietavas,21.93,55.724,134
66,Grumbliai,22.003,55.977,24
66,Rukai,21.789,55.195,39
66,Stubriai,21.814,55.238,33
46,Katyciai,21.828,55.288,28
28,Kalnijos,22.065,56.155,20
112,Zlibinai,22.005,55.882,55
55,Vainutas,21.866,55.365,55
331,Seda,22.089,56.167,94
55,Silgaliai,21.815,55.165,24
46,Paukstakiai,22.039,55.953,20
79,Teneniai,21.911,55.462,55
33,Pajuralis,21.948,55.543,20
55,Grimzdai,21.962,55.584,20
28,Uzezere,22.12,56.161,20
55,Kantauciai,22.051,55.904,20
66,Giliogiris,22.012,55.751,33
134,Zemale,22.159,56.263,66
33,Gorainiai,21.933,55.402,28
55,Gedrimai,22.123,56.071,39
46,Lieplauke,22.103,55.968,28
112,Kvedarna,21.994,55.556,94
79,Bugeniai,22.2,56.313,24
79,Medingenai,22.071,55.816,46
79,Labardziai,22.043,55.681,46
79,Leckava,22.237,56.393,46
79,Plinkses,22.179,56.141,46
331,Pagegiai,21.908,55.137,160
94,Bikavenai,21.993,55.404,39
94,Panemune,21.912,55.088,39
55,Serksnenai,22.227,56.237,33
55,Drobuksciai,22.04,55.526,24
94,Sartininkai,21.969,55.267,28
28,Bubliske,21.929,55.121,20
46,Kurmaiciai,22.262,56.335,39
33,Geidziai,22.251,56.29,20
112,Pajuris,22.029,55.45,66
28,Dziuginenai,22.175,55.984,20
66,Rubikai,22.229,56.175,33
66,Zadeikiai,22.07,55.58,33
79,Buozenai,22.195,56.029,33
33,Troskuciai,22.277,56.315,20
66,Gadunavas,22.214,56.063,28
24,Spurganai,22.267,56.263,20
46,Kentriai,21.993,55.197,28
46,Piktupenai,21.984,55.154,33
134,Tverai,22.148,55.733,79
24,Bokstai,22.093,55.527,20
46,Visbarai,22.05,55.372,33
94,Zygaiciai,22.035,55.31,66
28,Siksniai,22.021,55.251,24
28,Gaudikaiciai,22.231,56.012,20
39,Daubariai,22.305,56.283,20
24,Ryskenai,22.223,55.956,20
39,Reivyciai,22.329,56.348,28
331,Telsiai,22.232,55.98,276
79,Tirksliai,22.311,56.264,33
39,Traksedis,22.117,55.51,33
160,Zarenai,22.207,55.839,79
571,Mazeikiai,22.342,56.305,476
94,Buknaiciai,22.365,56.391,39
134,Balenos,22.319,56.2,33
24,Leteniai,22.353,56.26,20
55,Lauko Soda,22.257,55.893,39
66,Sakiai,22.071,55.211,66
55,Aukstupiai,22.091,55.279,28
39,Nevociai,22.165,55.535,20
66,Didkiemis,22.123,55.368,46
46,Degaiciai,22.298,55.996,28
28,Naikiai,22.38,56.284,20
28,Dirkintai,22.171,55.509,20
79,Urvikiai,22.401,56.339,33
46,Rainiai,22.302,55.96,33
79,Jucaiciai,22.177,55.452,20
55,Mitkaiciai,22.364,56.129,28
55,Pievenai,22.379,56.166,33
192,Laukuva,22.234,55.619,94
33,Vingininkai,22.196,55.474,20
55,Uzliekne,22.405,56.236,28
55,Kegai,22.301,55.842,39
55,Krakiai,22.419,56.269,39
55,Balsiai,22.222,55.512,20
28,Struikai,22.217,55.489,20
94,Siauduva,22.24,55.572,39
79,Kesciai,22.151,55.248,28
134,Vilkyskiai,22.13,55.119,94
94,Eigirdziai,22.375,56.011,33
112,Lauksargiai,22.163,55.209,39
66,Nerimdaiciai,22.407,56.084,55
33,Ziogaiciai,22.469,56.312,28
79,Vembutai,22.361,55.902,24
24,Birzu Laukas,22.245,55.474,20
39,Tubines I,22.26,55.526,20
33,Zibikai,22.455,56.226,24
46,Auksudys,22.496,56.366,28
46,Pozere,22.306,55.635,28
160,Pagramantis,22.233,55.366,39
55,Bilioniai,22.306,55.594,28
33,Dauglaukis,22.218,55.187,28
276,Varniai,22.372,55.742,192
55,Bytlaukis,22.325,55.538,28
94,Purvenai,22.535,56.313,39
28,Uzvente,22.512,56.224,20
94,Baltininkai,22.416,55.859,39
112,Vieksniai,22.518,56.238,94
33,Sungailiskiai,22.276,55.339,20
24,Norkaiciai,22.26,55.274,20
24,Oztakiai,22.385,55.73,20
39,Naujasis Obelynas,22.32,55.478,39
192,Laizuva,22.564,56.381,66
46,Taurages Dvaras,22.255,55.233,20
46,Duseikiai,22.46,55.979,46
112,Kapenai,22.524,56.159,55
55,Mazonai,22.3,55.32,28
685,Taurage,22.29,55.252,571
33,Gyvoliai,22.559,56.218,20
66,Zukai,22.26,55.114,55
24,Ubiske,22.499,55.987,20
46,Skirgailai,22.288,55.208,20
39,Palnosai,22.585,56.232,33
33,Sakvietis,22.363,55.386,28
55,Palentinis,22.445,55.645,46
79,Joniske,22.351,55.287,33
79,Pavandene,22.484,55.771,46
46,Vieksnaliai,22.515,55.842,39
192,Luoke,22.529,55.892,79
230,Tryskiai,22.583,56.056,112
46,Izdonai,22.439,55.516,24
160,Kaltinenai,22.455,55.564,112
66,Kaunatava,22.567,55.972,39
94,Pabalve,22.583,56.014,20
66,Juodpetriai,22.4,55.316,28
94,Lomiai,22.42,55.374,46
112,Upyna,22.443,55.45,66
39,Agluonai,22.704,56.334,20
55,Gineikiai,22.498,55.534,24
24,Kunigiskiai,22.422,55.255,24
28,Zerksciai,22.686,56.18,20
55,Kirkliai,22.614,55.907,24
55,Pasile,22.536,55.609,39
230,Viesvile,22.388,55.072,79
112,Venta,22.695,56.193,46
94,Kivyliai,22.745,56.35,66
39,Girdiske,22.514,55.467,28
112,Upyna,22.641,55.933,46
94,Karklenai,22.568,55.66,66
28,Akmene II,22.738,56.26,20
66,Kolainiai,22.603,55.752,28
24,Paeglesiai,22.722,56.188,20
79,Minupiai,22.628,55.831,39
112,Gaure,22.471,55.243,55
160,Akmene,22.745,56.246,66
79,Batakiai,22.515,55.351,20
55,Eidintai,22.52,55.323,55
134,Eiciai,22.483,55.165,55
160,Uzventis,22.653,55.783,112
94,Raudenai,22.72,56.013,66
39,Milgaudziai,22.521,55.266,24
55,Norkiske,22.554,55.385,20
94,Bijotai,22.575,55.462,39
33,Trepai,22.567,55.428,20
33,Zelviai,22.664,55.761,20
39,Junkilai,22.666,55.733,33
276,Skaudvile,22.585,55.407,134
94,Papile,22.793,56.151,46
33,Alkiskiai,22.839,56.266,20
94,Aunuvenai,22.73,55.857,55
33,Ramuciai,22.883,56.333,20
134,Kraziai,22.69,55.603,94
112,Dirvonenai,22.789,55.964,39
66,Sablauskiai,22.869,56.248,55
276,Naujoji Akmene,22.89,56.316,230
79,Stulgiai,22.679,55.487,24
46,Adakavas,22.667,55.405,39
79,Smalininkai,22.577,55.073,79
134,Vaiguva,22.752,55.702,55
112,Lybiskiai,22.666,55.345,46
46,Valpainiai,22.729,55.568,24
39,Pasilenai,22.81,55.827,20
39,Uzkalniai,22.725,55.456,24
28,Pakumulsiai,22.881,56.002,20
55,Butkiske,22.779,55.599,39
24,Burgaiciai,22.628,55.043,20
24,Romuciai,22.906,56.053,20
46,Pakevis,22.813,55.682,33
39,Sapnagiai,22.983,56.301,39
276,Erzvilkas,22.709,55.263,112
66,Sienlaukis,23.04,55.471,24
33,Pervazninkai,22.733,55.044,24
33,Pietariai,23.378,54.589,20
331,Jurbarkas,22.747,55.082,230
39,Varputenai,22.889,55.881,39
55,Zindaiciai,22.697,55.178,46
55,Micaiciai,22.914,55.974,24
24,Virgainiai,22.853,55.404,24
46,Kartupiai,22.741,55.333,33
66,Nemaksciai,22.773,55.431,66
24,Gedintes,22.941,56.04,20
55,Kurtuvenai,23.051,55.831,39
46,Grinaiciai,22.671,55.042,39
55,Siupyliai,23.147,56.095,46
160,Kybartai,22.766,54.64,112
94,Griniai,22.814,55.547,66
134,Saukenai,22.887,55.811,94
55,Vilkupiai,22.839,54.701,20
112,Kudirkos Naumiestis,22.861,54.773,94
46,Kupriai,23.194,55.934,20
55,Johampolis,23.15,55.66,33
55,Dauksiai,23.338,56.362,20
24,Voveriskiai,23.243,55.939,20
55,Ramonai,23.105,55.409,20
24,Lieporiai,23.237,55.893,20
39,Vencloviskiai,23.038,55.113,24
79,Jankunai,23.34,56.194,28
79,Rociskiai,22.679,55.007,28
33,Alvitas,22.925,54.636,24
66,Katauskiai,23.173,55.475,46
24,Skogalis,23.224,55.606,20
134,Kruopiai,23.02,56.241,66
39,Laikses,22.893,55.758,33
39,Lingailiai,23.328,55.838,20
46,Versiai,23.065,54.86,33
24,Sapnagiai,23.378,55.975,20
94,Dainiai,22.723,55.128,33
28,Karaliai,23.054,54.682,20
134,Meskuiciai,23.474,56.069,79
39,Serdokai,23.087,54.629,28
28,Gintauciai,23.329,55.479,20
55,Stirnenai,23.121,54.715,20
79,Paramotis,22.894,55.722,28
112,Gatauciai,23.53,56.153,66
79,Drasuciai,22.978,56.032,28
46,Papusynys,23.386,55.561,20
46,Liepalotai,23.247,54.948,33
33,Vereduva,23.345,55.293,24
55,Kirnaiciai,23.583,56.181,24
55,Tarprubeziai,23.124,54.454,33
55,Paprudziai,22.867,55.588,39
94,Karkliniai,23.167,54.529,66
79,Valaviciai,23.202,54.49,28
66,Rutkiskiai,22.792,55.288,28
94,Lygumai,23.654,56.004,66
28,Gergzdeliai,22.991,56.007,20
66,Visakio Ruda,23.433,54.817,33
55,Zarenai,23.046,56.178,33
55,Draudeliai,23.814,56.122,28
79,Zalpiai,22.859,55.482,46
46,Langakiai,23.592,55.169,20
28,Baragine,23.432,54.585,20
39,Jure,23.487,54.769,20
94,Paaluonys,23.615,55.217,33
79,Kuras,23.544,54.943,28
276,Vilkija,23.58,55.045,112
112,Gilvyciai,22.974,55.886,46
46,Liuciunai,23.615,55.145,46
33,Kukarske,22.75,55.058,20
79,Azuolu Buda,23.527,54.708,28
79,Gudziunai,23.772,55.51,66
33,Verpena,22.92,55.658,20
94,Pavidaujys,22.809,55.209,39
192,Girdziai,22.796,55.163,55
230,Slavikai,22.743,54.96,94
39,Smilgiai,23.019,55.944,28
24,Kiduliai,22.783,55.066,20
685,Kelme,22.943,55.631,192
134,Paupys,22.868,55.315,46
134,Vidukle,22.901,55.405,94
66,Kukeciai,22.975,55.66,24
39,Rotuliai,22.822,55.092,33
134,Lioliai,22.957,55.557,55
112,Sakyna,23.126,56.179,55
39,Silgaliai,22.786,54.925,24
79,Gaizaiciai,23.161,56.262,55
94,Gilaiciai,23.078,55.935,46
39,Paskynai,22.903,55.238,20
33,Gailiai,22.989,55.537,20
112,Gyliai,22.966,55.449,39
66,Matlaukys,22.729,54.577,46
94,Lupikai,23.047,55.712,46
66,Kybeikiai,22.745,54.61,24
112,Vadzgirys,22.926,55.254,94
79,Zygenai,22.876,55.046,33
55,Sujainiai,22.971,55.377,33
112,Voveriai,22.87,55.01,28
331,Vistytis,22.719,54.454,94
112,Kuziai,23.14,55.984,66
33,Anziliai,22.983,55.398,20
94,Panoviai,22.845,54.9,55
55,Sauginiai,23.121,55.902,24
39,Skirsnemune,22.903,55.095,39
94,Gudkaimis,22.787,54.681,33
79,Gotlybiskiai,22.872,54.962,55
55,Piktuiziai,23.195,56.153,33
79,Maironiai,23.049,55.605,39
160,Zagare,23.257,56.358,160
66,Gervine,22.987,55.336,33
46,Laugalis,23.054,55.58,20
79,Verbunai,23.178,56.022,33
55,Bubiai,23.141,55.856,28
79,Keturkaimis,22.838,54.738,28
94,Pauliai,22.968,55.181,55
192,Bazilionai,23.139,55.795,46
39,Virbalis,22.822,54.626,28
46,Alejai,23.051,55.439,28
39,Simkaiciai,22.996,55.23,33
39,Slabada,23.039,55.388,28
24,Meskiai,23.171,55.865,20
39,Siaudiniskiai,22.845,54.66,28
46,Valenciunai,22.95,55.026,33
39,Stungiai,23.306,56.343,24
331,Gruzdziai,23.249,56.097,112
112,Pasiause,23.157,55.743,33
39,Pilis I,22.983,55.101,20
134,Gelgaudiskis,22.979,55.076,94
33,Duobiskiai,22.948,54.961,33
55,Bliudziai,23.034,55.269,33
134,Pajevonys,22.838,54.564,46
33,Pagryzuvys,23.131,55.608,33
39,Noreikiai,23.234,55.97,20
112,Uzsieniai,22.925,54.835,39
134,Aukstelke,23.213,55.877,33
28,Dainos,23.226,55.911,20
66,Kiaunoriai,23.171,55.699,46
66,Bubleliai,22.926,54.805,24
33,Darzininkai,22.915,54.75,28
24,Pajotijys,22.996,55.023,20
66,Kalnujai,23.096,55.328,28
33,Budvieciai,22.879,54.544,24
476,Raseiniai,23.114,55.382,276
28,Gabsiai,23.109,55.35,20
28,Vijoliai,23.274,55.947,20
39,Reibiniai,23.371,56.289,20
112,Sintautai,22.995,54.881,66
134,Jurdaiciai,23.363,56.228,66
94,Skaistgirys,23.384,56.306,66
79,Trilaukys,22.896,54.511,20
79,Stakiai,23.083,55.181,46
192,Tytuvenai,23.197,55.597,112
66,Pruseliai,23.038,55.006,39
33,Geguziai,23.281,55.892,20
46,Vinksnenai,23.309,55.983,24
33,Gruzdiske,23.153,55.402,20
28,Klausuciai,22.965,54.703,24
28,Uzbaliai,22.918,54.526,20
79,Isdagai,23.032,54.916,33
24,Patunkiskiai,22.958,54.651,20
55,Budraiciai,23.226,55.622,24
39,Norgelai,23.157,55.359,24
55,Pakape,23.274,55.782,33
1183,Siauliai,23.316,55.934,822
79,Graziskiai,22.922,54.468,46
28,Striupai,23.056,54.94,20
160,Bridai,23.348,56.01,24
39,Klampuciai,22.959,54.579,33
39,Paezeriai,22.976,54.638,24
79,Sedbarai,23.259,55.655,55
134,Siluva,23.227,55.531,46
24,Lankaiciai,23.43,56.292,24
33,Zvirgzdaiciai,23.03,54.793,33
94,Einoraiciai,23.319,55.82,46
66,Giedriai,23.009,54.686,24
46,Ginkunai,23.356,55.954,20
79,Raudone,23.132,55.1,66
39,Teiberiai,23.026,54.709,20
55,Augalai,23.035,54.729,39
55,Rudiskiai,23.43,56.154,46
134,Girkalnis,23.208,55.309,55
160,Vilkaviskis,23.035,54.652,160
112,Tyruliai,23.346,55.773,33
39,Maldeniai,23.472,56.243,33
28,Vokiskeliai,23.045,54.669,20
112,Kaulakiai,23.26,55.427,55
33,Ploksciai,23.165,55.08,20
66,Pramedziava,23.216,55.26,39
94,Bizieriai,23.144,54.997,33
55,Linkaiciai,23.472,56.198,33
94,Acokavai,23.349,55.727,33
24,Geisteriskiai,23.024,54.537,20
79,Lakstuciai,23.035,54.575,46
39,Zeimiai,23.419,55.966,28
46,Janukiskiai,23.093,54.771,39
94,Bartninkai,23.026,54.501,94
55,Degutine,23.116,54.814,33
66,Pustapedziai,23.058,54.607,28
46,Aistiskiai,23.007,54.421,39
33,Vartai,23.02,54.467,20
24,Gudeliai,23.082,54.653,20
94,Silenai,23.416,55.865,39
28,Saugailiai,23.292,55.399,20
66,Kairiai,23.435,55.92,39
94,Luksiai,23.171,54.949,55
94,Tamosiai,23.238,55.174,55
79,Jauniunai,23.495,56.106,33
46,Paseimeniai,23.068,54.543,24
79,Zaiginys,23.334,55.492,55
39,Daunoriske,23.555,56.313,28
46,Griciai,23.265,55.22,28
33,Jakiskiai,23.521,56.172,20
160,Griskabudis,23.171,54.851,79
134,Liubavas,23.035,54.367,66
39,Kalnelis,23.55,56.244,28
39,Kuosenai,23.069,54.472,24
24,Mankiskiai,23.446,55.845,20
192,Siaulenai,23.402,55.677,79
46,Suvalkai,23.124,54.647,20
39,Opsrutai,23.138,54.691,24
28,Kubiliai,23.246,55.067,20
46,Milasaiciai,23.321,55.329,28
46,Skirmantiske,23.347,55.423,39
39,Bardauskai,23.115,54.582,20
39,Zadvainiai,23.577,56.275,20
46,Berteskiai,23.342,55.39,20
94,Naisiai,23.518,56.02,33
39,Patilciai,23.101,54.492,20
24,Mekiai,23.541,56.099,20
33,Ziniunai,23.576,56.224,20
39,Backiskiai,23.144,54.6,33
24,Deguciai,23.125,54.529,20
46,Sniuraiciai,23.494,55.871,28
79,Akmenynai,23.093,54.414,39
46,Zadziunai,23.506,55.913,33
94,Veliuona,23.28,55.077,33
134,Saukotas,23.419,55.58,79
112,Barzdai,23.2,54.783,46
28,Kutiskiai,23.49,55.834,24
134,Betygala,23.369,55.363,66
46,Stupurai,23.58,56.125,20
112,Juodaiciai,23.342,55.227,55
66,Paezeriai,23.187,54.666,66
46,Baltrusiai,23.209,54.746,20
685,Joniskis,23.614,56.239,276
112,Satkunai,23.629,56.288,28
24,Keturvalakiai,23.164,54.553,20
79,Paluobiai,23.259,54.882,33
66,Daugelaiciai,23.499,55.746,33
134,Pilviskiai,23.22,54.72,79
46,Patasine,23.253,54.832,39
79,Plikiskiai,23.665,56.337,66
55,Salaperaugis,23.118,54.33,46
28,Ilguva,23.324,55.063,24
24,Berzininkai,23.642,56.224,20
55,Gasciunai,23.623,56.145,39
192,Radviliskis,23.537,55.815,112
46,Didziuliai,23.396,55.282,39
33,Jurgezeriai,23.155,54.411,28
46,Deguciai,23.585,55.967,24
39,Voskoniai,23.57,55.881,33
79,Balsupiai,23.208,54.56,28
66,Zeimiai,23.517,55.68,55
33,Bariunai,23.669,56.248,24
46,Steponkaimis,23.45,55.423,28
94,Gizai,23.224,54.603,46
55,Pozeciai,23.426,55.33,33
112,Klausuciai,23.367,55.111,94
79,Gerdziunai,23.345,55.027,28
24,Skilvioniai,23.69,56.282,24
55,Kepaliai,23.67,56.206,28
66,Armeniskiai,23.387,55.147,33
33,Trakenai,23.187,54.365,20
46,Ramoniskiai,23.276,54.675,24
28,Drasutaiciai,23.728,56.341,28
94,Pamusis,23.664,56.093,39
79,Linkaiciai,23.581,55.768,33
66,Joginiskiai,23.389,55.055,24
39,Posupes,23.706,56.222,20
134,Staciunai,23.632,55.939,55
94,Minaiciai,23.55,55.631,33
79,Buda,23.33,54.803,33
39,Karcemos,23.599,55.785,20
28,Kriukai,23.406,55.069,20
66,Jankai,23.343,54.843,46
39,Giedraiciai,23.543,55.568,20
331,Kalvarija,23.225,54.415,112
46,Antanavas,23.308,54.703,46
39,Kalnelio Grazioniai,23.616,55.829,20
79,Dievogala,23.533,55.508,46
46,Seredzius,23.417,55.082,28
66,Mindaugiai,23.74,56.271,28
79,Ilgiziai III,23.507,55.394,33
46,Miezaiciai,23.599,55.731,28
28,Svetlica,23.259,54.491,24
28,Skaisciunai,23.281,54.552,24
55,Jungenai,23.253,54.441,24
33,Raudeniskiai,23.237,54.376,20
230,Ariogala,23.484,55.263,192
94,Aukstelkai,23.644,55.847,46
66,Mikniunai,23.719,56.122,28
24,Zibuliai,23.522,55.38,20
94,Bagotoji,23.351,54.756,46
24,Katiliskiai,23.308,54.59,20
134,Sangruda,23.233,54.32,79
66,Butkiske,23.489,55.231,24
66,Sunskai,23.326,54.641,39
33,Arimaiciai,23.645,55.796,20
39,Meskuciai,23.296,54.518,20
46,Pasusvys,23.594,55.583,24
24,Santaka,23.269,54.406,20
46,Juseviciai,23.268,54.389,24
112,Paliepiai,23.544,55.349,66
55,Senoji Radiske,23.252,54.294,20
46,Mokolai,23.339,54.574,20
94,Buciunai,23.784,56.21,39
46,Sukioniai,23.717,55.941,39
39,Kumelionys,23.333,54.532,20
331,Marijampole,23.345,54.551,331
112,Kriukai,23.82,56.298,79
33,Kruveliai,23.404,54.749,24
33,Mockai,23.286,54.325,24
112,Cekiske,23.52,55.158,66
39,Plikiai,23.535,55.208,24
24,Nartelis,23.344,54.517,20
39,Eiksciai,23.519,55.138,20
192,Grinkiskis,23.635,55.554,79
55,Brukai,23.322,54.405,24
39,Tursuciai,23.394,54.657,20
134,Azytenai,23.62,55.46,33
46,Gavaltuva,23.41,54.679,28
28,Uzgiriai,23.347,54.454,20
134,Liudvinavas,23.356,54.482,55
134,Lekeciai,23.498,54.984,55
112,Pasvitinys,23.815,56.159,66
112,Puskelniai,23.394,54.604,28
39,Susninkai,23.333,54.373,33
55,Vaitiekunai,23.645,55.498,33
94,Daugeliskiai,23.54,55.102,39
66,Veriskiai,23.711,55.724,28
46,Netickampis,23.375,54.501,20
33,Pavartyciai,23.727,55.774,20
46,Kaireneliai,23.662,55.52,20
39,Lieporai,23.875,56.286,24
55,Akuotai,23.552,55.074,20
33,Budvietis,23.331,54.286,28
39,Bebruliske,23.449,54.7,20
55,Medikoniai,23.774,55.878,39
28,Bukta,23.393,54.451,20
46,Mikytai,23.554,55.024,20
39,Patasine,23.421,54.544,33
55,Preiciunai,23.799,55.928,39
28,Plinkaigalis,23.664,55.414,28
112,Seduva,23.758,55.754,112
66,Alksniupiai,23.775,55.814,46
39,Tautkaiciai,23.45,54.616,24
55,Blauzdziunai,23.911,56.317,28
331,Baisogala,23.734,55.639,94
134,Sasnava,23.462,54.65,46
79,Zelsva,23.404,54.435,33
28,Kulokai,23.416,54.475,20
94,Pernarava,23.643,55.267,55
66,Pajieslys,23.67,55.35,28
66,Naujiena,23.406,54.395,24
55,Triskoniai,23.871,56.086,46
28,Jadagoniai,23.578,54.989,24
33,Niauduva,23.793,55.775,20
46,Dzukai,23.394,54.319,28
24,Raudondvaris,23.791,55.753,20
46,Mazeikoniai,23.858,56.002,20
46,Grikpedziai,23.915,56.211,46
28,Prastavoniai,23.789,55.725,20
24,Vidzgailai,23.404,54.329,20
33,Pakirsinys,23.77,55.65,20
24,Jaucakiai,23.604,55.031,20
39,Padovinys,23.459,54.501,33
24,Smilgiai,23.496,54.617,20
28,Altoniskiai,23.591,54.948,20
55,Rimkunai,23.916,56.147,33
66,Skemiai,23.765,55.566,46
24,Pelutava,23.683,55.263,20
33,Gyviskiai,23.466,54.477,20
55,Meironiskiai,23.718,55.382,24
55,Krakes,23.728,55.409,55
33,Valatkoniai,23.789,55.63,20
112,Sestokai,23.444,54.359,55
79,Bubiai,23.635,54.995,33
160,Ezerelis,23.605,54.882,66
55,Pakalniskiai,23.847,55.771,39
134,Rozalimas,23.881,55.893,66
46,Virbaliunai,23.632,54.966,20
28,Palonai,23.823,55.644,24
112,Rudamina,23.449,54.289,39
55,Plauciskiai,23.879,55.841,39
55,Butenai,23.847,55.719,28
55,Padauguva,23.666,55.042,28
230,Zeimelis,23.999,56.272,160
55,Igliskeliai,23.539,54.565,39
112,Petrasiunai,23.938,56.024,33
66,Kulautuva,23.646,54.94,46
39,Varnupiai,23.52,54.488,28
46,Skaistgiriai,23.717,55.197,39
55,Jure,23.598,54.757,33
66,Angiriai,23.747,55.286,24
46,Naujoji Kirsna,23.486,54.33,24
28,Kalpokai,23.962,56.073,20
39,Dievogala,23.662,54.919,20
46,Salos,23.46,54.226,28
230,Linkuva,23.972,56.086,94
33,Plentas,23.973,56.101,20
24,Mikoliskis,24.062,56.215,20
33,Pagyne,23.82,55.118,20
94,Gudeliai,23.687,54.524,33
79,Nairiai,24.168,56.21,28
33,Daugirdai,23.76,54.496,28
66,Krosna,23.531,54.38,39
55,Arlaviskes,24.194,54.81,20
66,Titoniai,24.02,56.05,28
46,Venciunai,24.133,54.384,20
79,Paneveziukas,23.787,55.138,39
55,Klovainiai,23.942,55.948,46
66,Zasliai,24.59,54.865,55
33,Kukliai,23.555,54.21,20
160,Papilys,25.005,56.12,112
66,Papilvis,23.63,54.79,28
46,Vilemai,23.66,54.898,20
79,Bardiskiai,24.014,56.213,46
94,Jiestrakis,23.697,54.636,28
94,Muniskiai,23.813,55.021,39
66,Zibartoniai,23.958,55.537,66
66,Stebuliai,23.626,54.328,33
94,Ringaudai,23.797,54.887,39
39,Verebiejai,23.696,54.457,33
66,Sventezeris,23.64,54.241,55
24,Paparciai,23.858,55.017,20
94,Silavotas,23.77,54.671,66
46,Gudeliai,23.62,54.722,24
28,Joniskelis,24.17,56.037,20
24,Subaciskes,23.613,54.688,24
46,Teleiciai,23.883,54.842,20
46,Mantviliskis,23.822,55.441,33
24,Saboniai,24.213,56.059,20
39,Pagiriai,23.875,54.803,20
94,Domeikava,23.921,54.967,39
46,Zvirbloniai,23.937,55.865,24
33,Titkoniai,24.265,56.156,20
24,Pajiesys,23.894,54.756,20
39,Vikaiciai,23.848,55.52,33
28,Ciudiskiai,23.898,54.691,20
24,Balsiai,23.98,56.009,20
28,Zagariai,23.779,54.247,20
79,Barciai,23.729,54.061,20
33,Biruliskes,23.991,54.935,20
46,Pociuneliai,23.866,55.572,46
46,Lapes,24.007,54.977,24
192,Balbieriskis,23.889,54.517,79
39,Skaistgiriai,24.255,55.831,33
112,Udekai,24.023,56.154,28
28,Pamusis,23.993,56.038,20
55,Viktarinas,23.778,54.03,28
55,Upyte,24.23,55.65,39
230,Salociai,24.404,56.229,134
55,Talackoniai,24.362,56.028,33
66,Neveronys,24.092,54.925,33
33,Sviliai,23.793,55.262,24
28,Pabirzis,24.106,54.937,20
24,Seskai,24.35,55.794,20
46,Puodziunai,24.391,55.895,24
66,Dauksiai,23.585,54.501,46
160,Seta,24.252,55.281,112
33,Byliskes,23.671,54.8,20
39,Darsuniskis,24.118,54.736,28
112,Uliunai,24.363,55.622,39
46,Smilgiai,24.541,56.253,24
79,Girsudai,24.48,56.014,39
33,Kacergine,23.711,54.933,28
46,Buciunai,24.092,54.567,33
55,Pociunai,23.945,55.785,28
33,Spanenai,24.261,55.058,20
55,Skriaudziai,23.663,54.745,24
66,Daujenai,24.519,55.976,28
331,Lazdijai,23.521,54.23,160
192,Vainotiskiai,23.845,55.397,79
24,Naujikai,24.495,55.793,20
39,Balninkai,24.112,54.336,24
134,Makniunai,24.089,54.245,55
79,Linkaviciai,24.04,56.115,28
112,Sidabravas,23.929,55.697,66
94,Vieciunai,24.05,54.058,28
66,Kibysiai,24.083,54.148,33
28,Laipuskiai,23.993,55.932,24
46,Verstaminai,23.545,54.296,46
112,Mieziskiai,24.532,55.677,46
39,Kalviai,24.283,54.706,28
46,Panoteriai,24.432,55.197,33
24,Valuciai,23.846,55.362,20
24,Rukla,24.409,55.051,20
66,Plutiskes,23.659,54.674,55
33,Rinkuskiai,24.729,56.215,20
46,Nevezis,24.596,55.646,33
230,Merkine,24.191,54.165,94
28,Devynduoniai,23.896,55.532,20
39,Kupriai,23.668,54.698,20
822,Birzai,24.756,56.196,397
94,Palomene,24.46,54.941,66
39,Raguvele,24.662,55.656,28
46,Azuolaiciai,23.853,55.346,20
55,Atkociai,24.576,55.253,39
79,Azuoliniai,23.601,54.428,33
66,Kuciunai,23.52,54.125,28
24,Guostagalis,24.068,56.123,20
33,Virbaliskiai,23.742,54.912,20
66,Gacioniai,24.005,55.885,28
134,Baleliai,24.713,55.46,55
112,Josvainiai,23.836,55.245,66
134,Igliauka,23.651,54.573,112
46,Kunioniai,23.827,55.206,33
112,Perloja,24.417,54.214,55
134,Babtai,23.797,55.088,79
79,Miegenai,23.909,55.499,33
94,Miskiniai,23.537,54.158,55
33,Vaickuniskes,24.539,54.506,28
46,Pazerai,23.726,54.812,24
39,Sventragis,23.654,54.547,20
331,Elektrenai,24.646,54.776,230
66,Lipliunai,23.863,55.303,28
28,Mitkunai,23.754,54.897,20
55,Dotnuva,23.888,55.367,24
112,Veiveriai,23.725,54.765,55
94,Raudondvaris,23.774,54.94,66
94,Beinorava,23.992,55.736,33
33,Nemajunai,23.578,54.227,28
192,Smilgiai,24.017,55.805,79
46,Poderiskiai,23.765,54.869,20
28,Lizdeikiai,23.728,54.728,20
39,Sitkunai,23.815,55.041,20
66,Slapaberze,23.925,55.423,33
33,Nakiskiai,24.078,55.991,20
46,Degesiai,24.125,56.16,33
33,Uzliedziai,23.81,54.972,28
112,Vadaktai,23.991,55.635,46
79,Mitriunai,23.976,55.578,33
230,Simnas,23.648,54.382,134
39,Juodbudis,23.748,54.741,20
39,Mauruciai,23.763,54.779,20
28,Vainikai,23.885,55.214,20
46,Padainupys,23.788,54.827,20
55,Teizai,23.631,54.267,20
28,Keleriskiai,23.92,55.281,24
94,Norgelai,24.107,55.972,46
55,Spernia,23.668,54.354,20
24,Akademija,23.824,54.896,20
46,Sausine,23.853,54.995,24
94,Labunava,23.907,55.19,39
28,Mergalaukis,23.687,54.387,20
39,Juragiai,23.802,54.795,28
39,Daumantai,23.952,55.336,20
55,Gruziai,24.161,56.109,46
28,Kampiskiai,23.824,54.836,24
55,Mikyciai,23.647,54.202,28
66,Sujetai,24.095,55.83,33
79,Deglenai,24.123,55.93,33
39,Pasiliai,23.938,55.233,20
55,Pereksliai,24.082,55.77,33
33,Ingavangis,23.785,54.652,20
39,Giraite,23.869,54.95,20
46,Naujoji Uta,23.764,54.571,39
24,Sirutiskis,23.982,55.358,20
46,Angininkai,23.722,54.397,20
66,Pelednagiai,23.961,55.25,33
55,Narteikiai,24.176,56.052,24
112,Joniskelis,24.169,56.024,94
28,Petroskai,23.644,54.098,24
46,Kalnaberze,24.007,55.401,39
160,Vaskai,24.211,56.169,79
28,Paobelys,23.972,55.265,20
331,Kedainiai,23.985,55.286,160
55,Surviliskis,24.034,55.449,46
28,Janenai,23.703,54.242,28
28,Zemaitkiemis,23.808,54.6,28
24,Liberiskis,24.108,55.698,24
33,Vilainiai,24.003,55.299,20
192,Garliava,23.873,54.822,66
55,Krokialaukis,23.766,54.435,55
79,Tiskunai,24.022,55.346,39
112,Vandziogala,23.959,55.115,66
24,Naugardiske,23.887,54.854,20
39,Klebiskis,23.839,54.667,33
134,Meteliai,23.739,54.3,46
94,Valerava,23.95,55.049,33
24,Medeksiai,24,55.233,20
134,Kapciamiestis,23.656,54.002,79
79,Kumeciai,23.758,54.355,39
55,Sventybrastis,24.052,55.419,20
79,Ilgakiemis,23.878,54.775,39
160,Veisiejai,23.695,54.102,79
230,Krekenava,24.097,55.543,160
46,Savieciai,24,55.174,39
33,Voskoniai,23.95,54.99,20
79,Sukuriai,23.813,54.486,33
66,Kiemenai,24.293,56.252,55
134,Avizieniai,23.728,54.174,55
46,Gustonys,24.167,55.738,39
134,Naujamiestis,24.155,55.688,66
33,Siauliskiai,23.881,54.679,20
55,Grazuciai,23.896,54.717,20
55,Santaika,23.804,54.386,28
24,Parecenai,23.791,54.342,20
94,Paprudziai,23.859,54.58,46
55,Namisiai,24.304,56.214,28
46,Nociunai,24.041,55.218,24
24,Kailiniai,23.727,54.087,20
46,Naujarodziai,24.141,55.57,24
55,Pusalotas,24.24,55.931,39
39,Noriai,24.296,56.136,28
55,Mikoliskis,24.237,55.903,24
46,Manikunai,24.314,56.191,20
66,Islauzas,23.925,54.74,20
33,Linksmakalnis,23.933,54.76,28
39,Rokai,23.953,54.828,33
986,Kaunas,23.979,54.913,571
55,Boniskiai,24.03,55.077,39
55,Aristava,24.09,55.292,39
66,Daukniunai,24.227,55.766,24
39,Girininkai,23.958,54.772,20
39,Zagariai,23.878,54.473,28
134,Linkauciai,24.152,55.465,55
192,Seirijai,23.817,54.228,112
28,Patamulselis,23.982,54.815,20
79,Kuigaliai,24.084,55.186,66
112,Udrija,23.877,54.439,28
39,Berciunai,24.233,55.737,24
331,Prienai,23.94,54.636,134
66,Beinaiciai,24.107,55.234,28
39,Ramuciai,24.031,54.947,33
33,Lavenai,24.293,55.92,20
66,Tetirvinai,24.349,56.115,28
39,Valakeliai,24.333,56.051,20
39,Petkunai,24.171,55.43,24
66,Strielciai,23.964,54.667,28
112,Lanciunava,24.152,55.347,55
28,Zadeikoniai,24.376,56.188,28
39,Varnenai,23.802,54.081,28
66,Draseikiai,24.064,55.006,24
55,Vankiskiai,23.886,54.363,24
33,Daukniskiai,24.283,55.813,20
33,Ustukiai,24.356,56.08,24
33,Aukstieji Kapliai,24.145,55.285,24
55,Backininkai,23.985,54.701,20
33,Bernatoniai,24.291,55.781,33
66,Vaisvydava,24.037,54.841,20
230,Pumpenai,24.336,55.935,94
55,Miroslavas,23.9,54.333,39
79,Karmelava II,24.079,54.974,24
28,Girionys,24.048,54.859,20
55,Jovaisiai,23.845,54.123,24
94,Seiliunai,23.889,54.273,39
46,Puodziai,24.395,56.133,20
94,Kalnas,24.355,55.978,33
55,Luksnenai,23.926,54.398,39
33,Asminta,24.006,54.679,20
112,Bategala,24.107,55.043,33
94,Eriskiai,24.256,55.577,46
46,Norageliai,23.89,54.244,20
79,Geniai,23.959,54.471,24
33,Margininkai,24.053,54.79,33
192,Paistrys,24.337,55.841,46
33,Geguzine,24.342,55.856,20
66,Molainiai,24.303,55.708,24
33,Butrimiskiai,23.954,54.43,20
94,Leipalingis,23.863,54.092,66
39,Ziegzdriai,24.086,54.886,20
24,Aukstikalniai,24.406,56.073,20
55,Puskoniai,24.436,56.186,24
79,Slienava,24.085,54.868,39
66,Pavermenys,24.238,55.422,46
55,Pupasodis,23.93,54.299,24
33,Plukiai,24.333,55.761,20
134,Pakuonis,24.053,54.725,55
24,Sviloneliai,24.131,55.007,20
39,Isorai,24.131,54.995,20
66,Zilpamusis,24.442,56.157,20
28,Dubravai,24.092,54.843,20
94,Okainiai,24.241,55.387,28
66,Birstonas,24.027,54.604,46
66,Krikstonys,23.924,54.215,55
33,Talokiai,23.963,54.345,20
79,Kulva,24.177,55.108,46
33,Likiskeliai,23.977,54.387,24
66,Piniava,24.361,55.78,33
33,Miklusenai,23.998,54.44,20
39,Ruciunai,24.189,55.129,20
66,Cicinai,24.176,55.075,24
33,Bartoniai,24.169,55.051,20
39,Papyvesiai,24.449,56.086,20
112,Radziunai,23.986,54.358,24
66,Aukstadvaris,24.296,55.479,24
55,Rinkunai,24.426,55.966,33
112,Ramygala,24.308,55.51,94
55,Sangailai,24.256,55.31,24
160,Zeimiai,24.221,55.18,79
79,Juskonys,24.242,55.239,33
39,Raubonys,24.478,56.128,20
46,Panemuninkai,24.037,54.493,20
160,Piliuona,24.119,54.782,66
33,Barklainiai I,24.338,55.58,33
33,Paezeriai,24.281,55.366,20
39,Grabuciskes,24.154,54.897,24
822,Alytus,24.022,54.414,397
39,Gervenupis,24.142,54.843,28
33,Kiemeliai,24.471,56.068,20
46,Praniunai,24.039,54.471,28
55,Silagalys,24.373,55.672,20
66,Pasvalieciai,24.518,56.224,39
24,Pazagieniai,24.381,55.692,20
112,Pajiesmeniai,24.49,56.109,46
33,Nemunaitis,24.007,54.325,24
39,Vaivadai,24.401,55.756,20
55,Uzusaliai,24.197,54.982,46
66,Krikliniai,24.45,55.913,39
28,Staniunai,24.4,55.713,20
33,Dembava,24.412,55.732,24
94,Nemunaitis,24.024,54.301,20
46,Ragoziai,24.247,55.104,20
55,Svendubre,23.936,53.981,33
46,Paliuniskis,24.441,55.791,33
33,Vaivadiskiai,24.27,55.143,20
24,Gulbiniskiai,24.244,55.031,20
24,Virsuziglis,24.189,54.832,24
94,Pravieniskes II,24.213,54.918,94
28,Liciunai,24.519,56.06,20
46,Ricieliai,23.98,54.08,28
46,Krincinas,24.527,56.084,20
46,Ryliskiai,24.02,54.215,28
94,Punia,24.104,54.51,66
24,Zagariai,24.095,54.473,20
39,Krastai,24.543,56.132,24
55,Sveicarija,24.258,55.041,28
66,Velzys,24.433,55.692,28
46,Meduksta,24.091,54.435,20
192,Rumsiskes,24.213,54.867,39
822,Druskininkai,23.975,54.018,331
55,Liepiai,24.302,55.181,39
39,Daniunai,24.379,55.464,33
39,Katinai,24.414,55.595,28
112,Jotainiai,24.41,55.557,46
28,Prauliai,24.292,55.113,20
24,Kerava,24.448,55.678,20
28,Norgeliskes,24.113,54.446,20
79,Kasonys,24.173,54.643,33
79,Paceriaukste I,24.611,56.266,55
66,Alytus,24.11,54.41,39
79,Vilkiautinis,24.028,54.112,39
79,Juostavieciai,24.623,56.3,28
94,Kirdonys,24.592,56.171,46
39,Vaisodziai,24.13,54.458,24
79,Germaniskis,24.648,56.375,46
28,Kaubariskis,24.497,55.78,28
160,Jieznas,24.178,54.601,66
39,Kaniukai,24.113,54.368,20
94,Vezionys,24.169,54.556,39
46,Neravai,24.027,54.036,20
66,Dovainonys,24.252,54.832,24
112,Pagiriai,24.397,55.361,55
94,Silai,24.334,55.124,39
112,Vilunai,24.221,54.704,46
112,Bukonys,24.367,55.227,55
79,Kruonis,24.24,54.757,55
79,Trakiskis,24.514,55.733,39
79,Mazeniai,24.485,55.61,28
66,Jaskonys,24.036,53.98,33
39,Gaiziunai,24.333,55.038,20
55,Tulpiakiemis,24.414,55.332,20
94,Vadokliai,24.465,55.496,46
112,Bazorai,24.177,54.432,28
55,Naciunai,24.654,56.19,24
33,Grutas,24.077,54.033,20
134,Alove,24.173,54.349,24
46,Stoskai,24.388,55.12,24
55,Gulbinenai,24.647,56.082,28
39,Panara,24.111,54.104,39
79,Rukla,24.377,55.052,55
46,Karsakiskis,24.578,55.793,33
55,Antakalnis,24.341,54.85,39
39,Sukionys,24.659,56.03,28
160,Butrimonys,24.253,54.501,79
33,Klausuciai,24.706,56.171,24
397,Nemunelio Radviliskis,24.77,56.397,160
46,Anciskiai,24.662,55.973,39
46,Uzusiliai,24.746,56.293,39
55,Kedonys,24.265,54.472,24
39,Piestuvenai,24.314,54.63,28
94,Kratiskiai,24.718,56.102,66
160,Siesikai,24.504,55.295,66
46,Draseikiai,24.76,56.243,33
39,Aklasis ezeras,24.475,55.152,33
94,Stakliskes,24.323,54.591,66
55,Meskuciai,24.244,54.282,28
79,Tauckunai,24.418,54.904,33
24,Mediniai Strevininkai,24.392,54.798,24
66,Mieliunai,24.72,56.018,28
79,Vysniunai,24.321,54.535,24
33,Eiciunai,24.315,54.506,28
39,Miezonys,24.423,54.884,20
55,Gripiskes,24.345,54.56,20
55,Tiltagaliai,24.682,55.798,33
94,Gudakiemis,24.247,54.206,33
230,Raguva,24.622,55.566,66
24,Uzuneveziai,24.622,55.555,20
79,Silai,24.606,55.493,39
94,Lenas,24.59,55.427,46
28,Kiluciai,24.792,56.181,20
55,Petronys,24.567,55.316,24
192,Medeikiai,24.822,56.275,66
55,Nepreksta,24.476,54.97,24
230,Vabalninkas,24.747,55.98,134
28,Pilvingiai,24.275,54.242,24
79,Uzuguostis,24.389,54.624,33
112,Ziezmariai,24.443,54.804,46
66,Mikalavas,24.341,54.427,28
33,Pakertai,24.439,54.77,24
66,Nausedziai,24.786,56.063,28
33,Stasiunai,24.468,54.842,20
79,Rimenai,24.327,54.327,28
46,Geidziunai,24.811,56.109,20
192,Upninkai,24.539,55.081,66
55,Nemaitonys,24.425,54.662,24
55,Obelaukiai,24.837,56.191,39
230,Daugai,24.347,54.362,112
66,Pivasiunai,24.375,54.46,33
33,Jakutiskiai,24.586,55.223,24
46,Paroveja,24.859,56.247,20
46,Meilunai,24.807,56.026,39
160,Vepriai,24.575,55.151,55
46,Kirmeliai,24.694,55.58,28
66,Nedzinge,24.329,54.246,46
192,Subacius,24.744,55.765,94
66,Kancenai,24.376,54.39,24
46,Uoginiai,24.784,55.884,20
55,Levaniskiai,24.693,55.531,33
79,Anglininkai,24.851,56.129,33
39,Lukonys,24.768,55.798,28
39,Muro Strevininkai,24.497,54.777,28
112,Antasava,24.801,55.906,39
28,Kasciukiskes,24.537,54.902,28
66,Kultuvenai,24.602,55.115,24
94,Beizionys,24.486,54.682,55
55,Subacius,24.781,55.733,24
55,Zubiskes,24.577,54.969,39
160,Kabeliai,24.297,53.954,94
112,Tolkunai,24.394,54.273,28
112,Dainava,24.652,55.201,33
66,Deltuva,24.669,55.239,46
66,Zeimiai,24.686,55.286,39
28,Traupis,24.747,55.513,28
66,Salamiestis,24.875,55.944,55
230,Stabintiskes,24.599,54.904,33
55,Guronys,24.581,54.837,24
79,Gudziai,24.444,54.333,46
94,Surdegis,24.814,55.67,66
55,Jagelonys,24.567,54.728,28
134,Aukstadvaris,24.527,54.579,134
33,Leonpolis,24.709,55.217,20
112,Dusmenys,24.499,54.437,46
112,Taujenai,24.762,55.39,66
28,Statikai,24.723,55.244,20
46,Antakalnis,24.693,55.109,33
160,Marcinkonys,24.402,54.06,112
94,Liukonys,24.672,55.022,39
94,Ciobiskis,24.658,54.956,39
46,Giluciai,24.618,54.81,20
46,Ciziunai,24.564,54.598,20
46,Naujosios Kietaviskes,24.609,54.758,20
33,Mikalauciskes,24.653,54.916,24
94,Gelvonai,24.694,55.065,66
94,Noriunai,24.894,55.802,39
28,Baksenai,24.934,55.937,28
134,Kupreliskis,24.964,56.04,46
33,Saukava,24.763,55.275,20
79,Rudiliai,24.899,55.76,33
66,Pamusis,24.795,55.354,24
685,Ukmerge,24.771,55.247,192
66,Recionys,24.786,55.298,33
24,Siauliai,24.821,55.068,24
112,Alizava,25.003,55.971,94
55,Laiciai,25.304,55.904,39
66,Senoji Varena,24.548,54.251,24
94,Palevenele,25.002,55.907,33
46,Barciai,24.662,54.185,33
134,Troskunai,24.873,55.586,112
276,Anyksciai,25.108,55.524,230
33,Zaideliai,24.956,55.897,20
192,Semeliskes,24.66,54.666,79
46,Sarapiniskes,24.544,54.362,39
28,Musteniai,24.708,54.71,24
79,Pabaiskas,24.767,55.168,55
160,Suzionys,25.508,54.99,94
192,Sventupe,24.882,55.322,66
55,Virbaliskiai,25.056,55.94,28
230,Kavarskas,24.929,55.434,94
79,Antazave,25.927,55.812,55
55,Grendave,24.678,54.495,39
28,Byciai,24.946,55.828,20
28,Puponys,24.94,55.805,20
33,Seriai,24.946,55.401,24
55,Varine,24.783,55.208,28
66,Lailunai,25.115,55.99,46
55,Druzai,24.886,55.02,24
94,Kernave,24.853,54.887,46
94,Vileikiskiai,24.882,54.991,39
55,Zemaitkiemis,24.976,55.305,33
55,Dainava,24.696,54.866,33
46,Sesuoliai,24.967,55.179,46
134,Onuskis,24.594,54.484,66
79,Kurkliai,25.061,55.414,66
230,Pandelys,25.229,56.023,160
46,Geisiskes,24.922,54.852,28
55,Skapiskis,25.202,55.895,55
66,Tiltai,24.812,54.413,39
39,Varkaliskiai,24.811,55.26,20
112,Pastrevys,24.664,54.72,33
46,Skrebiskiai,25.045,56.147,24
39,Kiemeliai,25.008,54.857,24
112,Darguziai,24.89,54.39,33
46,Bagaslaviskis,24.77,55.072,33
55,Paparciai,24.725,54.905,46
160,Maisiagala,25.063,54.871,79
46,Lapeles,24.738,54.944,33
112,Senasis Tarpupis,24.989,54.553,33
33,Antakalnis I,24.819,55.238,20
28,Rackunai,25.03,54.631,20
46,Rubikiai,25.284,55.534,33
79,Salos,25.369,55.813,46
46,Juodiskiai,25.195,55.061,28
28,Pikutiskes,25.133,54.774,20
94,Bijunai,24.657,54.613,39
28,Vezionys,25.002,55.88,24
39,Zujunai,25.181,54.727,20
28,Geibonys,24.702,54.754,20
94,Pagiriai,25.195,54.581,66
55,Visalauke I,25.323,54.993,39
94,Duokiskis,25.525,55.743,55
571,Rokiskis,25.585,55.955,331
134,Vyzuonos,25.494,55.582,55
33,Abromiskes,24.717,54.782,24
79,Svirnai II,24.888,55.391,39
28,Vosgeliai,25.525,55.455,20
28,Vidiskiai,24.867,55.31,20
33,Narkunai,25.556,55.466,20
66,Kucgalys,25.076,56.076,39
28,Pyragiai,25.018,55.846,20
39,Gediskiai,25.791,56.034,28
476,Varena,24.581,54.215,230
66,Antakalnis III,24.856,55.204,39
39,Janusava,24.923,55.453,20
33,Pumpuciai,24.915,55.42,20
79,Pakriauniai,25.865,55.969,28
66,Zilinai,24.636,54.394,46
66,Rukainiai,25.514,54.612,55
24,Skaisteriai,25.533,54.678,20
28,Viesinteles,24.988,55.676,20
134,Viesintos,24.992,55.69,55
39,Bagdononys,24.709,54.627,20
94,Lavoriskes,25.641,54.71,55
134,Mostiskes,25.667,54.771,66
46,Dabuziai I,24.953,55.51,39
55,Puodziai,24.64,54.356,28
46,Sepeta,25.035,55.807,28
94,Kvetkai,25.138,56.149,55
134,Musninkai,24.841,54.949,79
66,Ismonys,24.737,54.57,39
28,Kuniskiai,25.012,55.539,24
94,Lyduokiai,24.946,55.265,39
134,Matuizos,24.68,54.275,55
66,Kazokiskes,24.832,54.819,46
94,Andrioniskis,25.044,55.598,55
66,Azuozeriai,25.035,55.502,28
192,Naujieji Valkininkai,24.723,54.352,66
66,Salkininkai,24.809,54.632,28
94,Naiviai,25.142,55.845,39
33,Vikonys,25.065,55.539,20
33,Sirvintos,24.946,55.061,20
94,Staskuniskis,25.032,55.376,33
39,Valai,25.008,55.278,20
55,Liausiai,24.992,55.215,33
160,Simonys,25.141,55.738,55
79,Anciunai,24.98,55.123,46
55,Bartkuskis,24.94,54.941,33
397,Rudiskes,24.827,54.516,112
66,Vydeniai,24.736,54.188,28
55,Kaniava,24.712,54.099,20
33,Slavenai,25.095,55.491,24
94,Sriubiskiai,25.223,55.977,39
33,Verksionys,24.914,54.813,24
79,Suvainiskis,25.276,56.158,55
46,Zibalai,24.994,55.087,24
46,Gratiskes,24.895,54.707,20
33,Jovariskes,24.881,54.653,24
79,Juodpenai,25.205,55.8,33
79,Brazuole,24.906,54.681,33
28,Kurkliai II,25.107,55.424,20
160,Panociai,24.756,54.12,28
94,Panemunis,25.282,56.063,39
39,Lazdenai,24.931,54.741,28
66,Naujieji Elmininkai,25.152,55.551,24
33,Motiejunai,25.017,55.038,28
55,Avizonys,25.011,55,33
33,Kijuciai,24.786,54.186,24
28,Keblonys,25.155,55.515,24
39,Uzuperkasis,24.839,54.356,39
79,Kruminiai,24.824,54.301,46
66,Kriviliai,24.784,54.152,39
331,Dubiciai,24.747,54.02,112
112,Dukstos,24.972,54.823,46
66,Aluona,24.902,54.562,39
33,Jauniunai,25.009,54.939,24
46,Dapkuniskiai,25.121,55.35,46
79,Trakai,24.935,54.635,46
79,Sesuoleliai I,25.056,55.073,33
160,Zelva,25.098,55.22,94
160,Balninkai,25.124,55.294,66
55,Kiaukliai,25.08,55.125,39
24,Elmininkai I,25.201,55.556,20
46,Rykantai,24.986,54.716,28
79,Kalesninkai,24.841,54.192,79
134,Cekonys,25.233,55.58,24
94,Siauliai,25.069,54.957,39
66,Burbiskis,25.217,55.501,28
39,Senieji Trakai,24.979,54.612,24
24,Mikaliskes,25.025,54.753,20
66,Kazliskis,25.362,56,46
79,Medziukai,25.074,54.909,33
39,Kariotiskes,25.014,54.675,24
33,Pajuodupis,24.896,54.251,33
66,Alionys I,25.109,55.02,55
94,Adomyne,25.305,55.749,46
66,Rastinenai,25.046,54.763,66
39,Moluvenai,25.028,54.691,20
55,Leliunai,25.279,55.619,46
33,Daugidonys,24.882,54.161,20
94,Paluknys,24.984,54.502,79
79,Madziunai,24.975,54.464,33
134,Cedasai,25.417,56.1,46
55,Brinkiskes,25.082,54.804,20
66,Valai,25.061,54.705,24
192,Lentvaris,25.045,54.642,66
33,Barskunai,25.126,54.918,20
28,Suderve,25.088,54.779,20
134,Panemunelis,25.389,55.905,55
46,Purvenai,24.923,54.173,33
66,Grikiapeliai,25.328,55.652,28
28,Cekoniskes,25.084,54.738,24
46,Tetenai,24.965,54.305,33
134,Skiemonys,25.275,55.415,46
66,Sventininkai,25.051,54.584,33
33,Karvys,25.132,54.876,28
33,Pabaliai,25.06,54.607,20
79,Dainava,24.964,54.25,33
39,Vaitkunai,25.368,55.739,28
66,Bekupe,25.213,55.111,28
160,Svedasai,25.367,55.682,134
46,Macionys,25.32,55.487,33
46,Kaliktiskes,25.151,54.85,20
79,Girsteitiskis,25.273,55.285,55
230,Alanta,25.292,55.351,94
112,Ziobiskis,25.47,56.021,55
79,Aknystos,25.364,55.583,55
28,Papiskes,25.135,54.717,20
33,Panemunelis,25.456,55.914,28
66,Videniskiai,25.277,55.217,66
94,Pabare,25.028,54.285,66
331,Eisiskes,25.001,54.184,160
94,Glitiskes,25.224,54.985,33
66,Onuskis,25.529,56.126,39
28,Daujociai,25.415,55.689,20
160,Anavilis,25.222,54.942,66
79,Giedraiciai,25.261,55.074,79
39,Lygialaukis,25.232,54.964,20
79,Avizieniai,25.182,54.762,39
55,Klevine,25.191,54.787,20
46,Ambraziskiai,25.29,55.147,20
39,Gudeliai,25.205,54.821,28
46,Kalviai,25.458,55.763,33
24,Padvarionys,25.038,54.184,20
112,Leliunai,25.395,55.475,39
33,Gineitiskes,25.2,54.74,20
94,Pikeliskes,25.239,54.877,46
94,Baltoji Voke,25.122,54.454,94
28,Didsode,25.559,56.085,20
55,Tarnenai,25.149,54.547,20
79,Zalvariai,25.318,55.165,39
33,Kavoliskis,25.532,55.946,24
28,Keturiasdesimt Totoriu,25.166,54.561,20
55,Auleliai,25.465,55.669,24
230,Kamajai,25.507,55.821,94
28,Uljanava,25.547,55.973,20
24,Vaidotai,25.179,54.596,20
66,Tausiunai,25.058,54.145,33
55,Papiskes,25.155,54.49,33
28,Bajorai,25.235,54.76,24
33,Kijeliai,25.363,55.226,24
24,Rudninkai,25.152,54.437,20
39,Didzioji Riese,25.262,54.799,39
276,Juodupe,25.606,56.085,112
55,Selyne,25.562,55.907,28
39,Purnuskes,25.295,54.893,24
66,Dailides,25.105,54.189,28
33,Raudondvaris,25.285,54.83,28
55,Aukstakalniai,25.555,55.84,20
100000,Vilnius,25.257,54.706,100000
24,Melekonys,25.219,54.567,20
55,Viluciai,25.525,55.703,33
79,Janciunai,25.134,54.219,28
66,Pakalniai,25.466,55.435,33
24,Mereslenai,25.221,54.531,24
33,Luokesa,25.407,55.203,20
55,Bajorai,25.613,55.985,24
79,Skudutiskis,25.457,55.384,39
24,Antalge,25.485,55.488,20
112,Bijutiskis,25.397,55.119,39
39,Levaniskiai,25.44,55.262,28
66,Siaudiniai,25.518,55.549,24
160,Butrimonys,25.17,54.25,66
66,Verbiskes,25.461,55.309,28
39,Juodsiliai,25.264,54.581,20
46,Valciunai,25.261,54.561,33
94,Teresiskes,25.249,54.488,33
79,Laibgaliai,25.635,55.908,33
55,Jasonys,25.527,55.491,33
66,Azulauke,25.361,54.872,28
33,Parudaminys,25.269,54.524,24
79,Gerviskes,25.21,54.288,33
55,Skirgiskes,25.366,54.836,39
33,Bratoniskes,25.371,54.852,20
46,Eitminiskes,25.391,54.922,39
134,Uzpaliai,25.582,55.638,112
66,Kaniukai,25.598,55.667,24
33,Didziosios Selos,25.242,54.342,28
160,Suginciai,25.524,55.337,66
46,Dainava,25.276,54.415,20
33,Totorine,25.322,54.574,20
112,Dubingiai,25.454,55.059,46
66,Toliejai,25.514,55.271,46
66,Gudeliai,25.274,54.373,33
79,Skemai,25.705,55.981,46
55,Miezonys,25.489,55.142,28
39,Marijampolis,25.324,54.533,33
28,Nemezis,25.353,54.634,20
94,Lukstai,25.729,56.028,39
55,Rudamina,25.348,54.592,24
46,Miskonys,25.412,54.808,24
230,Jasiunai,25.311,54.434,94
94,Juzintai,25.675,55.774,79
24,Sirutenai,25.62,55.546,20
24,Jasiunai,25.324,54.446,20
1702,Utena,25.611,55.501,571
24,Gojus,25.319,54.421,20
46,Voveryne,25.623,55.535,24
55,Packenai,25.605,55.452,39
66,Galgiai,25.411,54.721,24
46,Didziosios Kabiskes,25.453,54.874,20
39,Nemeiksciai,25.622,55.479,20
160,Skaidiskes,25.393,54.614,66
28,Didziasalis,25.401,54.641,20
55,Lasai,25.725,55.85,33
94,Veriskes,25.477,54.898,20
39,Grigaiciai,25.416,54.669,20
94,Mindunai,25.569,55.233,33
46,Keidziai,25.363,54.465,28
33,Ciuziakampis,25.324,54.325,33
331,Nemencine,25.469,54.849,66
33,Stasylos,25.333,54.344,20
112,Inturke,25.562,55.16,66
24,Kloviniai,25.653,55.503,20
24,Papiskes,25.412,54.6,20
39,Zavisonys,25.357,54.399,20
79,Sudeikiai,25.681,55.584,55
55,Piktakonys,25.407,54.557,33
24,Nemencine II,25.485,54.834,20
79,Tribonys,25.342,54.276,28
134,Obeliai,25.795,55.941,94
46,Bruknyne,25.373,54.357,20
94,Salcininkeliai,25.381,54.377,39
79,Vaikutenai,25.698,55.53,33
79,Rakonys,25.425,54.508,46
66,Sidabrines,25.651,55.343,46
66,Medeniai,25.694,55.496,28
33,Biliakiemis,25.685,55.463,28
24,Antanase,25.81,55.926,20
33,Daubenai,25.449,54.569,20
46,Azuoline,25.51,54.784,20
28,Viktariskes,25.486,54.688,20
79,Bezdonys,25.519,54.804,28
160,Kriaunos,25.798,55.851,66
192,Kuktiskes,25.68,55.396,79
28,Raudondvaris,25.543,54.875,20
46,Skynimai I,25.428,54.442,33
28,Tusciauliai,25.541,54.852,20
33,Kyviskes,25.499,54.664,20
46,Radeikiai,25.743,55.553,24
55,Mickunai,25.519,54.702,46
55,Rudausiai,25.576,54.906,46
39,Akmeniskes,25.473,54.521,20
46,Didieji Bausiai,25.421,54.325,20
55,Arvydai,25.561,54.824,20
46,Uzukene,25.504,54.588,20
79,Skirlenai,25.622,54.97,55
397,Uztilte,25.834,55.739,160
160,Joniskis,25.664,55.076,66
33,Uosininkai I,25.567,54.717,20
28,Dusetos,25.846,55.752,20
112,Turgeliai,25.508,54.456,66
46,Akmenyne,25.498,54.376,46
230,Daugailiai,25.834,55.589,66
160,Antaliepte,25.866,55.66,55
55,Saviciunai,25.576,54.576,33
134,Tauragnai,25.818,55.443,55
39,Arnionys I,25.718,55.051,28
160,Labanoras,25.776,55.267,66
66,Aleksandravele,25.94,55.883,39
66,Kena,25.619,54.649,33
79,Saldutiskis,25.815,55.35,66
39,Punzonys,25.684,54.862,28
79,Juknenai,25.877,55.541,33
66,Bernotai,26.462,55.285,24
55,Tabariskes,25.604,54.44,46
66,Karkaziske,25.747,54.951,24
66,Pavovere,25.856,54.973,46
28,Rudnia,25.681,54.202,24
134,Medininkai,25.646,54.536,66
28,Stadviliai,26.195,55.737,24
79,Buivydziai I,25.732,54.836,33
192,Kazitiskis,26.15,55.442,46
134,Kalveliai,25.683,54.638,134
33,Maguciai,26.274,55.717,20
55,Baibiai,25.957,55.625,39
33,Magunai,25.762,54.89,20
46,Sniukstai,26.009,55.824,33
94,Ceikiniai,26.263,55.254,46
55,Naujasis Daugeliskis,26.3,55.367,39
24,Kimbartiske,26.499,55.68,20
79,Aviliai II,26.021,55.758,79
134,Poskonys,25.624,54.265,55
160,Prienai,25.791,54.871,55
46,Sumskas,25.722,54.609,24
94,Kirdeikiai,25.938,55.377,55
134,Dieveniskes,25.625,54.195,134
160,Suviekas,26.087,55.84,46
112,Linkmenys,25.955,55.318,46
94,Deguciai,26.061,55.659,55
55,Imbradas,26.115,55.775,39
66,Kaltanenai,25.994,55.251,33
134,Salakas,26.133,55.58,94
66,Zalavas,25.974,54.972,55
112,Sena Pasamine,26.057,55.21,46
66,Sariai,26.031,55.061,46
66,Reskutenai,26.118,55.252,39
112,Sauliai I,26.265,55.664,46
39,Beciunai,26.182,55.316,20
33,Cirkliskis,26.136,55.122,20
79,Vidiskes,26.211,55.374,33
79,Naujas Strunaitis,26.133,55.072,28
24,Zadvarninkai,26.16,55.145,20
66,Svencionys,26.16,55.134,66
230,Struna,26.153,55.032,66
66,Sventa,26.201,55.193,39
192,Dukstas,26.324,55.519,79
55,Smalvos,26.361,55.641,46
55,Milkuskos,26.274,55.147,46
112,Turmantas,26.462,55.694,79
134,Mazenai,26.401,55.444,55
79,Rimse,26.443,55.522,55
39,Backininkai,26.361,55.169,33
160,Mielagenai,26.438,55.258,66
94,Svirkos,26.441,55.17,66
39,Tverecius,26.603,55.313,33
230,Adutiskis,26.585,55.158,134
331,Didziasalis,26.679,55.32,192
33,Kaunas,23.929,54.904,20
685,Panevys,24.354,55.732,476
66,iauliai,23.263,55.91,24
397,Jonava,24.272,55.078,160
571,Visaginas,26.443,55.595,331
46,Pilaite,25.181,54.708,33
112,Naujoji Vilnia,25.42,54.688,79
230,Kurnai,22.939,56,160
24,Elektrnai,24.668,54.784,20
134,Kaiiadorys,24.459,54.86,94
66,Grigiks,25.095,54.669,24
33,Petrainai,24.007,54.893,20
397,irvintos,24.958,55.043,134
160,Balsiai,25.35,54.775,66
822,alininkai,25.386,54.307,230
331,Pasvalys,24.404,56.062,134
192,Kupikis,24.984,55.837,192
230,Zarasai,26.254,55.737,112
192,akiai,23.045,54.955,160
397,Moltai,25.419,55.226,192
476,Skuodas,21.519,56.269,276
230,Kazl Rda,23.496,54.748,160
276,Pakruojis,23.856,55.98,160
476,Ignalina,26.165,55.339,230
397,venionliai,26,55.162,160
230,Pabrad,25.764,54.98,160
476,ilal,22.179,55.491,192
94,Vievio seninija,24.816,54.767,66
24,Neravai,24.007,54.025,20
