rs,name,lon,lat,r1
100000,Prishtinë,21.169,42.663,0
1027,Prizren,20.731,42.218,496
345,Mitrovicë,20.862,42.88,240
345,Gjilan-Popovicë,21.465,42.459,240
496,Pejë-Dardania,20.298,42.66,414
240,Ferizaj-Varosht,21.158,42.369,200
288,Gjakovë-Qendra Historike,20.433,42.378,240
240,Deçan,20.315,42.534,200
240,Podujevë,21.195,42.909,240
288,Gllogoc,21.126,42.514,200
240,Kuk,20.709,42.107,200
288,Vërmicë,20.76,42.539,240
414,Kaçanik-Zeneli,21.257,42.234,200
240,Skënderaj,20.79,42.761,200
