rs,name,lon,lat
100000,Prishtinë,21.169,42.663
1027,Prizren,20.731,42.218
345,Mitrovicë,20.862,42.88
345,Gjilan-Popovicë,21.465,42.459
496,Pejë-Dardania,20.298,42.66
240,Ferizaj-Varosht,21.158,42.369
288,Gjakovë-Qendra Historike,20.433,42.378
240,Deçan,20.315,42.534
240,Podujevë,21.195,42.909
288,Gllogoc,21.126,42.514
240,Kuk,20.709,42.107
288,Vërmicë,20.76,42.539
414,Kaçanik-Zeneli,21.257,42.234
240,Skënderaj,20.79,42.761
