rs,name,lon,lat,r1
120,Vente,21.199,55.35,100
120,Rusne,21.374,55.295,100
426,Palanga,21.077,55.928,172
296,Neringa,21.011,55.312,206
144,Senoji Ipiltis,21.25,56.12,100
172,Darbenai,21.256,56.023,100
2629,Klaipeda,21.167,55.697,1522
206,Lenkimai,21.315,56.192,100
144,Kluonaliai,21.269,55.876,100
206,Dercekliai,21.282,55.581,100
511,Skuodas,21.518,56.269,247
120,Gargzdai,21.392,55.71,100
144,Kulupenai,21.474,55.961,100
144,Mosedis,21.578,56.167,100
206,Salantai,21.571,56.06,144
613,Silute,21.473,55.349,247
144,Veivirzenai,21.595,55.597,100
206,Kuliai,21.656,55.806,100
172,Sveksna,21.622,55.517,144
172,Ylakiai,21.855,56.28,120
144,Plateliai,21.816,56.043,100
247,Plunge,21.846,55.911,172
172,Zemaiciu Naumiestis,21.705,55.359,100
172,Nevarenai,22.294,56.107,100
172,Stalgenai,21.885,55.824,100
172,Pikeliai,22.109,56.417,120
426,Rietavas,21.93,55.724,144
120,Zlibinai,22.005,55.882,100
355,Seda,22.089,56.167,120
120,Gorainiai,21.933,55.402,100
120,Kvedarna,21.994,55.556,100
296,Pagegiai,21.908,55.137,172
120,Pajuris,22.029,55.45,100
511,Telsiai,22.232,55.98,247
172,Zarenai,22.207,55.839,100
613,Mazeikiai,22.342,56.305,511
206,Balenos,22.319,56.2,100
511,Silale,22.186,55.493,172
206,Laukuva,22.234,55.619,100
120,Lauksargiai,22.163,55.209,100
247,Varniai,22.372,55.742,172
120,Uzvente,22.512,56.224,100
206,Laizuva,22.564,56.381,100
735,Taurage,22.29,55.252,613
120,Zukai,22.26,55.114,100
206,Luoke,22.529,55.892,100
247,Tryskiai,22.583,56.056,144
144,Kaltinenai,22.455,55.564,100
144,Juodpetriai,22.4,55.316,100
120,Lomiai,22.42,55.374,100
206,Viesvile,22.388,55.072,144
172,Akmene,22.745,56.246,100
144,Eiciai,22.483,55.165,100
172,Uzventis,22.653,55.783,120
296,Skaudvile,22.585,55.407,144
120,Kraziai,22.69,55.603,100
296,Naujoji Akmene,22.89,56.316,247
120,Lybiskiai,22.666,55.345,100
355,Jurbarkas,22.747,55.082,247
355,Kybartai,22.766,54.64,247
120,Kudirkos Naumiestis,22.861,54.773,120
206,Kursenai,22.953,55.998,172
120,Kruopiai,23.02,56.241,100
120,Meskuiciai,23.474,56.069,100
120,Gatauciai,23.53,56.153,100
144,Zarenai,23.046,56.178,100
144,Zalpiai,22.859,55.482,100
296,Vilkija,23.58,55.045,172
172,Girdziai,22.796,55.163,100
172,Slavikai,22.743,54.96,100
735,Kelme,22.943,55.631,172
120,Paupys,22.868,55.315,100
144,Vidukle,22.901,55.405,100
144,Gailiai,22.989,55.537,100
247,Vadzgirys,22.926,55.254,120
296,Vistytis,22.719,54.454,100
172,Zagare,23.257,56.358,144
120,Verbunai,23.178,56.022,100
296,Gruzdziai,23.249,56.097,120
120,Gelgaudiskis,22.979,55.076,100
144,Pajevonys,22.838,54.564,100
144,Aukstelke,23.213,55.877,100
511,Raseiniai,23.114,55.382,296
120,Jurdaiciai,23.363,56.228,100
206,Tytuvenai,23.197,55.597,120
1269,Siauliai,23.316,55.934,735
206,Sakiai,23.05,54.956,144
120,Siluva,23.227,55.531,100
172,Griskabudis,23.171,54.851,100
120,Liubavas,23.035,54.367,100
172,Siaulenai,23.402,55.677,100
144,Betygala,23.369,55.363,100
613,Joniskis,23.614,56.239,247
144,Pilviskiai,23.22,54.72,120
206,Radviliskis,23.537,55.815,120
120,Voskoniai,23.57,55.881,100
120,Klausuciai,23.367,55.111,100
144,Staciunai,23.632,55.939,100
296,Kalvarija,23.225,54.415,120
206,Ariogala,23.484,55.263,172
120,Sangruda,23.233,54.32,100
355,Marijampole,23.345,54.551,355
120,Kriukai,23.82,56.298,100
206,Grinkiskis,23.635,55.554,100
144,Liudvinavas,23.374,54.481,100
120,Seduva,23.758,55.754,100
120,Alksniupiai,23.775,55.814,100
355,Baisogala,23.734,55.639,100
144,Sasnava,23.462,54.65,100
247,Kazlu Ruda,23.494,54.748,172
296,Pakruojis,23.859,55.979,172
120,Sestokai,23.444,54.359,100
172,Ezerelis,23.605,54.882,120
144,Rozalimas,23.881,55.893,100
206,Zeimelis,23.999,56.272,144
247,Linkuva,23.972,56.086,100
172,Papilys,25.005,56.12,100
172,Balbieriskis,23.889,54.517,100
120,Udekai,24.023,56.154,100
206,Salociai,24.404,56.229,144
144,Seta,24.252,55.281,120
120,Uliunai,24.363,55.622,100
296,Lazdijai,23.521,54.23,172
206,Vainotiskiai,23.845,55.397,100
144,Makniunai,24.089,54.245,100
172,Sidabravas,23.929,55.697,100
247,Merkine,24.191,54.165,144
613,Birzai,24.756,56.196,426
144,Palomene,24.46,54.941,100
120,Josvainiai,23.836,55.245,100
144,Igliauka,23.651,54.573,120
144,Babtai,23.797,55.088,100
144,Miskiniai,23.537,54.158,100
355,Elektrenai,24.646,54.776,206
120,Veiveriai,23.725,54.765,100
206,Smilgiai,24.017,55.805,100
120,Vadaktai,23.991,55.635,100
247,Simnas,23.648,54.382,120
120,Deglenai,24.123,55.93,100
120,Joniskelis,24.169,56.024,100
172,Vaskai,24.211,56.169,100
355,Kedainiai,23.985,55.286,172
206,Garliava,23.873,54.822,100
144,Kapciamiestis,23.656,54.002,144
206,Krekenava,24.097,55.543,172
1058,Kaunas,23.979,54.913,613
144,Boniskiai,24.03,55.077,100
144,Linkauciai,24.152,55.465,100
296,Prienai,23.94,54.636,144
120,Lanciunava,24.152,55.347,100
247,Pumpenai,24.336,55.935,100
172,Jovaisiai,23.845,54.123,100
120,Seiliunai,23.889,54.273,100
355,Pasvalys,24.401,56.061,144
613,Panevezys,24.365,55.734,511
120,Ramygala,24.308,55.51,100
172,Zeimiai,24.221,55.18,100
144,Piliuona,24.119,54.782,100
882,Alytus,24.022,54.414,426
144,Nemunaitis,24.007,54.325,100
144,Uzusaliai,24.197,54.982,100
882,Druskininkai,23.975,54.018,296
426,Jonava,24.277,55.081,172
172,Jotainiai,24.41,55.557,100
144,Kasonys,24.173,54.643,100
120,Vaisodziai,24.13,54.458,100
247,Pagiriai,24.397,55.361,100
172,Butrimonys,24.253,54.501,100
426,Nemunelio Radviliskis,24.77,56.397,172
144,Kratiskiai,24.718,56.102,100
120,Raguva,24.622,55.566,100
120,Silai,24.606,55.493,100
120,Petronys,24.567,55.316,100
172,Medeikiai,24.822,56.275,100
206,Vabalninkas,24.747,55.98,120
144,Kaisiadorys,24.453,54.863,100
120,Pakertai,24.439,54.77,100
172,Upninkai,24.539,55.081,120
247,Daugai,24.347,54.362,144
144,Vepriai,24.575,55.151,100
206,Subacius,24.744,55.765,100
172,Kabeliai,24.297,53.954,100
120,Tolkunai,24.394,54.273,100
144,Aukstadvaris,24.527,54.579,144
120,Taujenai,24.762,55.39,100
172,Marcinkonys,24.402,54.06,120
735,Ukmerge,24.771,55.247,206
120,Alizava,25.003,55.971,100
144,Troskunai,24.873,55.586,120
296,Anyksciai,25.108,55.524,247
206,Semeliskes,24.66,54.666,100
120,Pabaiskas,24.767,55.168,100
144,Suzionys,25.508,54.99,120
172,Sventupe,24.882,55.322,100
120,Kavarskas,24.929,55.434,100
144,Onuskis,24.594,54.484,100
206,Pandelys,25.229,56.023,144
120,Pastrevys,24.664,54.72,100
355,Kupiskis,24.982,55.835,247
613,Rokiskis,25.585,55.955,355
144,Vyzuonos,25.494,55.582,100
426,Varena,24.581,54.215,247
144,Viesintos,24.992,55.69,100
120,Mostiskes,25.667,54.771,100
206,Musninkai,24.841,54.949,100
144,Matuizos,24.68,54.275,100
206,Naujieji Valkininkai,24.723,54.352,100
355,Sirvintos,24.953,55.043,144
172,Simonys,25.141,55.738,100
172,Anciunai,24.98,55.123,100
355,Rudiskes,24.827,54.516,120
172,Suvainiskis,25.276,56.158,120
144,Panociai,24.756,54.12,100
355,Dubiciai,24.747,54.02,144
172,Dukstos,24.972,54.823,100
144,Zelva,25.098,55.22,100
144,Balninkai,25.124,55.294,100
172,Lentvaris,25.045,54.642,100
144,Panemunelis,25.389,55.905,100
120,Skiemonys,25.275,55.415,100
120,Dainava,24.964,54.25,100
247,Svedasai,25.367,55.682,144
120,Macionys,25.32,55.487,100
206,Alanta,25.292,55.351,100
296,Eisiskes,25.001,54.184,144
172,Anavilis,25.222,54.942,100
144,Giedraiciai,25.261,55.074,144
247,Kamajai,25.507,55.821,120
206,Juodupe,25.606,56.085,100
100000,Vilnius,25.257,54.706,100000
426,Moletai,25.415,55.226,206
120,Bijutiskis,25.397,55.119,100
144,Butrimonys,25.17,54.25,100
144,Uzpaliai,25.582,55.638,100
172,Suginciai,25.524,55.337,100
247,Jasiunai,25.311,54.434,100
1826,Utena,25.611,55.501,511
144,Skaidiskes,25.393,54.614,100
355,Nemencine,25.469,54.849,144
120,Inturke,25.562,55.16,100
120,Obeliai,25.795,55.941,100
172,Kriaunos,25.798,55.851,100
735,Salcininkai,25.387,54.311,247
144,Rudausiai,25.576,54.906,100
355,Uztilte,25.834,55.739,144
172,Joniskis,25.664,55.076,100
120,Turgeliai,25.508,54.456,100
120,Akmenyne,25.498,54.376,100
144,Daugailiai,25.834,55.589,100
144,Antaliepte,25.866,55.66,100
172,Tauragnai,25.818,55.443,100
144,Labanoras,25.776,55.267,100
144,Saldutiskis,25.815,55.35,100
735,Pabrade,25.766,54.983,206
206,Medininkai,25.646,54.536,100
206,Kazitiskis,26.15,55.442,100
296,Kalveliai,25.683,54.638,120
613,Visaginas,26.439,55.6,355
120,Poskonys,25.624,54.265,100
120,Prienai,25.791,54.871,100
172,Dieveniskes,25.625,54.195,120
426,Svencioneliai,26.001,55.16,172
144,Salakas,26.133,55.58,100
144,Zalavas,25.974,54.972,100
120,Sena Pasamine,26.057,55.21,100
206,Zarasai,26.247,55.735,120
511,Ignalina,26.161,55.339,247
206,Struna,26.153,55.032,100
206,Dukstas,26.324,55.519,100
144,Turmantas,26.462,55.694,100
120,Mazenai,26.401,55.444,100
172,Mielagenai,26.438,55.258,100
247,Adutiskis,26.585,55.158,144
296,Didziasalis,26.679,55.32,206
