rs,name,lon,lat,r1
856,Loerrach,7.659,47.612,288
240,Todtmoos,8.001,47.739,200
1232,Freiburg im Breisgau,7.85,47.995,714
496,Erzingen,8.421,47.659,200
240,Loeffingen,8.344,47.884,240
414,Ebingen,9.026,48.214,240
714,Konstanz,9.176,47.663,595
288,Emmendingen,7.848,48.122,200
414,Spielmannsau,10.305,47.347,288
856,Kempten (Allgaeu),10.318,47.724,496
288,Memmingen,10.185,47.988,200
345,Lindau (Bodensee),9.684,47.546,288
240,Bad Waldsee,9.751,47.923,240
240,Ehingen (Donau),9.725,48.284,200
288,Horn,10.721,47.573,200
288,Landsberg am Lech,10.878,48.05,200
345,Kaufbeuren,10.621,47.88,200
345,Murnau am Staffelsee,11.202,47.682,200
496,Garmisch-Partenkirchen,11.086,47.492,288
496,Mitterfirmiansreut,13.65,48.893,288
345,Edling,12.165,48.056,200
345,Pocking,13.31,48.4,200
595,Waldkraiburg,12.4,48.208,288
496,Bad Reichenhall,12.877,47.726,414
345,Kiefersfelden,12.188,47.615,200
856,Passau,13.42,48.569,714
595,Rosenheim,12.129,47.856,288
414,Cham,12.667,49.219,288
240,Dingolfing,12.5,48.628,200
288,Straubing,12.572,48.876,240
595,Regen,13.126,48.97,200
288,Eggenfelden,12.762,48.404,200
240,Deggendorf,12.96,48.842,200
288,Freising,11.748,48.404,200
240,Altduernbuch,11.835,48.789,200
856,Regensburg,12.102,49.015,595
414,Landshut,12.159,48.539,345
496,Ingolstadt,11.423,48.765,345
240,Aichach,11.134,48.461,200
414,Roth,11.091,49.245,200
414,Weissenburg in Bayern,10.972,49.03,200
345,Heidenheim an der Brenz,10.155,48.678,200
240,Huernheim,10.487,48.797,200
288,Greiselbach,10.412,49.011,200
595,Aalen,10.092,48.835,345
414,Burgau,10.406,48.432,200
856,Ulm,9.99,48.398,414
345,Bietigheim-Bissingen,9.133,48.948,200
496,Heilbronn,9.218,49.14,288
496,Reutlingen,9.212,48.492,240
1478,Stuttgart,9.178,48.776,1027
496,Karlsruhe,8.405,49.01,414
240,Kniebis,8.311,48.473,200
288,Calw,8.741,48.713,200
240,Steinfeld,8.036,49.049,200
240,Landau in der Pfalz,8.112,49.197,200
496,Baden-Baden,8.24,48.762,200
240,Oetigheim,8.23,48.893,200
288,Achern,8.074,48.629,200
414,Merzig,6.643,49.444,200
414,Berscheid,6.231,49.983,200
714,Saarbruecken,6.996,49.237,714
240,Ihn,6.606,49.324,200
240,Habkirchen,7.137,49.133,200
240,Perl,6.386,49.473,200
856,Offenburg,7.944,48.469,414
1773,Trier,6.638,49.758,414
345,Pirmasens,7.608,49.197,200
240,Lahr/Schwarzwald,7.874,48.339,200
496,Wittlich,6.889,49.986,200
288,Sankt Wendel,7.173,49.468,200
496,Idar-Oberstein,7.312,49.713,240
288,Kaiserslautern,7.769,49.445,288
288,Baerenbach,7.302,49.947,200
3062,Frankfurt am Main,8.682,50.111,856
288,Speyer,8.437,49.316,200
288,Wiesbaden,8.239,50.082,240
345,Alzey,8.112,49.745,200
288,Heppenheim (Bergstrasse),8.644,49.641,200
240,Pfohlbach,9.375,49.672,200
345,Muthof,9.546,49.304,200
288,Aschaffenburg,9.148,49.974,240
240,Mudau,9.203,49.534,240
414,Bad Mergentheim,9.773,49.491,240
345,Ansbach,10.577,49.304,240
288,Bad Kissingen,10.078,50.201,200
288,Bad Windsheim,10.419,49.503,200
345,Schweinfurt,10.231,50.052,200
595,Wuerzburg,9.937,49.794,595
595,Bamberg,10.887,49.893,240
1478,Nuernberg,11.075,49.451,1027
288,Erlangen,11.003,49.595,200
414,Pegnitz,11.544,49.756,200
496,Bayreuth,11.571,49.946,288
240,Grub,11.377,49.342,200
240,Hersbruck,11.43,49.508,200
496,Amberg,11.856,49.442,200
714,Weiden in der Oberpfalz,12.16,49.676,288
240,Waldsassen,12.305,50.003,200
288,Kreuth,11.927,49.312,200
240,Neunburg vorm Wald,12.382,49.349,200
414,Tirschenreuth,12.336,49.878,200
595,Zittau,14.806,50.896,200
288,Selb,12.131,50.17,200
595,Altenberg,13.757,50.767,240
496,Schmalzgrube,13.131,50.53,240
240,Riechberg,13.185,50.942,200
1027,Dresden,13.737,51.052,714
496,Chemnitz,12.922,50.834,414
414,Doebeln,13.121,51.122,200
856,Plauen,12.135,50.496,200
856,Gera,12.08,50.876,414
288,Weissenfels,11.967,51.2,200
345,Breitenfeld,12.322,50.338,200
240,Wildenau,12.455,50.557,200
240,Greiz,12.202,50.655,200
414,Hof,11.914,50.317,200
288,Altenburg,12.437,50.987,200
240,Tanna,11.857,50.494,200
288,Zwickau,12.496,50.719,200
240,Golmsdorf,11.668,50.973,200
496,Gahma,11.539,50.523,200
1027,Erfurt,11.027,50.977,496
288,Eschwege,10.058,51.186,200
595,Ilmenau,10.916,50.686,240
496,Eisenach,10.322,50.977,345
856,Coburg,10.964,50.258,288
496,Muehlhausen/Thueringen,10.458,51.21,200
288,Arnstadt,10.947,50.833,200
414,Crock,10.886,50.452,200
856,Fulda,9.675,50.553,496
240,Huelsa,9.461,50.947,200
240,Brand,9.957,50.531,200
345,Unterhaun,9.722,50.835,200
240,Huenfeld,9.769,50.673,200
496,Marburg,8.769,50.809,200
345,Frohnhausen,8.624,50.965,200
496,Bad Nauheim,8.735,50.363,200
595,Giessen,8.675,50.586,345
414,Seck,8.048,50.577,240
856,Koblenz,7.598,50.36,345
1027,Siegen,8.025,50.875,414
345,Mayen,7.222,50.329,200
1232,Koeln,6.957,50.938,496
714,Aachen,6.085,50.774,414
595,Nonnenbach,6.634,50.414,200
240,Urb,6.206,50.246,200
345,Erkelenz,6.314,51.079,240
345,Pruem,6.424,50.207,200
414,Daun,6.831,50.197,200
345,Simmerath,6.301,50.606,200
288,Uebach-Palenberg,6.119,50.919,200
414,Ahaus,7.005,52.076,200
240,Duelmen,7.279,51.829,200
414,Kleve,6.139,51.788,240
240,Dinslaken,6.735,51.562,200
240,Freiheit,7.115,51.718,200
240,Goch,6.159,51.675,200
240,Duisburg,6.765,51.433,200
714,Bocholt,6.616,51.838,288
240,Guetersloh,8.381,51.91,200
288,Greven,7.613,52.093,200
288,Hagen,7.467,51.36,200
240,Ascheberg,7.624,51.792,200
595,Warstein,8.354,51.443,240
288,Luedenscheid,7.634,51.216,200
414,Hamm,7.817,51.678,240
595,Muenster,7.627,51.962,345
714,Bielefeld,8.532,52.021,595
345,Korbach,8.873,51.272,240
240,Uslar,9.635,51.661,200
345,Hoexter,9.382,51.776,240
240,Sielen,9.382,51.553,200
1232,Kassel,9.495,51.315,595
345,Marsberg,8.855,51.46,200
345,Boesingfeld,9.123,52.069,200
595,Paderborn,8.757,51.72,240
240,Northeim,10,51.706,200
414,Goettingen,9.935,51.533,240
414,Einbeck,9.866,51.817,240
414,Eimsen,9.816,52.004,200
240,Herzberg am Harz,10.34,51.657,200
1027,Goslar,10.429,51.907,288
496,Halberstadt,11.047,51.896,288
856,Nordhausen,10.792,51.5,345
1027,Magdeburg,11.633,52.126,496
240,Breitenstein,10.947,51.621,200
240,Quedlinburg,11.144,51.789,200
240,Sondershausen,10.87,51.37,200
414,Hettstedt,11.515,51.645,200
288,Sangerhausen,11.299,51.474,240
288,Halle (Saale),11.971,51.482,200
240,Grimma,12.727,51.235,200
595,Dessau,12.246,51.835,288
240,Torgau,13.004,51.559,200
240,Baerenthoren,12.279,52.001,200
288,Bitterfeld-Wolfen,12.325,51.625,200
288,Wittenberg,12.646,51.867,200
2552,Leipzig,12.378,51.338,1027
414,Kirchhain,13.561,51.636,288
496,Riesa,13.305,51.303,240
345,Goyatz,14.175,52.02,200
595,Luckenwalde,13.173,52.089,200
496,Hoyerswerda,14.244,51.439,200
414,Uckro,13.614,51.852,200
1478,Cottbus,14.335,51.759,595
240,Bad Muskau,14.722,51.545,200
414,Seelow,14.381,52.534,200
288,Koenigs Wusterhausen,13.624,52.299,200
414,Bad Freienwalde (Oder),14.031,52.788,240
414,Bautzen,14.428,51.181,288
414,Guben,14.712,51.954,200
1027,Schwedt/Oder,14.288,53.055,496
414,Eisenhuettenstadt,14.631,52.146,200
288,Rietschen,14.786,51.396,200
240,Forst (Lausitz),14.645,51.745,200
856,Goerlitz,14.988,51.155,496
414,Templin,13.499,53.121,200
100000,Berlin,13.406,52.518,100000
345,Osterburg (Altmark),11.754,52.788,200
345,Karstaedt,11.746,53.157,200
345,Neuruppin,12.806,52.923,200
240,Fehrbellin,12.764,52.813,200
345,Reesdorf,12.17,52.243,200
288,Wutike,12.374,53.018,200
1027,Stendal,11.859,52.605,414
414,Wittstock/Dosse,12.486,53.163,200
288,Potsdam,13.054,52.4,200
288,Burg,11.855,52.27,200
496,Oranienburg,13.237,52.754,200
856,Wittenberge,11.751,52.994,288
240,Gardelegen,11.394,52.524,240
345,Wolfsburg,10.785,52.422,200
345,Salzwedel,11.154,52.853,288
240,Helmstedt,11.01,52.228,200
345,Dorst,11.386,52.379,200
345,Doemitz,11.249,53.142,240
288,Wittingen,10.74,52.729,200
240,Peine,10.227,52.322,200
496,Celle,10.081,52.626,200
595,Uelzen,10.561,52.965,240
345,Rotenburg (Wuemme),9.409,53.112,288
414,Bergen,9.962,52.81,200
240,Soltau,9.838,52.987,200
496,Braunschweig,10.521,52.262,414
496,Minden,8.915,52.288,200
1027,Bremen,8.809,53.076,595
345,Nienburg (Weser),9.212,52.641,288
240,Norderney,7.145,53.707,200
496,Norden,7.202,53.595,200
414,Cloppenburg,8.043,52.848,240
240,Oldenburg (Oldb),8.213,53.14,240
496,Rheine,7.439,52.279,240
5289,Emden,7.206,53.371,496
595,Papenburg,7.393,53.078,240
345,Frede,8.077,52.471,200
288,Wehm,7.666,52.833,200
496,Lingen (Ems),7.317,52.522,200
595,Osnabrueck,8.042,52.277,240
345,Meppen,7.292,52.691,200
414,Lohne (Oldenburg),8.238,52.666,200
414,Borkum,6.665,53.588,240
240,Aurich,7.482,53.47,200
288,Bremervoerde,9.146,53.485,240
288,Wangerooge,7.9,53.792,200
345,Varel,8.135,53.395,200
288,Hohenkirchen,7.916,53.663,200
240,Warsingsfehn,7.486,53.314,200
714,Cuxhaven,8.697,53.864,240
345,Uthlede,8.578,53.311,200
240,Marx,7.857,53.434,200
714,Bremerhaven,8.578,53.543,345
345,Tostedt,9.712,53.281,200
414,Neumuenster,9.988,54.07,200
2552,Hamburg,9.997,53.551,1773
414,Elmshorn,9.661,53.758,200
240,Gyhum,9.311,53.22,200
345,Itzehoe,9.512,53.927,200
414,Neustadt in Holstein,10.816,54.106,200
496,Moelln,10.691,53.63,200
595,Lueneburg,10.409,53.249,240
414,Hagenow,11.193,53.432,200
714,Luebeck,10.684,53.866,345
414,Parchim,11.848,53.426,200
1478,Rostock,12.136,54.089,714
288,Ziegendorf,11.809,53.295,200
288,Neubukow,11.673,54.032,200
240,Jamel,11.517,53.482,200
345,Lenz,12.349,53.468,200
595,Guestrow,12.176,53.794,240
240,Waren (Mueritz),12.686,53.513,240
496,Wismar,11.466,53.892,200
496,Schwerin,11.414,53.629,345
240,Grimmen,13.043,54.113,200
288,Altentreptow,13.25,53.693,200
414,Sassnitz,13.634,54.513,240
240,Ueckermuende,14.046,53.737,200
595,Anklam,13.693,53.855,200
240,Blankensee,14.307,53.512,200
1027,Neubrandenburg,13.26,53.557,595
496,Prenzlau,13.862,53.316,240
345,Torgelow,14.011,53.629,200
414,Neustrelitz,13.063,53.362,200
414,Greifswald,13.38,54.096,200
345,Heringsdorf,14.167,53.954,240
240,Zinnowitz,13.909,54.077,200
288,Loitz,13.13,53.974,200
714,Burg auf Fehmarn,11.198,54.439,288
1027,Flensburg,9.438,54.783,345
288,Dranske,13.231,54.63,200
345,Nuebbel,9.622,54.273,200
288,Zingst,12.683,54.435,200
595,Stralsund,13.09,54.314,414
288,Kappeln,9.931,54.659,200
345,Ribnitz,12.432,54.243,200
414,Schleswig,9.567,54.515,200
1478,Kiel,10.137,54.322,595
288,Oldenburg in Holstein,10.888,54.293,200
288,Niebuell,8.829,54.788,240
414,Husum,9.057,54.477,240
595,Westerland,8.309,54.908,345
240,Toenning,8.942,54.317,200
714,Helgoland,7.887,54.182,345
714,Heide,9.091,54.194,240
240,Hoernum (Sylt),8.287,54.756,200
240,Ekel,9.358,54.326,200
240,Ording,8.605,54.336,200
3674,Ruhrgebiet,7.128,51.503,3062
9138,München,11.561,48.135,2552
595,Düsseldorf,6.812,51.215,240
1773,Hannover,9.756,52.379,595
414,Bonn,7.121,50.753,200
856,Mannheim/Ludwigshafen,8.442,49.496,496
414,Haunstetten,10.89,48.353,345
856,Frankfurt (Oder),14.543,52.343,496
414,Kirchmöser,12.399,52.394,288
