rs,name,lon,lat,r1
2191,Narva,28.181,59.379,882
206,Sillamäe,27.766,59.397,172
426,Põlva,27.069,58.057,172
206,Türi,25.422,58.805,100
613,Jõgeva,26.392,58.749,247
613,Rapla,24.802,58.998,206
144,Laeva,26.381,58.486,100
172,Rakke,26.251,58.986,100
120,Ulvi,26.636,59.327,100
144,Uhtna,26.563,59.395,100
144,Vajangu,26.01,59.109,100
120,Pajusti,26.411,59.284,100
296,Roela,26.592,59.167,100
172,Tudu,26.854,59.179,100
172,Võsu,25.966,59.578,100
120,Triigi,26.33,59.115,100
144,Ahja,27.074,58.208,100
206,Kanepi,26.757,57.986,120
144,Alavere,25.328,59.246,100
172,Muraste,24.428,59.456,100
172,Neeme,25.158,59.53,100
120,Kiili,24.84,59.306,100
247,Kose,25.168,59.184,144
144,Oru,24.989,59.189,100
120,Kolga,25.615,59.491,100
355,Kuusalu,25.444,59.446,100
172,Ardu,25.363,59.102,100
120,Habaja,25.167,59.107,100
426,Turba,24.236,59.08,120
144,Jüri,24.918,59.359,100
206,Rummu,24.199,59.231,100
247,Emmaste,22.597,58.705,100
120,Kõrgessaare,22.467,58.981,120
355,Käina,22.776,58.828,144
120,Suuremõisa,22.952,58.873,100
247,Aseri,26.865,59.451,144
247,Avinurme,26.863,58.985,100
735,Iisaku,27.31,59.101,206
120,Kuremäe,27.535,59.2,100
247,Mäetaguse,27.294,59.225,100
206,Sonda,26.832,59.35,100
120,Toila,27.507,59.422,100
172,Tudulinna,27.082,59.036,100
120,Pala,27.018,58.673,100
144,Palamuse,26.585,58.685,100
172,Puurmani,26.299,58.574,120
120,Kääpa,26.848,58.698,100
120,Maarja-Magdaleena,26.738,58.61,100
172,Tabivere,26.599,58.548,120
144,Torma,26.741,58.821,100
120,Ambla,25.839,59.192,100
172,Aravete,25.752,59.143,100
426,Järva-Jaani,25.881,59.039,120
144,Kabala,25.63,58.693,100
120,Koeru,26.024,58.963,100
144,Koigi,25.749,58.838,100
120,Oisu,25.563,58.758,100
120,Kõmsi,23.633,58.626,100
120,Vatla,23.725,58.561,100
206,Virtsu,23.524,58.578,120
144,Pürksi,23.521,59.007,100
144,Jõõdre,23.623,58.866,100
172,Palivere,23.894,58.966,120
247,Hullo,23.243,58.993,120
144,Simuna,26.393,59.044,100
144,Haljala,26.264,59.433,100
144,Kadrina,26.134,59.344,100
426,Orissaare,23.082,58.559,296
247,Salme,22.25,58.163,100
355,Valjala,22.795,58.41,144
120,Alatskivi,27.134,58.6,100
206,Kambja,26.7,58.234,100
172,Kabli,24.442,58.004,100
172,Lüllemäe,26.375,57.751,100
296,Otepää,26.497,58.06,120
120,Sihva,26.428,58.011,100
247,Keeni,26.273,57.955,100
144,Tsirguliina,26.195,57.864,100
172,Treimani,24.388,57.921,100
172,Kergu,24.756,58.669,100
613,Lemsi,24.007,58.13,172
172,Koonga,24.153,58.582,100
206,Uulu,24.576,58.28,100
144,Võiste,24.48,58.216,100
120,Tali,24.786,58.062,100
172,Tori,24.814,58.486,100
296,Tõstamaa,23.994,58.335,144
172,Juuru,24.96,59.059,100
120,Kuimetsa,25.122,59.042,100
120,Kehtna,24.876,58.927,100
206,Käru,25.141,58.833,120
172,Varbola,24.456,59.044,100
296,Koosa,27.079,58.526,120
144,Vara,26.888,58.511,100
206,Võnnu,27.051,58.283,144
120,Ülenurme,26.721,58.314,100
144,Ala,25.694,58.012,100
120,Kauksi,27.228,58.091,100
206,Orava,27.458,57.887,100
120,Vastse-Kuuste,26.937,58.17,100
144,Leevi,27.213,57.947,100
144,Veriora,27.346,58.004,100
247,Värska,27.633,57.958,100
120,Audru,24.357,58.41,100
144,Lindi,24.256,58.329,100
206,Pärnu-Jaagupi,24.503,58.611,144
247,Rõuge,26.917,57.73,100
247,Varstu,26.66,57.643,100
120,Krootuse,26.837,58.074,100
247,Häädemeeste,24.5,58.081,172
120,Lasva,27.181,57.86,100
426,Misso,27.228,57.601,100
120,Kabala,24.655,58.924,100
120,Kivi-Vigala,24.366,58.713,100
296,Vana-Vigala,24.247,58.78,120
120,Laimjala,23.003,58.427,100
296,Leisi,22.683,58.571,120
144,Lümanda,22.025,58.288,100
120,Liiva,23.234,58.606,100
296,Mustjala,22.239,58.46,100
613,Mehikoorma,27.469,58.236,120
144,Nõo,26.537,58.278,100
206,Puhja,26.307,58.336,100
144,Rannu,26.221,58.24,100
206,Rõngu,26.248,58.143,100
120,Kõrveküla,26.763,58.423,100
247,Vastseliina,27.283,57.732,144
144,Parksepa,26.985,57.908,100
511,Loksa,25.72,59.582,247
206,Aegviidu,25.61,59.287,100
206,Kehra,25.334,59.332,172
511,Kärdla,22.746,58.997,355
355,Mustvee,26.941,58.848,206
355,Kunda,26.516,59.502,144
172,Tamsalu,26.108,59.163,100
296,Räpina,27.465,58.098,144
355,Kilingi-Nõmme,24.955,58.149,206
247,Lavassaare,24.368,58.514,100
120,Tootsi,24.787,58.583,100
426,Vändra,25.041,58.652,144
206,Järvakandi,24.81,58.774,120
296,Kohila,24.75,59.171,144
296,Märjamaa,24.422,58.901,144
296,Kallaste,27.162,58.662,120
426,Tõrva,25.923,58.003,172
206,Suure-Jaani,25.47,58.538,100
355,Võhma,25.558,58.632,120
172,Karksi-Nuia,25.55,58.104,172
296,Antsla,26.528,57.829,172
426,Lihula,23.833,58.687,172
206,Kärla,22.255,58.331,120
144,Aste,22.448,58.345,100
172,Kolga-Jaani,25.944,58.534,100
206,Kõpu,25.307,58.327,100
144,Ramsi,25.54,58.308,100
120,Saarepeedi,25.684,58.431,100
144,Kärstna,25.804,58.143,100
206,Mustla,25.863,58.235,144
120,Vastemõisa,25.44,58.443,100
144,Tsooru,26.655,57.743,100
735,Ruhnu,23.243,57.804,296
100000,Tallinn,24.696,59.42,100000
355,Kohtla-Järve,27.254,59.393,355
2191,Pärnu,24.523,58.381,882
613,Viljandi,25.598,58.368,426
511,Rakvere,26.365,59.347,355
172,Maardu,24.953,59.474,100
882,Kuressaare,22.492,58.255,882
735,Võru,27.008,57.839,426
1269,Valga,26.039,57.777,426
882,Haapsalu,23.543,58.94,511
613,Paide,25.55,58.885,426
296,Keila,24.416,59.311,120
296,Tapa,25.963,59.261,144
355,Elva,26.417,58.227,144
296,Põltsamaa,25.979,58.655,144
206,Paldiski,24.055,59.353,144
120,Laagri,24.61,59.352,100
1522,Tartu,26.72,58.374,1058
120,Narva-Jõesuu,28.047,59.456,100
