rs,name,lon,lat,r1
296,San Vicente de Alcantara,-7.136,39.361,120
296,Llerena,-6.016,38.238,206
735,Azuaga,-5.677,38.26,247
1058,Zafra,-6.411,38.423,206
247,Villafranca de los Barros,-6.336,38.561,100
426,Almendralejo,-6.405,38.683,172
355,Don Benito,-5.861,38.957,296
206,Guarena,-6.098,38.86,144
613,Merida,-6.342,38.919,426
144,Jerez de los Caballeros,-6.769,38.323,144
355,Olivenza,-7.098,38.684,144
206,Montehermoso,-6.348,40.088,144
206,Moraleja,-6.654,40.069,100
511,Coria,-6.538,39.986,296
1058,Caceres,-6.371,39.475,511
247,Jaraiz de la Vera,-5.756,40.058,172
296,Navalmoral de la Mata,-5.539,39.894,296
1058,Plasencia,-6.085,40.036,426
247,Gibraleon,-6.967,37.376,100
172,Punta Umbria,-6.968,37.183,100
172,Ayamonte,-7.401,37.215,144
1058,Aracena,-6.564,37.892,247
511,Valverde del Camino,-6.752,37.573,206
426,Almonte,-6.516,37.261,247
172,Bollullos Par del Condado,-6.539,37.34,100
735,Lucena,-4.486,37.409,426
206,Rute,-4.368,37.326,100
120,Cabra,-4.429,37.473,100
172,Puente Genil,-4.766,37.388,172
426,Montilla,-4.638,37.585,144
247,Baena,-4.323,37.617,100
247,Bujalance,-4.379,37.893,100
296,Palma del Rio,-5.278,37.699,144
296,Ubrique,-5.446,36.675,206
120,Benalup-Casas Viejas,-5.813,36.346,100
247,Rota,-6.367,36.627,100
247,Conil de la Frontera,-6.086,36.279,100
172,Tarifa,-5.606,36.016,120
882,Algeciras,-5.448,36.133,511
426,Olvera,-5.258,36.934,172
144,Archidona,-4.39,37.095,120
247,Alameda,-4.656,37.208,120
355,Velez-Malaga,-4.101,36.777,206
120,Pizarra,-4.707,36.764,100
1826,Malaga,-4.43,36.724,882
426,Marbella,-4.886,36.513,247
144,Nerja,-3.872,36.754,144
426,Guadix,-3.136,37.299,247
144,Huetor Tajar,-4.046,37.198,100
426,Baza,-2.773,37.488,426
355,Motril,-3.517,36.749,355
355,La Carolina,-3.616,38.274,120
296,Alcaudete,-4.081,37.59,100
120,Arjona,-4.056,37.936,100
144,Los Villares,-3.817,37.689,100
206,Mengibar,-3.806,37.969,100
120,Baeza,-3.469,37.994,100
172,Mancha Real,-3.608,37.785,120
613,Jodar,-3.353,37.84,144
144,Bailen,-3.777,38.095,100
511,Villacarrillo,-3.082,38.116,206
355,Mula,-1.491,38.04,144
172,Bullas,-1.667,38.047,120
296,Fortuna,-1.126,38.181,100
206,Caravaca de la Cruz,-1.863,38.106,206
144,Alhama de Murcia,-1.424,37.85,100
144,Fuente Alamo de Murcia,-1.17,37.723,100
247,Totana,-1.499,37.77,144
613,Aguilas,-1.582,37.409,206
296,Mazarron,-1.314,37.599,144
206,Puerto Lumbreras,-1.806,37.565,100
144,Moratalla,-1.89,38.188,100
206,Jumilla,-1.324,38.476,144
613,Hellin,-1.698,38.511,247
172,Tobarra,-1.688,38.591,100
247,La Roda,-2.157,39.206,206
1269,Albacete,-1.858,38.993,735
511,Almansa,-1.095,38.868,206
172,Caudete,-0.985,38.705,100
511,Alcazar de San Juan,-3.211,39.39,206
296,Manzanares,-3.371,38.998,172
247,Villarrubia de los Ojos,-3.607,39.22,120
206,Daimiel,-3.611,39.069,144
613,Tomelloso,-3.017,39.157,613
1269,Ciudad Real,-3.928,38.983,735
355,Malagon,-3.851,39.167,144
120,Bolanos de Calatrava,-3.663,38.906,120
120,Pedro Munoz,-2.947,39.402,120
120,Socuellamos,-2.792,39.284,120
735,Tarancon,-3.01,40.011,296
1522,Cuenca,-2.136,40.066,613
247,San Clemente,-2.427,39.402,120
144,Mota del Cuervo,-2.87,39.501,100
172,Las Pedroneras,-2.673,39.449,120
247,Quintanar del Rey,-1.926,39.344,172
247,Guadalajara,-3.164,40.636,144
172,San Martin de Valdeiglesias,-4.399,40.364,172
120,Navalcarnero,-4.012,40.287,120
296,Villa del Prado,-4.304,40.277,100
120,El Alamo,-3.991,40.23,100
247,Ciempozuelos,-3.621,40.158,100
120,Parla,-3.764,40.233,100
426,Aranjuez,-3.601,40.031,172
120,Morata de Tajuna,-3.436,40.23,100
206,Villarejo de Salvanes,-3.276,40.169,120
120,Colmenar Viejo,-3.77,40.665,120
172,Alcobendas,-3.638,40.542,100
144,Cercedilla,-4.055,40.741,100
172,Manzanares el Real,-3.86,40.732,100
120,La Partija-Santa Monica,-3.537,40.362,100
247,Arganda del Rey,-3.44,40.299,100
511,Arenas de San Pedro,-5.082,40.211,247
882,Avila,-4.697,40.65,511
511,Arevalo,-4.714,41.054,206
296,Cuellar,-4.312,41.401,247
735,Segovia,-4.112,40.944,247
511,Ciudad Rodrigo,-6.529,40.6,426
613,Bejar,-5.764,40.386,247
296,Guijuelo,-5.671,40.556,120
355,Astorga,-6.054,42.455,296
355,La Baneza,-5.899,42.298,144
296,Valencia de Don Juan,-5.517,42.293,206
355,Briviesca,-3.323,42.549,247
355,Medina de Pomar,-3.487,42.932,247
613,Aranda de Duero,-3.687,41.673,426
206,Segorbe,-0.487,39.849,144
247,Onda,-0.263,39.965,120
206,L'Alcora,-0.213,40.075,100
296,La Vall d'Uixo,-0.228,39.824,120
144,Binefar,0.295,41.85,100
296,Fraga,0.342,41.522,172
735,Jaca,-0.546,42.573,355
206,Sabinanigo,-0.367,42.521,100
882,Huesca,-0.407,42.137,355
613,Monzon,0.191,41.913,247
247,Barbastro,0.125,42.036,100
247,Haro,-2.849,42.573,100
144,Arnedo,-2.102,42.226,100
296,Alfaro,-1.749,42.178,100
296,Najera,-2.728,42.419,144
296,Calahorra,-1.968,42.307,247
206,Estella/Lizarra,-2.031,42.672,206
120,Cintruenigo,-1.803,42.079,100
882,Tudela,-1.606,42.058,426
120,Peralta/Azkoien,-1.8,42.339,100
247,Altsasu/Alsasua,-2.169,42.895,120
120,Vilafranca del Penedes,1.7,41.345,100
120,Gava,2,41.306,100
247,La Garriga,2.283,41.686,120
247,Mataro,2.438,41.544,172
172,Tona,2.226,41.849,100
426,Vic,2.255,41.929,296
247,Gelida,1.867,41.441,100
144,Manlleu,2.283,42.002,100
144,Sant Vicenc de Castellet,1.863,41.668,100
426,Berga,1.846,42.101,247
247,Sant Feliu de Guixols,3.03,41.784,100
172,Santa Coloma de Farners,2.667,41.861,100
172,Angles,2.638,41.957,100
296,Ripoll,2.194,42.195,172
296,L'Escala,3.142,42.108,144
144,Torroella de Montgri,3.128,42.042,100
613,Figueres,2.961,42.265,206
1269,Lleida,0.629,41.62,882
247,Almacelles,0.439,41.729,100
247,Guissona,1.29,41.784,100
511,Tarrega,1.14,41.648,206
120,Cervera,1.273,41.672,100
172,Mollerussa,0.892,41.627,144
296,Balaguer,0.807,41.789,120
206,Les Borges Blanques,0.87,41.518,100
296,Solsona,1.519,41.994,206
172,Amurrio,-2.999,43.053,100
511,Vitoria-Gasteiz,-2.679,42.85,355
247,Laudio/Llodio,-2.965,43.141,120
172,Zarautz,-2.168,43.284,120
120,Azpeitia,-2.266,43.181,100
247,Onati,-2.413,43.033,100
172,Los Corrales de Buelna,-4.066,43.262,100
1058,Reinosa,-4.137,43,247
206,Santona,-3.454,43.443,120
247,Castro-Urdiales,-3.216,43.376,144
735,La Pola,-5.827,43.158,100
144,Grau/Grado,-6.072,43.385,120
1522,Gijon/Xixon,-5.67,43.53,1522
206,Llangreu/Langreo,-5.677,43.293,100
355,Ordes,-8.403,43.079,144
206,Betanzos,-8.207,43.277,100
355,As Pontes de Garcia Rodriguez,-7.86,43.452,206
355,Santiago de Compostela,-8.539,42.879,355
206,Burela,-7.362,43.661,144
247,Ribadeo,-7.044,43.536,172
1058,Lugo,-7.556,43.011,426
355,Monforte de Lemos,-7.511,42.522,247
511,Sarria,-7.411,42.779,206
426,Lalin,-8.11,42.66,172
206,Tui,-8.644,42.049,100
247,O Carballino,-8.076,42.432,100
882,Verin,-7.434,41.941,355
144,Sa Pobla,3.023,39.769,100
735,Mao,4.263,39.887,735
144,Campos,3.017,39.432,100
247,Manacor,3.208,39.57,172
120,Porto Cristo,3.341,39.545,100
206,Felanitx,3.148,39.47,100
247,Inca,2.911,39.719,172
120,Santa Maria del Cami,2.775,39.649,100
206,Andratx,2.419,39.573,144
296,San Sebastian de la Gomera,-17.114,28.089,247
206,Guimar,-16.41,28.317,100
144,Tejina,-16.361,28.533,100
144,Ingenio,-15.436,27.92,100
426,Gran Tarajal,-14.021,28.214,172
735,Puerto del Rosario,-13.861,28.499,296
296,Corralejo,-13.868,28.74,172
144,El Pinos/Pinoso,-1.04,38.401,144
172,Villena,-0.863,38.636,144
120,Muro de Alcoy,-0.437,38.781,100
144,Guardamar del Segura,-0.653,38.086,100
172,Santa Pola,-0.552,38.195,100
206,Jijona/Xixona,-0.506,38.538,100
144,Ibi,-0.574,38.623,100
120,Javea/Xabia,0.164,38.789,100
735,Adra,-3.016,36.749,144
172,Berja,-2.945,36.846,100
355,Albox,-2.141,37.385,120
247,Velez-Rubio,-2.075,37.649,172
206,Huercal-Overa,-1.945,37.395,206
426,Vera,-1.866,37.247,120
144,Garrucha,-1.822,37.18,100
144,Almerimar,-2.805,36.708,100
144,Roquetas de Mar,-2.611,36.762,120
120,Retamar,-2.308,36.835,100
296,Carboneras,-1.895,36.998,144
206,Lebrija,-6.076,36.919,172
144,Las Cabezas de San Juan,-5.937,36.983,100
247,Dos Hermanas,-5.926,37.281,100
247,Utrera,-5.777,37.185,100
120,Mairena del Alcor,-5.75,37.373,100
172,San Jose de la Rinconada,-5.943,37.485,100
206,Montellano,-5.573,36.995,100
426,Moron de la Frontera,-5.452,37.122,206
144,Arahal,-5.544,37.261,100
172,Lora del Rio,-5.527,37.657,144
426,Cantillana,-5.823,37.611,100
120,Carmona,-5.646,37.47,120
5448,Sevilla,-5.972,37.388,2191
144,Pilas,-6.304,37.304,144
120,Almensilla,-6.112,37.31,100
296,Gerena,-6.155,37.531,120
120,Gines,-6.074,37.385,100
120,Fuentes de Andalucia,-5.346,37.464,100
172,Osuna,-5.104,37.237,172
120,Pedrera,-4.894,37.225,100
247,Estepa,-4.878,37.292,100
172,Illescas,-3.849,40.127,100
120,Arges,-4.055,39.805,100
172,Mora,-3.774,39.684,120
120,Bargas,-4.019,39.94,100
120,Fuensalida,-4.209,40.051,100
355,Quintanar de la Orden,-3.038,39.594,144
426,Sonseca,-3.977,39.677,144
206,Torrijos,-4.28,39.982,144
206,Villacanas,-3.339,39.62,144
426,Toledo,-4.026,39.867,247
172,Ocana,-3.496,39.958,100
1058,Zamora,-5.741,41.507,426
355,Toro,-5.394,41.524,206
206,Tordesillas,-4.999,41.503,172
613,Medina del Campo,-4.914,41.307,247
1522,Soria,-2.472,41.764,511
206,Tavernes de la Valldigna,-0.264,39.073,100
172,Utiel,-1.204,39.569,100
247,Bunol,-0.789,39.421,144
355,El Puerto,-0.22,39.661,144
144,Catarroja,-0.403,39.404,100
1058,Teruel,-1.105,40.342,613
1058,Alcaniz,-0.131,41.05,355
296,Tarazona,-1.724,41.904,120
206,La Almunia de Dona Godina,-1.374,41.477,172
613,Calatayud,-1.642,41.351,426
144,Utebo,-0.998,41.71,100
426,Zuera,-0.788,41.867,144
2191,Zaragoza,-0.894,41.65,1522
144,Alagon,-1.119,41.771,100
355,Tauste,-1.253,41.919,120
247,Ejea de los Caballeros,-1.133,42.127,247
247,Amposta,0.577,40.709,100
206,Sant Carles de la Rapita,0.587,40.616,100
247,La Senia,0.283,40.635,120
120,Alcanar,0.48,40.543,100
144,Deltebre,0.727,40.718,100
355,Valls,1.249,41.288,100
120,Torredembarra,1.401,41.147,100
144,Reus,1.108,41.152,100
206,Montblanc,1.16,41.374,100
5448,Melilla,-2.947,35.283,1269
120,Villarta de los Montes,-4.79,39.214,100
206,Valdecaballeros,-5.188,39.242,100
172,Herrera del Duque,-5.049,39.168,144
120,La Codosera,-7.172,39.208,100
247,Villar del Rey,-6.847,39.132,100
120,Puebla de Obando,-6.625,39.176,120
206,Maguilla,-5.836,38.365,100
296,Campillo de Llerena,-5.831,38.501,120
144,Peraleda del Zaucejo,-5.564,38.474,100
120,Valle de la Serena,-5.797,38.702,100
120,Zalamea de la Serena,-5.658,38.652,100
120,Monterrubio de la Serena,-5.444,38.589,120
247,Llera,-6.056,38.446,120
120,Berlanga,-5.828,38.282,100
120,Hinojosa del Valle,-6.184,38.483,100
120,Puebla de la Reina,-6.101,38.664,100
144,La Coronada,-5.669,38.919,100
206,Torremejia,-6.376,38.789,100
206,Penalsordo,-5.113,38.819,100
120,Garbayuela,-4.998,39.05,100
172,Siruela,-5.048,38.978,100
172,Talarrubias,-5.233,39.036,144
120,Risco,-5.122,38.911,100
296,Navalvillar de Pela,-5.467,39.091,172
144,Oliva de Merida,-6.122,38.791,100
172,Santa Amalia,-6.009,39.011,100
144,La Nava de Santiago,-6.504,39.063,100
144,Mirandilla,-6.289,39.001,100
511,Zahinos,-6.955,38.331,120
296,Cheles,-7.281,38.511,144
120,San Francisco de Olivenza,-7.104,38.747,100
172,Alvarado,-6.79,38.809,100
120,Valle de Matamoros,-6.805,38.378,100
120,Valencia del Mombuey,-7.119,38.243,120
172,Alconchel,-7.07,38.516,144
355,Barcarrota,-6.847,38.515,172
172,La Parra,-6.621,38.522,120
144,Torre de Miguel Sesmero,-6.796,38.618,100
172,La Albuera,-6.823,38.717,144
144,Alcazaba,-6.738,38.954,100
144,Fuentes de Leon,-6.539,38.068,100
206,Monesterio,-6.271,38.088,120
120,Montemolin,-6.212,38.154,100
120,Puebla del Maestre,-6.078,38.084,100
172,Albala,-7.119,38.804,100
247,Alcuescar,-6.23,39.182,172
144,Valdefuentes,-6.123,39.275,100
247,Torreorgaz,-6.247,39.383,100
120,Campo Lugar,-5.771,39.195,100
206,Zorita,-5.698,39.286,120
206,Garciaz,-5.627,39.413,100
247,Monroy,-6.209,39.637,120
206,Torrejon el Rubio,-6.011,39.77,100
172,Torrecillas de la Tiesa,-5.742,39.567,100
355,Jaraicejo,-5.813,39.665,100
120,Deleitosa,-5.645,39.644,100
120,Romangordo,-5.699,39.742,100
144,Madrigalejo,-5.626,39.138,100
206,Logrosan,-5.49,39.336,206
144,Navezuelas,-5.438,39.51,100
172,Guadalupe,-5.325,39.452,120
247,Bohonal de Ibor,-5.484,39.784,100
120,Castanar de Ibor,-5.416,39.629,120
144,Serradilla,-6.14,39.828,100
120,El Gordo,-5.343,39.865,100
144,Almaraz,-5.675,39.815,100
247,Pinofranqueado,-6.33,40.303,100
144,Santiago de Alcantara,-7.243,39.605,100
882,Cedillo,-7.498,39.651,144
247,Membrio,-7.053,39.527,120
120,Herreruela,-6.906,39.462,100
172,Alcantara,-6.884,39.713,100
172,Aliseda,-6.692,39.423,172
120,Villa del Rey,-6.82,39.659,100
247,Brozas,-6.778,39.612,144
144,Cilleros,-6.788,40.112,100
355,Garrovillas de Alconetar,-6.548,39.711,144
247,Ceclavin,-6.771,39.822,120
144,Zarza la Mayor,-6.861,39.877,100
172,Portezuelo,-6.474,39.812,100
120,Galisteo,-6.265,39.976,100
511,Valverde del Fresno,-6.877,40.221,144
206,Torrejoncillo,-6.466,39.897,100
120,Gata,-6.595,40.238,120
120,Navas del Madrono,-6.653,39.621,100
120,Malpartida de Plasencia,-6.044,39.979,100
120,Majadas,-5.746,39.943,100
144,Piornal,-5.847,40.116,100
144,Ahigal,-6.187,40.19,120
120,Nunomoral,-6.245,40.407,100
206,Hervas,-5.861,40.272,100
120,Aldeanueva de la Vera,-5.703,40.125,100
144,Jerte,-5.75,40.222,100
120,Rosalejo,-5.457,39.995,100
144,La Barquilla,-5.446,40.063,100
172,Villanueva de los Castillejos,-7.271,37.499,100
144,San Bartolome de la Torre,-7.104,37.445,100
511,Paymogo,-7.344,37.741,120
247,Puebla de Guzman,-7.247,37.613,144
206,Calanas,-6.878,37.653,100
144,Niebla,-6.679,37.363,100
144,Campofrio,-6.573,37.767,100
144,Santa Barbara de Casa,-7.188,37.797,100
144,El Cerro de Andevalo,-6.937,37.734,100
144,Beas,-6.792,37.427,100
206,Cortegana,-6.82,37.911,172
144,Villablanca,-7.342,37.303,100
120,Torre de la Higuera O Matalascanas,-6.556,37.005,120
247,Santa Olalla del Cala,-6.228,37.907,144
247,El Rocio,-6.481,37.134,100
120,Canaveral de Leon,-6.527,38.015,100
426,Rosal de la Frontera,-7.22,37.967,172
120,Aroche,-6.952,37.944,100
172,Cala,-6.315,37.971,100
172,Encinasola,-6.871,38.137,144
144,Marzagalejo,-6.745,37.23,100
144,Cuenca,-5.557,38.322,100
172,Argallon,-5.483,38.202,120
206,Los Blazquez,-5.438,38.407,100
172,Belalcazar,-5.166,38.575,100
120,Santa Eufemia,-4.903,38.597,120
144,Dos Torres,-4.895,38.445,100
144,Torrecampo,-4.677,38.474,120
144,Conquista,-4.5,38.409,100
144,Venta del Charco,-4.278,38.204,100
296,Cardena,-4.325,38.273,172
296,Villaviciosa de Cordoba,-5.015,38.075,172
144,Adamuz,-4.521,38.027,100
144,Cerro Muriano,-4.768,38.004,100
120,El Carpio,-4.495,37.941,100
120,Monturque,-4.58,37.472,100
172,La Montiela,-4.918,37.524,100
120,Benameji,-4.54,37.269,100
120,Fuente-Tojar,-4.145,37.51,100
144,Luque,-4.278,37.558,100
120,Los Mochos,-4.949,37.836,100
144,Valenzuela,-4.219,37.775,100
120,Hornachuelos,-5.245,37.835,100
172,La Cardenchosa,-5.348,38.146,100
247,Espiel,-5.019,38.189,100
120,La Parrilla,-4.526,38.085,100
120,La Sierra,-4.258,37.706,100
120,Las Navas,-4.104,37.39,100
206,Facinas,-5.698,36.143,120
172,Espera,-5.805,36.872,100
144,San Jose del Valle,-5.799,36.605,120
144,Costa Ballena,-6.414,36.691,100
120,Grazalema,-5.368,36.759,100
144,El Gastor,-5.322,36.855,100
247,Sotogrande,-5.302,36.282,120
144,La Cartaga,-5.316,36.992,100
120,Villanueva de Algaidas,-4.449,37.183,100
144,Villanueva del Trabuco,-4.334,37.027,100
172,Mollina,-4.657,37.124,100
120,Chilches,-4.223,36.727,100
206,Yunquera,-4.919,36.734,144
120,El Burgo,-4.948,36.79,100
144,Los Prados,-5.134,36.825,100
144,Ardales,-4.845,36.879,100
120,Teba,-4.918,36.983,100
144,Benamargosa,-4.192,36.835,100
144,Valle de Abdalajis,-4.681,36.932,100
296,Colmenar,-4.337,36.905,100
120,Alcaucin,-4.116,36.903,100
172,Almogia,-4.54,36.827,100
172,Gaucin,-5.315,36.518,100
172,Istan,-4.948,36.582,100
144,Cortes de la Frontera,-5.34,36.618,100
120,Venta del Jaro,-3.916,36.83,100
172,Albunol,-3.202,36.792,120
172,Trevelez,-3.265,37.001,120
144,Murtas,-3.108,36.887,100
172,Ugijar,-3.052,36.964,100
144,Jerez del Marquesado,-3.159,37.184,100
172,Charches,-2.956,37.295,120
120,Benalua,-3.163,37.351,100
172,Pedro Martinez,-3.229,37.502,120
144,Gor,-2.969,37.37,100
120,Zujar,-2.841,37.541,100
247,Montefrio,-4.006,37.322,100
172,Fatima,-2.731,37.819,100
172,Cuevas del Campo,-2.929,37.607,100
120,Zafarraya,-4.144,36.975,100
247,Puebla de Don Fadrique,-2.435,37.956,100
120,Caniles,-2.723,37.436,100
296,Cullar,-2.572,37.584,120
120,Castillejar,-2.641,37.718,100
206,Orce,-2.477,37.721,100
144,Jayena,-3.823,36.949,100
120,Penuelas,-3.856,37.174,100
172,Otivar,-3.681,36.816,100
120,Velez de Benaudalla,-3.514,36.833,100
206,Orgiva,-3.422,36.901,100
120,Escuzar,-3.761,37.062,100
120,Urbanizacion Valle del Puntal,-3.635,37.038,100
120,Moreda,-3.329,37.44,100
144,Montejicar,-3.502,37.573,100
206,Aldeaquemada,-3.371,38.411,100
144,Aldeahermosa,-3.126,38.329,144
120,Santa Elena,-3.538,38.341,100
172,Vilches,-3.513,38.209,100
144,Siles,-2.58,38.389,144
144,Arroyo del Ojanco,-2.895,38.321,100
144,Noguerones,-4.16,37.653,100
172,Donadio,-3.364,37.928,100
296,Pozo Alcon,-2.934,37.703,120
172,Santo Tome,-3.1,38.027,100
206,Coto-Rios,-2.848,38.047,120
144,Lopera,-4.213,37.946,100
172,Fuerte del Rey,-3.882,37.874,100
206,Navas de San Juan,-3.314,38.184,120
296,Santiago de la Espada,-2.551,38.111,144
144,Guarroman,-3.686,38.183,100
120,Guadalen,-3.506,38.142,100
120,Cequia,-3.866,37.4,100
144,Valdepenas de Jaen,-3.817,37.59,100
144,Noalejo,-3.652,37.529,100
120,Archivel,-2.005,38.072,100
144,Singla,-1.943,38.021,100
120,Blanca,-1.374,38.179,100
247,Zarcilla de Ramos,-1.874,37.844,144
206,Coy,-1.811,37.948,100
206,Barqueros,-1.37,37.94,100
144,Corvera,-1.156,37.831,100
172,Sucina,-0.94,37.891,100
120,La Palma,-0.955,37.688,100
172,Los Belones,-0.777,37.624,100
120,Las Palas,-1.188,37.662,100
144,Los Curas,-1.401,37.511,100
120,Parroquia de la Fuensanta,-1.894,37.728,100
144,Las Lomas,-1.412,37.716,100
120,Almendricos,-1.776,37.473,100
120,Barinas,-1.057,38.272,100
120,Venta las Quebradas,-1.07,38.468,100
120,Los Conventos,-1.579,37.608,100
172,Venta del Olivo,-1.48,38.318,100
120,Villapalacios,-2.632,38.576,100
120,Bienservida,-2.611,38.517,100
296,Riopar,-2.417,38.498,120
120,Penascosa,-2.41,38.673,120
1058,Yeste,-2.319,38.367,172
144,Molinicos,-2.237,38.468,100
172,Elche de la Sierra,-2.046,38.45,172
120,Ayna,-2.069,38.552,100
206,Bogarra,-2.211,38.582,120
296,Socovos,-1.985,38.333,100
120,Penas de San Pedro,-1.999,38.725,100
247,Lietor,-1.953,38.542,100
206,Alcadozo,-1.979,38.649,100
144,Ontur,-1.497,38.615,100
247,Fuente-Alamo,-1.431,38.692,172
206,Agramon,-1.637,38.421,100
144,Las Anorias,-1.539,38.755,100
426,Munera,-2.479,39.041,206
172,El Bonillo,-2.539,38.95,100
172,El Ballestero,-2.454,38.842,100
247,La Gineta,-1.996,39.114,100
172,Minaya,-2.32,39.27,100
120,Lezuza,-2.354,38.949,100
120,Montalvos,-2.026,39.167,100
144,La Herrera,-2.125,38.962,100
247,Balazote,-2.152,38.886,172
120,San Pedro,-2.186,38.826,100
206,Barrax,-2.2,39.045,120
120,Aguas Nuevas,-1.919,38.918,100
120,Petrola,-1.555,38.827,100
144,Villamalea,-1.597,39.362,100
120,Motilleja,-1.79,39.179,100
426,Pozo Canada,-1.733,38.802,100
247,Valdeganga,-1.676,39.134,120
172,Chinchilla de Monte-Aragon,-1.724,38.92,100
355,Casas-Ibanez,-1.471,39.287,206
144,Bonete,-1.348,38.871,100
206,Alpera,-1.23,38.958,100
144,La Felipa,-1.7,39.04,100
144,Castellar de Santiago,-3.276,38.539,100
144,Llanos del Caudillo,-3.351,39.118,100
120,Albaladejo,-2.809,38.618,100
144,Cozar,-3.071,38.66,100
120,Arenales de San Gregorio,-3.026,39.31,100
120,Montiel,-2.865,38.697,100
172,Villanueva de la Fuente,-2.693,38.694,172
206,Santa Cruz de Mudela,-3.463,38.642,100
206,Viso del Marques,-3.562,38.522,100
120,Arroba de los Montes,-4.541,39.154,100
296,Anchuras,-4.836,39.48,144
120,Alcoba,-4.477,39.26,100
120,El Robledo,-4.28,39.219,100
355,Horcajo de los Montes,-4.649,39.328,206
120,Brazatortas,-4.293,38.659,120
120,Alamillo,-4.789,38.679,100
120,Guadalmez,-4.968,38.726,100
296,Solana del Pino,-4.072,38.466,120
206,San Benito,-4.675,38.565,100
172,El Hoyo,-3.92,38.41,100
144,Hinojosas de Calatrava,-4.139,38.614,100
144,Fuencaliente,-4.304,38.406,100
144,Calzada de Calatrava,-3.774,38.702,144
120,Luciana,-4.292,38.985,100
206,Puebla de Don Rodrigo,-4.615,39.083,206
296,Porzuna,-4.152,39.148,100
172,Cortijos de Arriba,-4.064,39.317,120
206,Saceruela,-4.607,38.944,120
206,Corral de Calatrava,-4.08,38.857,120
355,Abenojar,-4.354,38.879,144
172,Piedrabuena,-4.175,39.034,144
120,Tirteafuera,-4.25,38.775,100
355,Ruidera,-2.882,38.976,100
206,Carrizosa,-2.992,38.84,100
172,Fuente de Pedro Naharro,-3.009,39.924,100
172,Garcinarro,-2.759,40.225,100
296,Huete,-2.689,40.144,206
144,Carrascosa del Campo,-2.736,40.037,100
120,Barajas de Melo,-2.916,40.123,100
120,Jabaga,-2.263,40.086,100
247,Sotos,-2.162,40.195,100
172,Arcas,-2.112,39.989,100
120,Boniches,-1.623,39.986,100
206,Huerta del Marquesado,-1.687,40.145,100
355,Canete,-1.646,40.042,144
120,Valdemeca,-1.742,40.224,100
144,La Cierva,-1.85,40.056,100
120,Buenache de la Sierra,-2,40.135,100
206,Una,-1.976,40.223,100
206,San Lorenzo de la Parrilla,-2.36,39.851,120
120,Altarejos,-2.356,39.912,100
144,Canada del Hoyo,-1.899,39.969,120
144,Villaescusa de Haro,-2.671,39.599,120
120,Casasimarro,-2.039,39.392,100
144,Sisante,-2.201,39.407,100
296,Honrubia,-2.281,39.613,144
426,Valera de Abajo,-2.157,39.769,120
144,Palomares del Campo,-2.596,39.945,144
120,Horcajo de Santiago,-2.998,39.843,120
172,Tebar,-2.164,39.498,100
120,Enguidanos,-1.606,39.674,100
120,Villalpardo,-1.624,39.472,100
172,Cardenete,-1.684,39.768,144
172,Arguisuelas,-1.819,39.832,100
172,Reillo,-1.871,39.904,100
172,Mira,-1.438,39.72,100
120,Minglanilla,-1.594,39.536,100
426,Landete,-1.368,39.907,206
172,Iniesta,-1.747,39.445,100
206,Canaveruelas,-2.636,40.4,100
206,Priego,-2.313,40.449,206
172,Albalate de las Nogueras,-2.277,40.365,100
120,Torralba,-2.284,40.303,100
355,Huelamo,-1.808,40.276,100
144,Tragacete,-1.85,40.349,144
120,Canizares,-2.191,40.519,100
247,Cantalojas,-3.245,41.235,144
296,Sacedon,-2.733,40.482,247
172,Sayaton,-2.851,40.376,100
172,Mondejar,-3.108,40.324,120
144,Valverde de los Arroyos,-3.232,41.129,100
172,Tamajon,-3.248,41,100
144,Hiendelaencina,-3.003,41.084,100
247,Atienza,-2.87,41.198,120
1058,Siguenza,-2.643,41.068,296
247,Yunquera de Henares,-3.166,40.753,100
120,Cogolludo,-3.088,40.947,100
247,Jadraque,-2.925,40.925,144
613,Cifuentes,-2.622,40.784,144
172,Cogollor,-2.743,40.848,100
120,Brihuega,-2.869,40.762,120
144,Zaorejas,-2.2,40.762,100
144,Riba de Saelices,-2.296,40.912,100
247,Cobeta,-2.141,40.866,144
120,Tierzo,-1.93,40.749,100
144,Mandayona,-2.749,40.956,100
296,Molina de Aragon,-1.883,40.842,296
120,Arbeteta,-2.402,40.669,100
120,Pareja,-2.648,40.557,100
120,Tendilla,-2.956,40.544,120
172,Trillo,-2.591,40.7,100
247,Villanueva de Alcoron,-2.252,40.679,144
172,Romancos,-2.883,40.688,100
144,Traid,-1.808,40.668,100
144,Checa,-1.788,40.588,100
144,Alustante,-1.657,40.614,100
355,Maranchon,-2.205,41.048,120
247,Tortuera,-1.796,40.972,100
120,Pardos,-1.924,40.948,100
172,Villamanrique de Tajo,-3.239,40.069,100
144,Robledo de Chavela,-4.232,40.501,120
426,Buitrago del Lozoya,-3.636,40.992,172
120,Lozoyuela,-3.622,40.929,100
172,Serracines,-3.4,40.623,100
120,El Tiemblo,-4.499,40.414,100
247,El Barco de Avila,-5.522,40.358,144
120,Candeleda,-5.242,40.155,100
172,Hoyos del Espino,-5.175,40.357,100
120,El Arenal,-5.083,40.269,100
144,San Juan del Olmo,-5.05,40.653,100
120,Munana,-5.015,40.589,100
172,La Adrada,-4.635,40.301,100
120,Padiernos,-4.844,40.621,100
296,Navaluenga,-4.704,40.411,100
120,El Barraco,-4.643,40.477,100
144,Solosancho,-4.903,40.552,144
206,La Canada,-4.497,40.596,100
172,Peguerinos,-4.232,40.627,100
144,Crespos,-4.969,40.871,100
120,San Pedro del Arroyo,-4.872,40.802,100
144,Sanchidrian,-4.58,40.892,100
206,Cardenosa,-4.745,40.742,100
120,Langa,-4.858,41.005,100
247,Tinosillos,-4.729,40.935,100
144,Madrigal de las Altas Torres,-4.997,41.091,144
144,Olombrada,-4.159,41.415,100
426,Cantalejo,-3.925,41.258,206
120,Veganzones,-3.992,41.193,100
144,Sanchonuno,-4.304,41.325,100
206,Nava de la Asuncion,-4.488,41.154,120
120,San Ildefonso,-4.007,40.903,100
247,Villacastin,-4.412,40.779,100
144,Abades,-4.267,40.916,100
120,La Estacion,-4.205,40.99,100
247,Pradena,-3.691,41.136,120
120,Navafria,-3.822,41.054,100
120,Cantimpalos,-4.159,41.074,100
144,Carbonero el Mayor,-4.265,41.121,120
247,Sacramenia,-3.96,41.494,100
206,Carabias,-3.673,41.442,100
355,Riaza,-3.477,41.278,296
144,Sepulveda,-3.746,41.297,120
247,Ayllon,-3.379,41.419,100
172,Armenteros,-5.447,40.593,100
172,Galinduste,-5.538,40.662,100
144,Navasfrias,-6.819,40.297,100
296,Fuenteguinaldo,-6.675,40.429,120
172,Nuevo Poblado,-6.82,40.605,172
120,Almendra,-6.34,41.229,100
144,Monleras,-6.225,41.187,100
172,Topas,-5.634,41.157,100
206,La Fuente de San Esteban,-6.256,40.801,206
120,Matilla de los Canos del Rio,-5.942,40.825,120
144,Urbanizacion El Encinar,-5.583,40.883,100
120,Mancera de Abajo,-5.198,40.84,100
206,Villavieja de Yeltes,-6.467,40.876,100
120,Belena,-5.627,40.75,100
172,Vecinos,-5.877,40.779,100
511,Alaraz,-5.287,40.749,120
120,Cabrillas,-6.177,40.74,100
144,Sancti-Spiritus,-6.399,40.705,100
172,Villar de Ciervo,-6.738,40.738,100
144,Sotoserrano,-6.032,40.435,100
144,Ledrada,-5.718,40.468,100
144,Lagunilla,-5.969,40.325,100
355,La Alberca,-6.108,40.489,172
247,Tamames,-6.106,40.657,144
511,Vitigudino,-6.433,41.01,296
120,La R.A.D.,-5.816,40.928,100
120,Monterrubio de Armuna,-5.642,41.027,100
144,Villoria,-5.373,40.994,100
144,Ragama,-5.127,40.998,100
206,Lumbrales,-6.717,40.936,172
144,La Fregeneda,-6.866,40.989,100
206,Barruecopardo,-6.664,41.073,100
296,Ledesma,-6.001,41.088,172
120,Juzbado,-5.86,41.078,100
120,Cantalapiedra,-5.182,41.125,100
172,Oseja de Sajambre,-5.037,43.138,144
120,Buron,-5.048,43.024,100
120,Puebla de Lillo,-5.274,43.009,100
172,Toreno,-6.512,42.697,100
120,Cembranos,-5.584,42.485,100
120,Mansilla de las Mulas,-5.416,42.499,100
120,Brazuelo,-6.156,42.497,100
120,Castrocontrigo,-6.189,42.184,120
172,Castrocalbon,-5.981,42.198,100
172,Villaquejida,-5.596,42.145,100
144,Veguellina de Orbigo,-5.884,42.437,100
144,Lucillo,-6.304,42.409,100
120,Moscas del Paramo,-5.804,42.251,100
206,Corporales,-6.456,42.31,120
247,La Bana,-6.671,42.268,172
120,Silvan,-6.668,42.332,100
144,Destriana,-6.094,42.327,100
120,Santa Maria del Paramo,-5.749,42.354,100
172,Valderas,-5.442,42.077,144
120,La Seca de Alba,-5.634,42.747,100
296,Fabero,-6.624,42.768,144
247,Murias de Paredes,-6.19,42.85,100
296,Lugueros,-5.411,42.973,100
296,Riano,-5.005,42.976,120
172,Cinera,-5.636,42.885,100
120,Villamanin,-5.656,42.939,100
120,Cremenes,-5.142,42.904,100
120,Sena de Luna,-5.952,42.929,120
426,La Robla,-5.628,42.804,172
206,Cistierna,-5.127,42.804,172
172,Bonar,-5.321,42.866,100
120,Carbajal de la Legua,-5.604,42.655,100
172,Villabuena,-6.736,42.635,100
296,Branuelas,-6.206,42.636,120
144,Gradefes,-5.225,42.625,120
206,Almanza,-5.036,42.658,120
247,Oencia,-6.969,42.547,100
206,Sahagun,-5.031,42.371,206
355,Herrera de Pisuerga,-4.332,42.595,144
247,Villada,-4.967,42.249,100
144,Fromista,-4.405,42.267,100
120,Mazariegos,-4.714,42.027,100
172,Torquemada,-4.32,42.036,120
120,San Salvador de Cantamuda,-4.496,42.965,100
247,Triollo,-4.68,42.924,100
172,Cervera de Pisuerga,-4.498,42.865,120
144,Villalba de Guardo,-4.823,42.722,100
206,Ayuela,-4.659,42.627,100
120,Alar del Rey,-4.309,42.659,100
613,Saldana,-4.734,42.522,247
172,Villamoronta,-4.699,42.403,100
144,Palenzuela,-4.128,42.096,100
355,Paredes de Nava,-4.691,42.153,144
206,Astudillo,-4.293,42.193,172
355,Carrion de los Condes,-4.603,42.338,172
120,Lantadilla,-4.279,42.341,100
247,Villadiego,-4.009,42.515,172
120,Cerezo de Rio Tiron,-3.134,42.492,100
172,Montorio,-3.776,42.585,144
172,Los Balbases,-4.068,42.214,100
144,Arcos,-3.753,42.264,100
206,Soncillo,-3.784,42.969,100
172,Arija,-3.945,42.992,120
120,La Puebla de Arganzon,-2.83,42.765,100
144,Manzanedo,-3.691,42.899,100
120,Poza de la Sal,-3.5,42.666,100
247,Sedano,-3.748,42.716,100
355,Ona,-3.411,42.735,172
144,Valderrama,-3.253,42.732,100
144,Pancorbo,-3.111,42.632,100
206,Sasamon,-4.042,42.417,100
144,Quintanilla Vivar,-3.69,42.415,100
296,Belorado,-3.192,42.418,100
120,La Charca,-2.924,42.625,100
144,Solarana,-3.657,41.974,100
144,Covarrubias,-3.518,42.06,120
511,Salas de los Infantes,-3.285,42.022,172
144,Quintanar de la Sierra,-3.035,41.984,100
120,Neila,-2.998,42.061,100
613,Lerma,-3.757,42.025,247
120,Nava de Roa,-3.963,41.613,100
120,Hontangas,-3.796,41.583,100
120,Torrecilla del Monte,-3.692,42.095,100
144,Cogollos,-3.699,42.199,100
206,Barbadillo de Herreros,-3.175,42.15,100
144,Castrojeriz,-4.136,42.288,100
144,Ibeas de Juarros,-3.535,42.331,100
120,Yudego,-4.003,42.364,100
120,Pradoluengo,-3.2,42.325,100
172,Roa,-3.93,41.697,120
355,Torresandino,-3.912,41.83,100
172,Gumiel de Izan,-3.687,41.771,100
144,Arandilla,-3.429,41.738,100
144,Huerta de Rey,-3.347,41.84,144
120,Armentia,-2.703,42.714,100
247,Montanejos,-0.523,40.068,100
144,El Toro,-0.748,39.981,100
172,Viver,-0.597,39.921,100
511,Morella,-0.101,40.619,144
120,Vallibona,0.047,40.603,100
120,Castell de Cabres,0.043,40.661,100
144,Artana,-0.256,39.891,100
247,Vistabella del Maestrazgo,-0.292,40.293,100
144,Lucena del Cid,-0.279,40.136,100
120,Ain,-0.34,39.9,100
206,Villafranca del Cid/Vilafranca,-0.255,40.429,206
120,Borriol,-0.07,40.041,100
120,Benasal,-0.141,40.379,100
144,Atzeneta del Maestrat,-0.17,40.217,100
120,Alquerias del Nino Perdido,-0.112,39.898,100
120,Sant Mateu,0.18,40.463,120
172,Lanaja,-0.328,41.771,100
206,Castejon de Monegros,-0.238,41.618,100
120,Robres,-0.46,41.867,100
120,Lalueza,-0.257,41.841,100
296,Sarinena,-0.156,41.794,206
172,Sena,-0.046,41.716,100
120,Santalecina,0.113,41.78,100
172,Zaidin,0.265,41.604,100
144,Belver de Cinca,0.179,41.693,100
120,Tamarite de Litera,0.421,41.868,100
144,Villanua,-0.529,42.679,100
172,Almudevar,-0.58,42.042,120
426,Granen,-0.367,41.941,120
206,Ayerbe,-0.687,42.275,144
120,Caldearenas,-0.5,42.398,100
172,Bailo,-0.811,42.51,100
144,Berdun,-0.858,42.603,100
247,Hecho,-0.749,42.739,144
120,Bolea,-0.552,42.26,100
296,Biescas,-0.318,42.629,100
120,Tramacastilla de Tena,-0.315,42.715,100
172,Broto,-0.121,42.604,120
511,Ainsa,0.14,42.416,206
426,Bielsa,0.218,42.634,144
144,Plan,0.338,42.581,100
247,Campo,0.394,42.408,100
172,Castejon de Sos,0.492,42.512,100
206,Benasque,0.523,42.604,172
355,Sallent de Gallego,-0.331,42.772,120
172,Fiscal,-0.121,42.496,100
172,Novales,-0.286,42.032,100
120,Peralta de Alcofea,-0.066,41.931,100
144,Laluenga,-0.048,42.005,100
172,Salas Altas,0.075,42.114,100
120,Azanuy,0.311,41.973,100
144,Camporrells,0.522,41.959,100
144,Naval,0.151,42.195,100
511,Graus,0.338,42.19,144
144,Perarrua,0.351,42.268,100
120,La Puebla de Roda,0.542,42.303,100
206,Aren,0.722,42.258,100
206,Benabarre,0.481,42.108,100
120,Sietamo,-0.281,42.125,100
144,Rincon de Soto,-1.85,42.235,100
296,Igea,-2.007,42.067,100
120,Cervera del Rio Alhama,-1.951,42.007,100
144,Enciso,-2.268,42.149,100
144,Muro de Aguas,-2.111,42.134,100
120,Ventrosa,-2.85,42.157,100
247,Villoslada de Cameros,-2.673,42.113,144
247,Ezcaray,-3.014,42.326,172
172,Banos de Rio Tobia,-2.76,42.333,100
120,Alberite,-2.439,42.406,100
120,Ribafrecha,-2.387,42.357,100
172,Los Arcos,-2.192,42.57,100
120,Allo,-2.02,42.567,100
144,Larraga,-1.849,42.558,100
120,Barasoain,-1.645,42.604,100
144,Bera/Vera de Bidasoa,-1.681,43.281,120
120,Legaria,-2.173,42.649,100
144,Mendigorria,-1.832,42.628,100
120,Ablitas,-1.639,41.974,100
120,Valtierra,-1.633,42.196,100
144,Cortes,-1.421,41.922,100
144,Ujue,-1.499,42.506,100
355,Sanguesa/Zangoza,-1.281,42.574,206
120,Monreal,-1.505,42.705,100
172,Lumbier,-1.306,42.653,100
144,Navascues,-1.114,42.718,100
296,Ochagavia/Otsagabia,-1.089,42.905,172
172,Roncal/Erronkari,-0.955,42.808,100
144,Ribaforada,-1.512,41.998,100
355,Carcastillo,-1.442,42.378,144
426,Elizondo,-1.519,43.145,247
172,Luzaide/Valcarlos,-1.301,43.092,100
144,Leitza,-1.914,43.082,100
144,Beruete,-1.825,43.027,100
206,Zubiri,-1.503,42.934,100
144,Arraitz-Orkin,-1.647,43.002,100
144,Aurizberri/Espinal,-1.368,42.979,100
247,Lodosa,-2.079,42.424,100
120,Lerin,-1.971,42.484,100
144,Pitillas,-1.62,42.422,100
144,Eulate,-2.207,42.776,100
120,Abarzuza,-2.02,42.727,100
172,Ciriza,-1.825,42.79,100
172,Irurtzun,-1.829,42.918,100
120,Can Ros,1.722,41.468,100
206,La Llacuna,1.533,41.471,100
120,Vilanova de Sau,2.384,41.947,100
120,Torrelles de Foix,1.571,41.388,100
120,Sant Quirze de Besora,2.22,42.101,100
172,Rupit,2.466,42.025,100
144,Gironella,1.882,42.034,100
172,Borreda,1.994,42.135,100
172,Calaf,1.514,41.732,120
120,Monistrol de Montserrat,1.849,41.609,100
172,Olost,2.096,41.984,100
296,Baga,1.863,42.253,120
144,Bergus,1.611,41.892,100
144,La Vall,1.65,41.759,100
120,Amer,2.602,42.01,100
206,Camprodon,2.366,42.313,120
120,Mieres,2.639,42.124,100
206,Albanya,2.721,42.305,100
355,La Jonquera,2.873,42.418,120
144,Llado,2.814,42.247,100
172,Sant Pere Pescador,3.082,42.19,100
120,Bordils,2.913,42.041,100
172,Llanca,3.151,42.36,120
144,Portbou,3.16,42.427,100
120,Alp,1.886,42.373,100
120,Meranges,1.787,42.446,100
120,Pinos,1.542,41.827,100
120,Aitona,0.458,41.496,100
120,Gimenells,0.39,41.651,100
144,Maials,0.507,41.364,120
144,La Granadella,0.666,41.355,100
206,Alfes,0.62,41.521,100
120,Torrefarrera,0.608,41.672,100
120,Almenar,0.568,41.797,100
355,El Pont de Suert,0.741,42.406,144
247,Les,0.711,42.812,100
882,Vielha,0.797,42.702,355
296,Ager,0.762,42,120
144,Guimera,1.183,41.564,100
144,Sant Guim de Freixenet,1.42,41.654,100
355,L'Albi,0.939,41.424,100
120,Sant Llorenc de Morunys,1.591,42.136,100
144,Isona,1.047,42.118,100
120,Sanauja,1.31,41.875,100
206,Oliana,1.314,42.068,120
172,Linyola,0.903,41.71,100
206,Artesa de Segre,1.048,41.894,100
144,Vilanova de Meia,1.021,41.994,100
144,La Pobla de Segur,0.968,42.249,100
172,Sort,1.13,42.412,120
172,Organya,1.329,42.212,100
206,Gosol,1.66,42.238,100
120,Martinet,1.696,42.36,100
172,Taull,0.849,42.519,100
296,Esterri d'aneu,1.123,42.626,172
144,Ribera de Cardos,1.227,42.563,100
120,Baqueira,0.933,42.701,100
120,Artziniega,-3.132,43.121,100
247,Laguardia/Biasteri,-2.583,42.554,100
355,Espejo,-3.046,42.81,100
144,Fontecha,-3.026,42.745,100
247,Murgia,-2.818,42.957,100
172,Urbina,-2.637,42.944,100
120,Penacerrada/Urizaharra,-2.712,42.643,100
120,Egileta,-2.534,42.81,100
247,Maeztu/Maestu,-2.446,42.739,100
144,Araia,-2.314,42.89,100
206,Deba,-2.353,43.294,100
120,Zegama,-2.29,42.976,100
144,Okillegi,-1.846,43.224,100
172,Lombrana,-4.413,43.101,100
144,La Cavada,-3.707,43.352,100
172,Ramales de la Victoria,-3.464,43.257,100
172,Selaya,-3.805,43.214,120
120,Bielva,-4.462,43.315,100
120,Vernejo,-4.223,43.302,100
120,San Vicente de la Barquera,-4.4,43.383,120
172,Ajo,-3.6,43.488,100
144,Mataporquera,-4.163,42.875,100
144,Polientes,-3.941,42.806,120
426,Potes,-4.621,43.155,172
355,Renedo,-4.303,43.204,100
120,Arenas de Iguna,-4.049,43.187,100
144,Proaza,-6.015,43.252,100
144,Tuna,-6.37,43.274,100
144,Villayon,-6.704,43.448,100
120,Zurea,-5.848,43.091,100
172,Cabanaquinta,-5.623,43.161,120
144,Felechosa,-5.507,43.104,100
206,Samartin,-6.095,43.161,120
120,Trubia,-5.979,43.341,100
144,Navelgas,-6.543,43.404,100
144,Lugo de Llanera,-5.817,43.442,100
120,El Monte,-5.824,43.636,100
120,Argueru,-5.471,43.541,100
144,Cudillero,-6.147,43.559,100
144,Vilanova,-6.986,43.311,100
144,Tineo,-6.407,43.334,100
144,Belmonte,-6.217,43.283,100
144,A Veiga/Vegadeo,-7.049,43.465,100
144,Boal,-6.818,43.429,100
426,Sames,-5.128,43.27,100
144,Sotres,-4.746,43.232,100
120,Grandas de Salime,-6.874,43.218,120
206,Las Arenas,-4.816,43.303,100
120,Argame,-5.884,43.3,100
120,Panes,-4.583,43.324,100
120,San Antolin,-6.871,43.039,100
247,Xedre,-6.605,43.015,100
144,Zarreu,-6.491,42.945,100
144,Beleno,-5.162,43.19,100
120,El Campu,-5.344,43.183,100
144,Carral,-8.355,43.228,100
247,Malpica,-8.809,43.321,100
172,Caion,-8.605,43.317,100
172,Pontedeume,-8.169,43.407,100
120,Ortigueira,-7.851,43.685,100
172,Carino,-7.872,43.741,120
355,Camarinas,-9.182,43.134,144
172,Baio,-8.96,43.148,120
120,Teixeiro,-8.036,43.14,100
172,A Silva,-8.564,43.156,100
172,Santa Comba,-8.807,43.033,100
172,Muros,-9.057,42.774,100
144,Negreira,-8.736,42.911,100
144,Arzua,-8.16,42.929,100
144,Sigueiro,-8.443,42.968,100
172,A Igrexa,-7.942,43.536,100
144,Ponte Aranga,-8.015,43.234,100
144,A Gandara,-8.132,43.002,100
120,O Pazo de Irixoa,-8.058,43.285,100
144,A Igrexa,-8.272,43.113,100
120,Aian,-8.37,43.282,100
120,A Brea,-8.59,43.027,100
120,Boana de Arriba,-8.79,43.101,100
120,Zas,-8.913,43.099,100
120,Sinde,-8.939,43.215,100
120,Moimenta,-8.887,42.716,100
120,Lires,-9.243,42.998,100
120,Suxo,-9.122,43.08,100
247,A Picota,-8.99,42.937,120
172,Tarrio,-9.028,42.672,100
206,Mondonedo,-7.359,43.43,100
206,Friol,-7.791,43.029,120
172,Taboada,-7.763,42.715,100
120,O Oural,-7.447,42.718,100
172,Quiroga,-7.271,42.475,144
296,Monterroso,-7.833,42.793,120
120,O Corgo,-7.431,42.944,100
120,Portomarin,-7.615,42.808,100
172,A Proba,-7.006,42.964,100
172,Xermade,-7.812,43.356,100
144,Abadin,-7.487,43.362,100
120,Baralla,-7.248,42.894,100
247,Becerrea,-7.162,42.854,172
120,As Nogais,-7.108,42.809,100
613,A Fonsagrada,-7.067,43.125,206
511,A Pontenova,-7.191,43.349,100
144,Ourol,-7.641,43.562,100
120,A Seara,-7.414,43.529,100
120,O Castro,-7.481,43.127,100
172,Castroverde,-7.326,43.029,100
247,Meira,-7.293,43.213,120
206,Rabade,-7.62,43.123,100
144,A Feira do Monte,-7.558,43.237,100
206,Guitiriz,-7.894,43.181,144
144,Pedrafita do Cebreiro,-7.019,42.727,120
144,Guntin de Pallares,-7.693,42.887,100
206,Boveda,-7.483,42.624,100
120,A Cruz do Incio,-7.363,42.656,100
120,Toiriz,-7.596,42.567,100
144,Folgoso do Courel,-7.195,42.588,100
120,Silleda,-8.245,42.699,100
172,Vila de Cruces,-8.17,42.794,100
120,Agolada,-8.02,42.763,100
144,Rodeiro,-7.95,42.651,100
144,Forcarei,-8.351,42.589,100
120,A Caniza,-8.274,42.213,100
172,Santo Antonino,-8.636,42.524,100
172,Arnuide,-7.606,42.197,100
296,Allariz,-7.802,42.19,120
120,Celanova,-7.955,42.153,100
426,Viana do Bolo,-7.11,42.181,172
144,Luintra,-7.726,42.411,100
144,Maceda,-7.65,42.27,100
120,A Veiga,-7.024,42.25,100
120,Esgos,-7.694,42.325,100
172,Outomuro,-8.02,42.224,100
206,Ribadavia,-8.143,42.288,100
120,O Castro de Caldelas,-7.419,42.374,100
144,A Pobra de Trives,-7.258,42.342,100
144,San Xusto,-8.251,42.375,100
206,Casaio,-6.805,42.34,100
206,Fondevila,-8.085,41.905,100
120,Bouses,-7.539,41.855,100
120,A Xironda,-7.637,41.9,120
247,Feces de Abaixo,-7.42,41.815,100
247,A Gudina,-7.14,42.061,100
120,Trasmiras,-7.619,42.026,100
247,Bande,-7.974,42.032,100
120,Laza,-7.46,42.06,100
144,A Mezquita,-7.046,42.01,100
120,Nocedo do Val,-7.444,42.004,100
120,Forxa,-7.847,42.019,100
172,Beariz,-8.27,42.466,100
120,Puga,-7.994,42.319,100
120,Montederramo,-7.502,42.275,100
120,Guntumil,-7.922,41.911,100
172,Rios,-7.281,41.975,100
144,Sabariz,-7.841,42.108,100
120,Fornells,4.131,40.057,100
120,Es Grau,4.269,39.95,100
144,Punta Prima,4.279,39.815,100
120,Maria de la Salut,3.075,39.665,100
247,Ses Salines,3.049,39.339,100
120,Portocolom,3.252,39.418,100
144,Alaro,2.791,39.705,100
120,Algaida,2.893,39.557,100
296,Sa Torre,2.8,39.438,100
144,Cala Pi,2.857,39.365,100
172,Esporles,2.579,39.666,100
144,Escorca,2.848,39.827,100
882,Caseriu de Cabrera,2.938,39.146,144
120,Can Rafel,1.27,38.891,100
144,Can Mates,1.434,39.05,100
426,Platja de Migjorn,1.467,38.685,172
172,Taibique,-17.979,27.705,100
1522,Valverde,-17.914,27.809,613
120,Alajero,-17.238,28.063,100
296,Vallehermoso,-17.265,28.18,100
120,La Restinga,-17.98,27.641,100
144,Retamar,-17.901,28.658,100
144,El Pueblo,-17.778,28.605,100
296,Los Canarios,-17.843,28.492,120
144,El Pueblo,-17.954,28.711,100
247,Los Sauces,-17.773,28.803,100
120,La Mancha,-16.695,28.378,100
172,Tamaimo,-16.818,28.268,100
144,Fasnia,-16.439,28.236,100
172,Las Barreras,-17.999,28.765,100
426,Mogan,-15.723,27.883,100
247,Tuineje,-14.047,28.326,100
172,Antigua,-14.011,28.42,100
172,Teguise,-13.559,29.06,100
120,El Matorral,-13.871,28.438,100
144,Tefia,-13.99,28.528,100
144,La Santa,-13.667,29.107,100
120,El Cotillo,-14.009,28.684,100
120,Charco del Palo,-13.451,29.084,100
206,Villaverde,-13.901,28.634,100
120,Uga,-13.744,28.951,100
144,Punta Mujeres,-13.447,29.145,100
511,Caleta de Sebo,-13.502,29.231,100
144,Fuente de Cantos,-6.304,38.248,144
247,Fregenal de la Sierra,-6.652,38.167,144
120,Quesada,-3.066,37.845,100
144,Alba de Tormes,-5.512,40.826,120
144,La Sectores Cuerda y Lomas de Cabo Roig,-0.751,37.921,100
144,Alguena,-1.001,38.338,100
120,Beneixama,-0.765,38.701,100
172,Xalo,-0.01,38.74,100
120,Teulada,0.104,38.729,100
120,Daimes,-0.679,38.191,100
120,El Sabirar,-0.549,38.469,100
120,Vives (Los),-0.969,38.219,100
172,Laujar de Andarax,-2.892,36.994,100
355,Finana,-2.839,37.17,172
247,Topares,-2.228,37.861,120
120,Canadas de Canepla,-2.283,37.796,100
144,El Hijate,-2.593,37.396,100
172,Bacares,-2.45,37.26,100
296,Tijola,-2.436,37.345,172
247,Oria,-2.291,37.485,100
172,Chirivel,-2.268,37.597,100
206,Albanchez,-2.179,37.287,100
172,Uleila del Campo,-2.204,37.185,100
144,Taberno,-2.076,37.469,100
144,Maria,-2.164,37.711,100
120,Bedar,-1.98,37.191,100
120,Villaricos,-1.77,37.25,100
144,Los Lobos,-1.764,37.309,100
144,Urcal,-1.919,37.467,100
144,La Envia,-2.616,36.834,100
206,Alhama de Almeria,-2.567,36.957,100
172,Gergal,-2.541,37.118,100
144,Tabernas,-2.387,37.053,120
120,Cabo de Gata,-2.241,36.782,100
296,La Isleta,-2.052,36.815,100
247,Sorbas,-2.128,37.101,120
120,Ventanicas-El Cantal,-1.843,37.113,100
120,Saliente Alto,-2.162,37.517,100
144,El Corralete,-2.194,36.726,100
120,Casablanca,-2.108,38.002,100
120,El Coronil,-5.634,37.077,100
120,El Madrono,-6.51,37.645,100
144,El Garrobo,-6.171,37.625,100
247,El Ronquillo,-6.175,37.727,120
120,Almaden de la Plata,-6.081,37.873,100
172,Castilblanco de los Arroyos,-5.987,37.675,100
144,Alanis,-5.713,38.038,100
172,Cazalla de la Sierra,-5.758,37.933,100
120,Las Navas de la Concepcion,-5.464,37.932,100
172,La Lantejuela,-5.223,37.354,100
144,El Rubio,-4.986,37.356,100
144,Canada Rosal,-5.206,37.597,100
120,Cerro Perea,-4.983,37.59,100
172,Isla Redonda-La Acenuela,-4.881,37.449,100
296,Guadalcanal,-5.817,38.092,120
172,Casa del Puerto,-6.226,37.223,100
120,Cortijo de Torrelengua,-5.698,37.294,100
120,Cortijo del Pinganillo,-5.785,37.125,100
882,Urda,-3.716,39.41,120
206,Escalona,-4.404,40.168,100
144,Las Ventas de Retamosa,-4.119,40.156,100
120,Villaseca de la Sagra,-3.881,39.961,100
120,Almonacid de Toledo,-3.853,39.753,100
296,Turleque,-3.611,39.602,100
172,Lillo,-3.305,39.722,100
206,Quero,-3.247,39.511,100
355,Recas,-3.989,40.053,100
144,Villanueva de Alcardete,-3.014,39.672,100
120,Nambroca,-3.945,39.795,100
120,Polan,-4.167,39.788,100
144,Oropesa,-5.173,39.917,120
206,Navalcan,-5.092,40.07,100
120,Castillo de Bayuela,-4.684,40.1,100
206,Navamorcuende,-4.785,40.157,100
144,Velada,-4.972,39.976,100
172,La Guardia,-3.472,39.788,100
144,Villarrubia de Santiago,-3.368,39.984,100
247,Villatobas,-3.322,39.901,100
206,Alcaudete de la Jara,-4.87,39.788,100
120,Calera y Chozas,-4.979,39.883,100
144,La Nava de Ricomalillo,-4.99,39.651,100
247,Los Navalmorales,-4.642,39.725,100
144,Malpica de Tajo,-4.549,39.896,120
355,Navahermosa,-4.471,39.634,172
172,Puerto de San Vicente,-5.113,39.522,100
172,San Pablo de los Montes,-4.331,39.54,100
120,Los Navalucillos,-4.64,39.666,100
172,Vigo,-6.691,42.134,100
120,Ayoo de Vidriales,-6.064,42.13,100
120,Porto,-6.897,42.167,100
120,Pias,-6.993,42.093,100
120,Villafafila,-5.614,41.846,120
247,Villalpando,-5.412,41.865,144
144,Villardeciervos,-6.283,41.941,120
172,Ferreras de Abajo,-6.077,41.897,100
296,Tabara,-5.958,41.824,206
144,Santibanez de Vidriales,-6.012,42.073,100
206,Hermisende,-6.893,41.969,100
426,Puebla de Sanabria,-6.632,42.054,247
172,Mombuey,-6.33,42.023,100
144,Camarzana de Tera,-6.028,41.995,100
206,Villanueva del Campo,-5.405,41.985,100
206,Nuez,-6.515,41.774,100
144,Castronuevo,-5.542,41.72,100
296,Alcanices,-6.347,41.699,296
206,Pino del Oro,-6.119,41.577,100
120,Morales del Vino,-5.731,41.447,100
296,Montamarta,-5.805,41.648,100
120,Coreses,-5.622,41.548,100
120,Benegiles,-5.634,41.628,100
120,Muelas del Pan,-5.969,41.521,120
172,Almeida de Sayago,-6.073,41.266,100
172,Bermillo de Sayago,-6.112,41.365,172
296,Corrales,-5.724,41.359,100
511,Fermoselle,-6.394,41.316,247
355,Fuentesauco,-5.495,41.231,206
172,Becilla de Valderaduey,-5.217,42.099,120
247,Medina de Rioseco,-5.041,41.883,172
120,Castromonte,-5.038,41.773,100
206,San Pedro de Latarce,-5.325,41.736,120
172,Torrelobaton,-5.024,41.649,100
296,Amusquillo,-4.301,41.748,100
144,Campaspero,-4.194,41.492,100
144,Serrada,-4.861,41.457,100
172,Mojados,-4.665,41.429,100
120,Entrepinos,-4.839,41.571,100
206,Golf de Aldeamayor,-4.674,41.508,100
144,Villabanez,-4.522,41.631,100
172,Castronuno,-5.265,41.388,100
120,Puras,-4.649,41.183,100
206,Alaejos,-5.216,41.307,172
206,Carpio,-5.108,41.214,100
120,Ataquines,-4.802,41.182,100
120,Olmedo,-4.685,41.287,100
120,Pinel de Abajo,-4.146,41.675,100
144,Villar del Rio,-2.349,42.074,100
172,Langa de Duero,-3.399,41.61,144
120,Almazul,-2.145,41.574,100
247,Gomara,-2.224,41.624,144
247,Tardelcuende,-2.643,41.594,100
247,Burgo de Osma,-3.065,41.587,247
172,Covaleda,-2.882,41.935,120
172,El Royo,-2.644,41.908,144
144,Agreda,-1.922,41.854,100
120,Mino de San Esteban,-3.345,41.536,100
144,Berlanga de Duero,-2.861,41.466,120
172,Nolay,-2.35,41.527,100
355,Deza,-2.021,41.464,100
120,Seron de Nagima,-2.2,41.496,100
144,Montejo de Tiermes,-3.198,41.368,100
206,Baraona,-2.655,41.295,120
296,Taroda,-2.432,41.348,120
120,Monteagudo de las Vicarias,-2.168,41.365,100
296,Arcos de Jalon,-2.275,41.215,247
120,Estacion,-2.422,41.165,100
172,Candilichera,-2.3,41.704,100
144,Fuentearmegil,-3.181,41.714,100
296,San Leonardo de Yague,-3.062,41.829,206
120,Valdemaluque,-3.045,41.674,100
172,Muriel de la Fuente,-2.86,41.725,100
120,Cabrejas del Pinar,-2.849,41.796,120
172,Almajano,-2.337,41.851,100
247,Olvega,-1.983,41.779,172
613,Borobia,-1.895,41.665,100
120,Noviercas,-2.034,41.712,100
172,Bugarra,-0.774,39.609,100
206,Camporrobles,-1.399,39.647,120
247,Cofrentes,-1.062,39.23,144
120,El Oro,-0.918,39.299,100
511,Chelva,-0.996,39.748,100
172,Chera,-0.972,39.593,100
206,Dos Aguas,-0.799,39.289,100
172,Jarafuel,-1.072,39.14,100
120,Millares,-0.773,39.238,100
144,Venta del Moro,-1.356,39.484,100
172,Villar del Arzobispo,-0.826,39.733,144
120,Los Isidros,-1.291,39.42,100
172,Los Pedrones,-1.081,39.335,100
120,La Portera,-1.101,39.402,100
144,Siete Aguas,-0.916,39.474,100
247,Titaguas,-1.081,39.866,100
172,Naquera,-0.425,39.656,100
120,Olocau,-0.531,39.7,100
120,Gatova,-0.52,39.77,100
120,Puebla de San Miguel,-1.144,40.045,100
296,Ademuz,-1.285,40.062,120
120,Manuel,-0.492,39.051,100
120,Barx,-0.3,39.014,100
120,Castello de Rugat,-0.381,38.874,100
120,Godelleta,-0.686,39.423,100
144,Mogente/Moixent,-0.751,38.875,100
247,Navarres,-0.694,39.101,100
120,Real,-0.609,39.335,100
206,Bello,-1.497,40.923,120
247,Monreal del Campo,-1.355,40.787,100
144,Orihuela del Tremedal,-1.649,40.549,144
144,Mosqueruela,-0.447,40.362,120
120,Alobras,-1.388,40.18,100
247,Bezas,-1.324,40.331,100
144,Riodeva,-1.145,40.118,100
172,Manzanera,-0.827,40.06,100
144,Villalba Baja,-1.077,40.422,100
172,Alfambra,-1.032,40.545,100
144,El Pobo,-0.861,40.508,100
120,Alba,-1.346,40.618,100
206,Villafranca del Campo,-1.345,40.694,100
120,Perales del Alfambra,-1.001,40.634,100
120,Pancrudo,-1.027,40.762,100
120,Barrachina,-1.138,40.896,100
120,Cuevas de Almuden,-0.828,40.713,100
296,Utrillas,-0.847,40.812,247
247,Cella,-1.284,40.451,100
206,Sarrion,-0.814,40.142,100
511,Santa Eulalia,-1.313,40.568,100
247,Cedrillas,-0.849,40.433,144
882,Calamocha,-1.298,40.916,355
120,Villastar,-1.151,40.281,100
144,Rubielos de Mora,-0.653,40.191,100
120,Alcala de la Selva,-0.717,40.371,100
296,Aliaga,-0.702,40.673,120
144,Arino,-0.591,41.03,100
120,Olba,-0.624,40.133,100
172,Albalate del Arzobispo,-0.512,41.121,120
247,Mora de Rubielos,-0.752,40.25,206
172,Penarroya de Tastavins,0.041,40.757,100
120,Valmuel,-0.214,41.127,100
144,Calaceite,0.189,41.016,100
120,Samper de Calanda,-0.385,41.189,100
206,Mas de las Matas,-0.242,40.834,100
206,Valderrobres,0.153,40.872,172
172,Calanda,-0.23,40.941,100
120,Alcorisa,-0.382,40.893,100
206,Cantavieja,-0.404,40.525,100
120,Mirambel,-0.342,40.587,100
172,La Hoz de la Vieja,-0.843,40.923,100
206,Bea,-1.146,41.036,100
172,Blesa,-0.885,41.052,100
120,Vinaceite,-0.582,41.267,100
144,Calcena,-1.717,41.655,100
426,Epila,-1.279,41.599,100
120,Urrea de Jalon,-1.235,41.667,100
144,Lituenigo,-1.761,41.835,100
172,Sabinan,-1.566,41.443,100
206,Illueca,-1.626,41.538,144
247,Maella,0.139,41.123,100
172,Acered,-1.604,41.171,100
172,Used,-1.559,41.054,100
247,Ibdes,-1.832,41.217,100
172,Ateca,-1.792,41.33,100
144,Maluenda,-1.616,41.289,100
144,Moros,-1.827,41.398,100
426,Daroca,-1.411,41.114,172
144,Badules,-1.252,41.139,100
172,Codos,-1.373,41.293,100
296,Carinena,-1.224,41.338,120
296,Moyuela,-0.922,41.128,100
120,Paniza,-1.211,41.284,100
120,Alfamen,-1.242,41.438,100
144,Villanueva de Huerva,-1.035,41.353,100
144,La Muela,-1.115,41.581,100
144,Jaulin,-0.992,41.452,100
172,Remolinos,-1.177,41.839,100
120,Azuara,-0.871,41.258,100
120,Lecera,-0.709,41.205,100
247,Sastago,-0.348,41.322,100
144,El Burgo de Ebro,-0.742,41.572,100
355,Fuentes de Ebro,-0.628,41.511,144
206,Villanueva de Gallego,-0.825,41.768,100
206,Quinto,-0.497,41.424,100
120,Monegrillo,-0.415,41.638,100
120,La Almolda,-0.21,41.553,100
613,Belchite,-0.751,41.304,144
144,Nonaspe,0.247,41.209,100
296,Mequinenza,0.302,41.372,100
247,Bujaraloz,-0.151,41.498,144
144,Sancho Abarca,-1.27,41.985,100
172,Pinsoro,-1.337,42.196,100
206,Ores,-1,42.279,100
120,Bardenas,-1.199,42.178,100
247,Sadaba,-1.27,42.283,100
144,Uncastillo,-1.131,42.36,100
172,Sos del Rey Catolico,-1.215,42.494,100
144,Sigues,-1.011,42.63,100
296,Biel,-0.935,42.387,100
144,Ontinar de Salz,-0.756,41.935,100
206,Sierra de Luna,-0.908,42.047,100
120,Piedratajada,-0.805,42.12,100
144,Murillo de Gallego,-0.751,42.336,100
120,Tabuenca,-1.542,41.695,100
172,Fuendejalon,-1.471,41.76,100
206,Borja,-1.534,41.834,100
144,Horta de Sant Joan,0.316,40.954,100
206,Tivenys,0.513,40.907,100
172,Gandesa,0.439,41.054,120
120,Tivissa,0.734,41.041,100
120,Falset,0.821,41.145,120
296,Flix,0.55,41.231,120
144,Alforja,0.977,41.212,100
172,Prades,0.99,41.31,100
120,Vila-Rodona,1.358,41.31,100
120,Santa Oliva,1.552,41.253,100
120,Sarral,1.247,41.444,100
120,Mas del Plata,1.327,41.384,100
144,Mas del Cantet,0.667,40.928,100
120,Urduna/Orduna,-3.007,42.993,100
120,Munitibar,-2.591,43.263,100
144,Elexalde,-2.932,43.413,100
120,Ea,-2.583,43.38,100
120,Arraibi,-2.776,43.203,100
144,Plaza,-2.749,43.098,100
172,Otxandio,-2.654,43.043,100
120,Arbucies,2.516,41.815,100
120,Cabeza del Buey,-5.219,38.721,120
296,Campanario,-5.616,38.862,120
172,Mazagon,-6.809,37.132,100
144,Costa Calma,-14.221,28.172,120
247,Cigales,-4.698,41.758,100
355,Penafiel,-4.12,41.598,144
120,Bosque del Henares,-3.158,40.454,100
172,El Centenillo,-3.728,38.338,100
120,Benizar,-1.984,38.271,100
100000,Madrid,-3.7,40.406,100000
5448,Barcelona,2.149,41.395,3784
1522,Valencia,-0.4,39.476,1522
5448,Bilbao,-2.97,43.294,2191
5448,Alicante/Alacant,-0.47,38.374,882
882,Granada,-3.611,37.163,613
1826,Palma de Mallorca,2.649,39.578,1522
247,Sabadell,2.123,41.523,100
19514,Las Palmas,-15.442,28.104,7844
1269,Pamplona/Irua,-1.647,42.814,735
1522,Valladolid,-4.733,41.641,1058
1269,Santa Cruz de Tenerife,-16.294,28.46,511
1269,Crdoba,-4.78,37.886,735
3784,A Corua,-8.395,43.346,1826
735,Murcia,-1.133,37.994,426
2191,Vigo,-8.72,42.227,882
882,San Sebastin/Donostia,-1.955,43.313,426
296,Oviedo,-5.847,43.366,120
355,Alcal de Henares,-3.368,40.488,206
735,Jerez de la Frontera,-6.125,36.689,511
172,Elche/Elx,-0.691,38.269,144
2629,Almera,-2.446,36.851,735
613,Santander,-3.825,43.46,511
1058,Burgos,-3.691,42.347,613
206,Fuenlabrada,-3.798,40.286,100
2629,Len,-5.577,42.604,613
735,Logroo,-2.444,42.461,355
1058,Castelln de la Plana/Castell de la Plana,-0.046,39.985,355
1058,Salamanca,-5.665,40.962,613
1522,Cartagena,-0.992,37.624,296
1058,Huelva,-6.941,37.266,613
172,Majadahonda,-3.883,40.499,100
3154,Badajoz,-6.974,38.878,1269
144,Coslada,-3.546,40.424,100
296,Cdiz,-6.283,36.519,120
735,Tarragona,1.234,41.121,426
206,Torremolinos,-4.524,36.606,100
1058,Girona,2.811,41.977,355
882,Jan,-3.794,37.776,511
1058,Ourense,-7.867,42.336,511
144,San Fernando,-6.201,36.46,100
172,Ferrol,-8.212,43.49,120
206,Avils,-5.916,43.551,144
206,Telde,-15.399,28.004,100
355,Elda,-0.787,38.477,172
735,Manresa,1.822,41.731,172
511,Ceuta,-5.323,35.887,206
613,Talavera de la Reina,-4.828,39.962,613
426,Torrevieja,-0.672,37.996,206
613,Palencia,-4.528,42.009,247
1058,Gandia,-0.173,38.978,426
247,Benidorm,-0.144,38.535,206
426,Pontevedra,-8.645,42.435,144
296,Vilanova i la Geltr,1.729,41.224,247
144,Puerto de la Cruz,-16.561,28.395,144
144,Santa Luca de Tirajana,-15.446,27.849,100
613,Lorca,-1.694,37.676,426
144,"Puerto de Santa Mara, El",-6.23,36.603,100
247,Sanlcar de Barrameda,-6.348,36.778,120
296,Igualada,1.619,41.581,144
511,Alcoi/Alcoy,-0.476,38.697,206
735,Ponferrada,-6.603,42.552,511
613,Linares,-3.633,38.098,247
511,Collado Villalba,-3.999,40.633,120
1058,Eivissa,1.427,38.905,882
1522,Arrecife,-13.553,28.971,1522
172,Torrelavega,-4.051,43.344,144
247,Estepona,-5.15,36.425,172
511,Puertollano,-4.105,38.689,206
144,Pampanico,-2.812,36.775,120
206,Alzira-El Respirall,-0.431,39.153,172
247,Pineda de Mar-Poblenou,2.678,41.621,144
296,Eibar-Ipurua,-2.482,43.185,247
613,cija,-5.081,37.542,247
613,Antequera,-4.561,37.02,247
206,Andjar,-4.048,38.041,206
296,Ontinyent,-0.606,38.823,120
247,Miranda de Ebro,-2.941,42.687,172
120,Abadio,-2.623,43.169,100
613,Cieza,-1.42,38.236,206
172,Orihuela-San Antn,-0.943,38.087,120
247,beda,-3.37,38.012,144
511,Yecla,-1.113,38.611,206
120,Pallej,2.008,41.417,100
296,Ronda,-5.162,36.746,206
355,Dnia-La Pedrera,0.102,38.839,172
613,Valdepeas,-3.383,38.764,296
511,Tortosa-els Dolors,0.517,40.815,426
511,Olot,2.485,42.181,172
355,Xtiva,-0.521,38.989,120
511,Playa de las Amricas,-16.716,28.054,206
355,Villarrobledo,-2.602,39.268,296
172,Vilagarca de Arousa,-8.767,42.593,144
144,Novelda,-0.764,38.384,100
355,Lepe,-7.203,37.255,172
735,Benicarl,0.427,40.417,296
355,San Pedro del Pinatar-Lo Pagn,-0.785,37.825,120
120,Oliva,-0.118,38.921,100
144,Arcos de la Frontera,-5.808,36.753,144
296,Ciutadella de Menorca,3.838,40,247
355,Palafrugell-Xalet Sant Jordi,3.162,41.915,206
296,Ordizia,-2.188,43.05,144
172,Sant Josep de sa Talaia,1.291,38.972,100
206,Santa Mara de Gua de Gran Canaria-San Juan,-15.642,28.141,120
120,Ten Bel,-16.652,28.011,100
296,Banyoles,2.77,42.114,120
426,Barbate,-5.921,36.191,247
296,Priego de Crdoba,-4.2,37.439,172
296,Marchena,-5.418,37.329,144
247,Carballo,-8.691,43.217,206
355,Almussafes,-0.416,39.29,100
144,Almucar,-3.688,36.734,120
144,l'Eliana-El Carme,-0.527,39.562,100
1058,Benavente,-5.677,42.003,355
355,Llria,-0.595,39.628,100
882,Pozoblanco,-4.846,38.377,426
144,Leaburu,-2.07,43.131,100
144,Alcal la Real,-3.925,37.461,144
172,Calp,0.057,38.644,144
247,Montijo,-6.619,38.902,172
613,Requena,-1.104,39.489,355
247,Bermeo,-2.726,43.419,172
120,Guernica,-2.678,43.312,100
120,Altea,-0.047,38.603,100
355,Loja,-4.148,37.169,206
296,Valga,-8.658,42.722,100
2629,Santa Cruz de la Palma-Roque de Abajo,-17.767,28.683,735
172,Pola de Siero,-5.663,43.391,100
172,Vandells i l'Hospitalet de l'Infant,0.93,41.006,120
206,Ponteareas,-8.506,42.174,120
206,Villamartn,-5.643,36.859,120
120,Moaa,-8.734,42.283,100
1269,"Seu d'Urgell, La",1.461,42.358,247
120,s'Arenal,2.756,39.509,100
144,"Barco de Valdeorras, O",-6.979,42.415,144
144,Alcdia,3.127,39.842,100
172,Pearroya-Pueblonuevo,-5.267,38.304,172
613,Tafalla,-1.673,42.531,206
247,Madridejos,-3.531,39.47,172
735,Viveiro,-7.598,43.668,355
144,Noin (Valle de Elorz),-1.635,42.746,100
511,Miajadas,-5.909,39.15,172
206,Fernn-Nez,-4.725,37.67,100
613,A Guarda,-8.857,41.911,247
172,Baiona-Sabars,-8.833,42.115,100
172,Calasparra,-1.698,38.231,120
120,Pego,-0.115,38.841,100
120,"Estrada, A",-8.493,42.689,100
355,Caspe,-0.04,41.235,144
172,"Casar, El",-3.439,40.704,144
172,"Grove, O",-8.86,42.492,100
172,Zalla,-3.119,43.21,100
144,Cogollos de la Vega-Alfacar,-3.566,37.252,100
355,Montoro,-4.381,38.022,206
23416,Zakynthos,20.898,37.782,11294
172,Villanueva de Crdoba,-4.627,38.321,120
120,Herencia,-3.355,39.368,100
120,Sax,-0.82,38.537,100
296,Njar,-2.135,36.938,206
144,Rianxo,-8.806,42.664,100
426,Trujillo,-5.877,39.466,247
613,Pjara,-14.348,28.051,426
172,Sller,2.715,39.769,120
296,lora,-4.702,36.826,144
247,Noia,-8.883,42.782,100
247,Campillos,-4.863,37.049,172
206,Playa Blanca,-13.829,28.869,100
120,Cheste,-0.684,39.495,100
355,Mra d'Ebre,0.642,41.096,172
120,"Puebla de Montalbn, La",-4.359,39.865,100
144,Bembibre,-6.417,42.617,120
296,Andorra,-0.446,40.979,206
144,"Carlota, La",-4.933,37.672,120
426,Cazorla,-3.001,37.914,172
120,Tas,-13.66,28.923,100
296,Xinzo de Limia,-7.724,42.063,144
144,Quintela,-8.609,42.284,100
355,Drcal,-3.569,36.987,144
144,Castro del Ro,-4.479,37.692,100
247,Puigcerd,1.93,42.433,206
120,Barrio Juan XXIII,0.064,40.053,100
144,Carreo,-5.768,43.59,100
1269,Huscar,-2.537,37.813,247
296,Cangas del Narcea,-6.547,43.178,296
120,Alaior,4.14,39.933,100
144,"Aldea de San Nicols, La",-15.786,27.983,144
120,Ames,-8.648,42.858,100
355,Hinojosa del Duque,-5.144,38.5,144
144,Posadas,-5.111,37.802,120
144,Catadau,-0.571,39.278,100
144,Porcuna,-4.184,37.871,120
144,Villaviciosa,-5.434,43.481,120
172,Pearanda de Bracamonte,-5.202,40.902,172
247,Art,3.347,39.692,100
735,Guardo,-4.848,42.789,426
355,Vilalba,-7.679,43.297,144
206,Tariego de Cerrato,-4.487,41.915,100
355,Valds,-6.525,43.54,247
206,scar,-4.529,41.361,144
172,Tarazona de la Mancha,-1.912,39.265,100
1269,Cee,-9.187,42.952,172
144,Los Corrales,-4.971,37.105,100
206,Talayuela,-5.606,39.984,100
1058,Castuera,-5.544,38.725,206
511,Constantina,-5.617,37.872,172
144,Capdepera,3.464,39.712,100
172,"Ybenes, Los",-3.87,39.579,100
355,Navs,1.878,41.901,144
355,Motilla del Palancar,-1.907,39.559,172
355,Aguilar de Campoo,-4.265,42.79,144
144,Sria,1.752,41.835,100
511,Corral de Almaguer,-3.165,39.76,120
613,Almadn,-4.831,38.775,247
355,Huelma,-3.459,37.649,120
120,Salceda de Caselas,-8.551,42.1,100
120,Pulp,-1.748,37.402,100
355,Cedeira,-8.051,43.657,120
355,Villablino,-6.321,42.94,206
120,Prado del Rey,-5.558,36.786,100
120,Roldn,-1.007,37.797,120
120,Gua de Isora,-16.824,28.204,120
172,Foz,-7.26,43.575,100
172,Nerva,-6.548,37.694,144
511,Llanes,-4.746,43.418,355
172,Sant Lloren des Cardassar-sa Coma,3.385,39.604,100
511,Almazn,-2.529,41.488,206
426,Pravia,-6.114,43.49,100
120,Alcolea,-4.668,37.937,100
426,Alburquerque,-6.999,39.223,296
144,"Campana, La",-5.426,37.567,100
206,Melide,-8.016,42.914,172
172,Suances,-4.043,43.426,100
206,Beas de Segura,-2.886,38.252,144
206,Isla Mayor,-6.164,37.131,144
355,Ayora,-1.055,39.061,144
144,Agramunt,1.097,41.784,100
172,Moral de Calatrava,-3.577,38.828,100
296,Talarn-Casa Castells,0.896,42.169,296
247,Villanueva de los Infantes,-3.016,38.738,247
247,Chantada,-7.764,42.609,144
120,"Espinar, El",-4.24,40.718,120
120,Porreres,3.023,39.515,100
120,Jimena de la Frontera,-5.444,36.427,120
172,Ampuero,-3.417,43.354,100
206,Alhama de Granada,-3.991,37.002,144
144,Valencia de Alcntara,-7.241,39.412,100
247,Alcal de los Gazules,-5.724,36.463,100
206,Navia,-6.72,43.541,120
247,Torreblanca,0.198,40.217,120
296,Iznalloz,-3.521,37.393,100
120,Casariche,-4.758,37.293,100
120,llora,-3.88,37.286,120
