rs,name,lon,lat,r1
595,Αργάκα,32.493,35.067,240
345,Μόρφου,33.019,35.215,200
414,Γαλάτα,32.899,34.997,200
288,Όργα,33.031,35.36,240
288,Κοντέα,33.716,35.105,200
414,Ακανθού,33.753,35.374,200
240,Άγιος Θεόδωρος,34.029,35.367,200
1027,Πλατανισσός,34.106,35.479,345
240,Ακρωτήρι,32.957,34.601,200
288,Σαλαμιού,32.69,34.841,200
595,Παραλίμνι,34,35.032,200
345,Λάρνακα,33.633,34.898,240
714,Πάφος,32.406,34.78,414
100000,Lefkosia,33.346,35.149,100000
1027,Lemesos,33.032,34.692,414
