cc,rs,name,lon,lat,r1
GR,288,Μέτσοβον,21.183,39.77,200
GR,496,Φάρσαλα,22.385,39.296,288
GR,714,Κάρυστος,24.419,38.016,240
GR,240,Μακροχώριον,21.262,40.672,200
GR,240,Λαγυνά,26.298,41.084,200
GR,414,Κομοτηνή,25.403,41.119,288
GR,240,Ανάβρα,22.55,39.073,200
GR,345,Αλμυρός,22.76,39.183,200
GR,345,Δεσκάτη,21.809,39.927,200
GR,1478,Λαμία,22.434,38.9,414
GR,288,Μεταξάδες,26.225,41.42,200
GR,856,Ορεστιάς,26.532,41.503,595
GR,240,Κυπρίνος,26.228,41.576,200
GR,240,Κασσάνδρεια,23.413,40.049,200
GR,595,Καβάλα,24.406,40.938,240
GR,414,Γιαννιτσά,22.411,40.793,240
GR,496,Φλώρινα,21.414,40.783,200
GR,240,Σοχός,23.356,40.817,200
GR,414,Κόνιτσα,20.747,40.045,240
GR,1232,Ερμούπολις,24.941,37.445,714
GR,345,Πλωμάριον,26.369,38.976,200
GR,414,Μεγάλο Χωριό,26.972,37.458,240
GR,240,Τήνος,25.163,37.538,200
GR,496,Άγιος Κήρυκος,26.294,37.614,240
GR,288,Κορησσία,24.312,37.658,200
GR,1027,Νέον Καρλοβάσιον,26.704,37.791,414
GR,496,Άνδρος,24.936,37.837,200
GR,288,Χάλκη,27.611,36.222,200
GR,345,Μάρμαρον,26.108,38.544,200
GR,288,Φολέγανδρος,24.92,36.628,240
GR,595,Ίος,25.282,36.723,240
GR,288,Λιβάδιον,24.512,37.142,200
GR,1773,Κάρπαθος,27.212,35.507,714
GR,496,Όλυμπος,27.173,35.74,200
GR,856,Καμαριώτισσα,25.474,40.476,345
GR,345,Νέος Μαρμαράς,23.784,40.095,240
GR,240,Νεστόριον,21.059,40.416,200
GR,345,Οφρύνιον,23.91,40.797,200
GR,856,Λάρδος,28.016,36.094,200
GR,1478,Μεγίστη,29.591,36.149,856
GR,414,Ανάφη,25.768,36.352,240
GR,288,Λεωνίδιον,22.861,37.166,200
GR,856,Χαλκίς,23.597,38.46,345
GR,496,Γρεβενά,21.428,40.083,200
GR,595,Ιεράπετρα,25.739,35.008,414
GR,240,Κριτσά,25.645,35.159,200
GR,288,Φαρμακονήσιον,27.085,37.291,200
GR,345,Θάσος,24.709,40.779,200
GR,595,Λιμενάρια,24.575,40.627,200
GR,240,Σκόπελος,23.728,39.122,200
GR,595,Σκίαθος,23.489,39.163,345
GR,345,Αφάντου,28.162,36.294,200
GR,1773,Σκύρος,24.566,38.906,288
GR,496,Αμοργός,25.899,36.832,345
GR,496,Λιβάδια,27.385,36.416,240
GR,3674,Ρόδος,28.228,36.444,1773
GR,856,Αστυπάλαια (Χώρα),26.352,36.547,345
GR,496,Σύμη,27.839,36.613,240
GR,856,Αδάμας,24.445,36.726,496
GR,414,Κέφαλος,26.96,36.746,200
GR,496,Σητεία,26.106,35.208,200
GR,240,Σχίσμα,25.723,35.261,200
GR,496,Άγιος Ευστράτιος,24.989,39.539,288
GR,1478,Μύρινα,25.063,39.874,714
GR,240,Κοντοπούλιον,25.334,39.927,200
GR,2552,Μυτιλήνη,26.555,39.104,1232
GR,288,Μεστά,25.922,38.26,200
GR,1773,Χίος,26.136,38.37,595
GR,595,Ερεσός,25.934,39.167,288
GR,714,Ψαρά,25.563,38.54,345
GR,1478,Κως,27.288,36.893,714
GR,496,Απολλωνία,24.723,36.972,240
GR,595,Νάξος,25.376,37.106,345
GR,345,Σκάλα,26.544,37.323,200
GR,496,Κύθνος,24.431,37.413,200
GR,496,Ζάκυνθος,20.896,37.783,288
GR,288,Άστρος,22.722,37.404,200
GR,240,Ανδρίτσαινα,21.905,37.484,200
GR,345,Ζαχάρω,21.649,37.484,200
GR,414,Ιθάκη,20.718,38.364,200
GR,1027,Τρίπολις,22.372,37.51,414
GR,496,Άμφισσα,22.379,38.527,240
GR,288,Λευκάς,20.707,38.833,200
GR,345,Άργος,22.729,37.635,200
GR,240,Νέα Καλυβάκια,21.672,37.635,200
GR,240,Γάιος (Παξοί),20.186,39.197,200
GR,240,Αμαλιάς,21.351,37.797,200
GR,288,Νεμέα,22.662,37.822,200
GR,288,Αστακός,21.084,38.537,200
GR,345,Τερψιθέα,21.974,38.564,240
GR,595,Ραπτόπουλον,21.48,39.149,240
GR,345,Λεβίδιον,22.297,37.683,200
GR,1027,Πύργος,21.439,37.672,496
GR,288,Βάρνακας,20.987,38.726,200
GR,288,Δομνίστα,21.848,38.756,200
GR,856,Νεάπολη Βοιών,23.061,36.509,345
GR,345,Λιμήν Ιέρακος,23.084,36.787,200
GR,496,Γεράκιον,22.708,36.991,200
GR,856,Αργοστόλιον,20.487,38.179,288
GR,240,Σοφικόν,23.051,37.794,200
GR,595,Κλειτορία,22.125,37.894,200
GR,345,Αγιά,20.359,39.312,200
GR,414,Αμφιλοχία,21.166,38.863,200
GR,414,Καρπενήσιον,21.794,38.914,288
GR,240,Δελβινάκιον,20.462,39.933,200
GR,240,Άνω Λιβάδιον,22.984,36.182,200
GR,288,Καρυαί,22.501,37.291,200
GR,414,Πρέβεζα,20.751,38.958,200
GR,2552,Καλαμάτα,22.111,37.041,856
GR,714,Ποταμός,23.289,35.881,240
GR,414,Ποταμός,22.961,36.3,200
GR,595,Σπέτσαι,23.157,37.264,240
GR,288,Μελιγαλάς,21.969,37.223,200
GR,240,Δαιμονία,22.901,36.651,200
GR,414,Γύθειον,22.565,36.76,345
GR,240,Καναλλάκιον,20.601,39.233,200
GR,714,Κόρινθος,22.928,37.939,414
GR,1027,Άρτα,20.987,39.161,414
GR,240,Χράνοι,21.922,36.9,200
GR,414,Πύλος,21.696,36.913,200
GR,345,Μαντούδιον,23.477,38.798,200
GR,414,Αθαμάνιον,21.215,39.375,200
GR,595,Λεβάδεια,22.874,38.436,288
GR,496,Ιστιαία,23.152,38.953,200
GR,496,Φιλιατρά,21.587,37.157,345
GR,288,Καστόρειον,22.304,37.171,200
GR,496,Κύμη,24.104,38.635,288
GR,345,Αίγιον,22.081,38.248,240
GR,2127,Πάτραι,21.735,38.245,1232
GR,240,Καισάριον,22.563,37.953,200
GR,240,Ζαρούχλα,22.275,37.985,200
GR,496,Πηγάδια,21.606,38.021,200
GR,496,Αταλάντη,22.995,38.655,200
GR,240,Γλυφάδα,23.821,38.663,200
CY,595,Αργάκα,32.493,35.067,240
CY,345,Μόρφου,33.019,35.215,200
CY,414,Γαλάτα,32.899,34.997,200
CY,288,Όργα,33.031,35.36,240
CY,288,Κοντέα,33.716,35.105,200
CY,414,Ακανθού,33.753,35.374,200
CY,240,Άγιος Θεόδωρος,34.029,35.367,200
CY,1027,Πλατανισσός,34.106,35.479,345
CY,240,Ακρωτήρι,32.957,34.601,200
CY,288,Σαλαμιού,32.69,34.841,200
CY,595,Παραλίμνι,34,35.032,200
CY,345,Λάρνακα,33.633,34.898,240
CY,714,Πάφος,32.406,34.78,414
GE,288,უგუდეთი,44.227,41.721,200
GE,414,ტვანაარხუ,40.656,43.211,414
GE,414,ახალი კინდღი,41.272,42.797,414
GE,714,ვაკისძირი,45.487,42.397,345
GE,414,სამტრედია,42.348,42.164,200
GE,345,სალხინო,42.337,42.518,240
GE,240,გუდაუთა,40.624,43.103,240
GE,288,ბესლეთი,41.055,43.016,288
GE,714,მიასნიკოვკა,41.43,43.036,345
GE,414,რიკზა,40.786,43.389,414
GE,1027,ახალციხე,42.99,41.638,345
GE,714,ათნოხი,44.708,42.456,496
GE,288,ანდაქი,45.206,42.538,288
GE,240,თოთი,44.592,42.628,240
GE,288,კაკუჩა,41.828,41.834,200
GE,288,ზედა ჩხუტუნეთი,41.858,41.488,200
GE,496,ირგანჩაი,44.141,41.207,200
GE,496,ოზურგეთი,42,41.926,240
GE,345,წალკა,44.091,41.595,200
GE,240,ჯირღული,41.384,42.892,240
GE,414,ყორულდაში,43.143,42.916,288
GE,2552,ბათუმი,41.64,41.646,1773
GE,2552,ცოდნისკარი,40.092,43.497,1232
GE,345,ბორჯომი,43.378,41.84,200
GE,288,ინკითი,40.302,43.175,288
GE,856,თელავი,45.471,41.919,345
GE,288,გონა,43.545,42.799,200
GE,595,შიბოითა,43.856,42.471,240
GE,240,გოსტიბე,44.301,41.813,200
GE,595,რესი,44.301,42.663,414
GE,288,ჭილაანთკარი,44.889,41.886,200
GE,345,ყობი,43.707,42.14,200
GE,13158,თბილისი,44.801,41.693,7615
GE,345,ლია,42.003,42.657,200
GE,414,ხაშური,43.598,41.997,288
GE,240,თულარი,45.551,41.578,200
GE,856,გორი,44.112,41.981,496
GE,240,შუა სბა,44.173,42.583,200
GE,345,კასპი,44.418,41.921,200
GE,240,ოყურეში,42.676,42.543,200
GE,414,რიყეთი,42.442,41.642,288
GE,714,ლაგოდეხი,46.273,41.827,288
GE,1027,ონი,43.443,42.584,288
GE,714,ჩუბარი,42.45,43.072,496
GE,414,ცხუმალდი,42.468,42.84,345
GE,288,ლამფალაში,43.026,42.803,288
GE,288,ყვარელი,45.814,41.948,200
GE,240,რუსთავი,45.011,41.544,200
GE,288,ცაგერი,42.768,42.646,200
GE,288,ასფარა,43.78,41.452,200
GE,345,კაზრეთი,44.417,41.383,240
GE,288,ტიტა,42.188,43.091,200
GE,345,ბარჯაში,42.032,42.871,200
GE,1773,ქუთაისი,42.701,42.27,714
GE,288,აიბღა,40.258,43.583,288
GE,414,ახალქალაქი,43.485,41.408,288
GE,414,ჭიათურა,43.279,42.287,200
GE,240,საკირე,43.284,41.737,200
GE,414,საგარეჯო,45.324,41.736,200
GE,345,თეთრიწყარო,44.462,41.544,200
GE,856,სადახლო,44.79,41.243,288
GE,345,ლანჩხუთი,42.036,42.087,200
GE,240,კარდენახი,45.892,41.672,200
GE,714,დედოფლისწყარო,46.11,41.464,345
GE,1027,ფოთი,41.675,42.142,345
GE,714,ზუგდიდი,41.872,42.506,496
GE,288,რიწა,40.535,43.471,288
GE,240,ცენტრალური აჟარა,41.735,43.107,240
GE,240,ფიროსმანი,46.571,41.373,240
GE,345,ზესტაფონი,43.038,42.107,240
GE,240,მოხე,42.598,41.713,200
UA,345,Біловодськ,39.579,49.201,288
UA,288,Решетилівка,34.074,49.563,240
UA,595,Ічкі,34.932,45.344,288
UA,3674,Дніпро,35.018,48.468,1478
UA,1027,Кривий Ріг,33.395,47.92,714
UA,714,Сарни,26.608,51.333,345
UA,496,Рудки,23.487,49.654,200
UA,1027,Севастополь,33.54,44.592,414
UA,414,Зарічне,26.125,51.82,288
UA,414,Бориспіль,30.956,50.359,240
UA,345,Зеленодольськ,33.654,47.557,200
UA,240,Великі Копані,32.974,46.49,200
UA,714,Олевськ,27.649,51.226,414
UA,288,Щастя,39.23,48.737,200
UA,288,Городниця,27.317,50.809,200
UA,5289,Одеса,30.718,46.473,2127
UA,240,Вишгород,30.49,50.586,200
UA,414,Волочиськ,26.209,49.536,345
UA,1027,Кременчук,33.434,49.078,595
UA,1232,Первомайськ,30.844,48.039,496
UA,288,Знам'янка,32.674,48.715,240
UA,496,Сєвєродонецьк,38.479,48.948,288
UA,240,Лозуватка,33.292,48.064,200
UA,240,Дебальцеве,38.418,48.341,200
UA,595,Баштанка,32.44,47.405,240
UA,414,Чутове,35.167,49.715,200
UA,595,Миргород,33.61,49.965,345
UA,856,Івано-Франківськ,24.712,48.916,595
UA,240,Армянськ,33.692,46.109,200
UA,345,Борщів,26.04,48.802,200
UA,240,Новгородка,32.653,48.355,200
UA,288,Лутугине,39.21,48.403,200
UA,414,Дніпрорудне,34.991,47.382,240
UA,856,Шепетівка,27.064,50.183,414
UA,288,Дубове,23.893,48.193,200
UA,288,Роздільна,30.077,46.848,240
UA,240,Радехів,24.643,50.279,200
UA,240,Шумськ,26.116,50.118,200
UA,345,Більмак,36.648,47.358,240
UA,595,Євпаторія,33.365,45.203,414
UA,288,Березна,31.784,51.57,200
UA,288,Мала Виска,31.633,48.644,200
UA,496,Южне,31.101,46.624,200
UA,345,Корець,27.159,50.619,240
UA,345,Чорноморськ,30.654,46.303,200
UA,240,Бахмут,37.999,48.597,200
UA,288,Єди-Кую,35.773,45.296,200
UA,345,Васильків,30.325,50.185,200
UA,414,Кілія,29.255,45.466,200
UA,345,Тростянець,34.971,50.473,200
UA,496,Ємільчине,27.808,50.872,240
UA,2127,Луганськ,39.329,48.567,714
UA,345,Рокитне,27.215,51.272,240
UA,288,Захарівка,29.758,47.332,200
UA,714,Ратне,24.527,51.666,240
UA,414,Якимівка,35.163,46.697,200
UA,288,Южноукраїнськ,31.176,47.823,200
UA,288,Козятин,28.833,49.716,200
UA,595,Броди,25.153,50.078,345
UA,345,Новоазовськ,38.081,47.116,288
UA,240,Костянтинівка,37.702,48.523,200
UA,345,Нижні Сірогози,34.377,46.841,240
UA,240,Кушугум,35.216,47.712,200
UA,240,Краснокутськ,35.147,50.06,200
UA,595,Нововолинськ,24.17,50.733,288
UA,240,Роздольне,33.489,45.77,200
UA,496,Кодима,29.127,48.096,200
UA,345,Камінь-Каширський,24.963,51.623,345
UA,288,Куликівка,31.643,51.373,200
UA,414,Красноград,35.453,49.373,345
UA,288,Шишаки,34.005,49.877,200
UA,240,Соледар,38.072,48.691,200
UA,240,Вапнярка,28.743,48.535,200
UA,288,Перегінське,24.188,48.812,200
UA,345,Межова,36.724,48.254,200
UA,288,Попільня,29.46,49.944,200
UA,856,Вараш,25.85,51.345,496
UA,288,Тульчин,28.851,48.672,200
UA,288,Сокиряни,27.416,48.449,200
UA,345,Бобринець,32.163,48.054,288
UA,240,Галич,24.73,49.125,200
UA,240,Маньківка,30.333,48.964,200
UA,414,Борова,37.638,49.38,200
UA,345,Арциз,29.427,45.985,345
UA,240,Городок,23.664,49.785,200
UA,288,Бурштин,24.627,49.259,200
UA,496,Болград,28.613,45.684,240
UA,345,Теплик,29.749,48.661,200
UA,414,Хотин,26.49,48.509,200
UA,414,Веселе,34.908,47.016,200
UA,345,Нова Одеса,31.785,47.297,240
UA,240,Марганець,34.616,47.648,200
UA,240,Татарбунари,29.611,45.843,200
UA,714,Канів,31.449,49.745,240
UA,1478,Миколаїв,32.008,46.945,595
UA,240,Шевченкове,37.174,49.694,200
UA,1232,Скадовськ,32.912,46.118,345
UA,240,Зоря,29.697,45.99,200
UA,345,Плахтіївка,29.719,46.098,200
UA,345,Свеса,33.932,51.947,200
UA,414,Бережани,24.94,49.445,288
UA,496,Кременець,25.734,50.097,240
UA,345,Яремче,24.568,48.461,200
UA,414,Малин,29.265,50.769,345
UA,496,Покровськ,37.175,48.282,288
UA,595,Гадяч,33.989,50.37,240
UA,288,Новодонецьке,36.982,48.635,200
UA,240,Новояворівськ,23.572,49.932,240
UA,496,Богуслав,30.874,49.544,240
UA,714,Павлоград,35.885,48.528,414
UA,1478,Умань,30.219,48.749,856
UA,496,Краматорськ,37.568,48.722,345
UA,288,Слов'янськ,37.612,48.85,200
UA,240,Стрий,23.841,49.261,200
UA,1027,Ізюм,37.281,49.205,288
UA,496,Алчевськ,38.793,48.476,240
UA,595,Старокостянтинів,27.211,49.753,288
UA,856,Ужгород,22.298,48.619,595
UA,714,Біла Церква,30.117,49.802,595
UA,414,Білогір'я,26.414,50.002,200
UA,2127,Вінниця,28.474,49.232,1232
UA,1478,Лубни,32.987,50.016,414
UA,1027,Охтирка,34.9,50.31,414
UA,1478,Тернопіль,25.601,49.555,714
UA,3674,Сімферополь,34.104,44.955,1478
UA,856,Хуст,23.296,48.177,345
UA,714,Ніжин,31.879,51.044,414
UA,595,Олександрія,33.098,48.664,414
UA,240,Сновськ,31.947,51.818,200
UA,1232,Конотоп,33.202,51.237,856
UA,414,Любашівка,30.259,47.836,240
UA,414,Лебедин,34.481,50.582,288
UA,345,Хмільник,27.953,49.558,345
UA,856,Ромни,33.485,50.742,345
UA,856,Горлівка,38.067,48.328,240
UA,1232,Коростень,28.629,50.96,595
UA,414,Глухів,33.911,51.68,240
UA,1478,Шостка,33.488,51.865,496
UA,345,Калуш,24.365,49.039,200
UA,496,Бар,27.68,49.077,240
UA,345,Димер,30.306,50.785,200
UA,856,Вовчанськ,36.942,50.288,345
UA,240,Томаківка,34.747,47.816,200
UA,414,Білогірськ,34.601,45.056,240
UA,288,Миронівка,30.989,49.661,200
UA,496,Заліщики,25.736,48.651,200
UA,1232,Запоріжжя,35.154,47.85,414
UA,496,Теребовля,25.702,49.299,200
UA,345,Монастирище,29.808,48.991,200
UA,240,Марківка,39.56,49.523,200
UA,856,Хмельницький,26.991,49.417,856
UA,345,Славутич,30.727,51.523,288
UA,2552,Донецьк,37.778,47.98,1232
UA,5289,Харків,36.269,49.982,3062
UA,496,Богодухів,35.527,50.164,345
UA,856,Звенигородка,30.962,49.069,345
UA,496,Сколе,23.51,49.035,200
UA,288,Сергіївка,30.369,46.026,200
UA,345,Горохів,24.762,50.5,200
UA,345,Хорол,33.263,49.783,200
UA,240,Володимирець,26.145,51.421,200
UA,595,Валки,35.617,49.839,240
UA,240,Градизьк,33.132,49.233,200
UA,414,Бучач,25.379,49.065,240
UA,288,Мангуш,37.307,47.058,200
UA,714,Нікополь,34.372,47.58,345
UA,1027,Львів,24.014,49.835,1027
UA,288,Судак,34.975,44.854,240
UA,288,Могилів-Подільський,27.808,48.445,288
UA,288,Воловець,23.177,48.713,200
UA,414,Алушта,34.403,44.668,200
UA,856,Токмак,35.706,47.249,345
UA,288,Вільшанка,30.881,48.235,200
UA,288,Кам'янка-Бузька,24.348,50.103,200
UA,714,Коломия,25.039,48.535,288
UA,1478,Ковель,24.703,51.217,414
UA,714,Пологи,36.266,47.476,288
UA,345,Надвірна,24.577,48.629,240
UA,714,Гайворон,29.849,48.347,345
UA,345,Кельменці,26.833,48.458,200
UA,288,Гола Пристань,32.524,46.524,200
UA,414,Жовті Води,33.508,48.357,288
UA,856,Генічеськ,34.803,46.177,414
UA,240,Рогатин,24.614,49.411,200
UA,714,Іванків,29.894,50.937,240
UA,496,Сміла,31.882,49.216,200
UA,240,Деражня,27.438,49.27,200
UA,240,Драбів,32.136,49.958,200
UA,288,Гвардійське,34.011,45.116,200
UA,1232,Суми,34.807,50.908,1027
UA,856,Волноваха,37.489,47.597,345
UA,414,Снігурівка,32.801,47.073,345
UA,856,Мілове,40.137,49.374,240
UA,345,Балаклія,36.846,49.46,288
UA,496,Чортків,25.799,49.011,414
UA,856,Бердянськ,36.789,46.765,414
UA,345,Доброслав,30.943,46.82,200
UA,414,Сватове,38.158,49.412,288
UA,1027,Нова Каховка,33.357,46.749,345
UA,288,Вільнянськ,35.429,47.942,200
UA,414,Покровське,36.235,47.985,200
UA,496,Софіївка,33.893,48.073,200
UA,288,Царичанка,34.471,48.943,200
UA,496,Тальне,30.703,48.889,200
UA,595,Іллінці,29.207,49.108,200
UA,414,Жовква,23.978,50.056,200
UA,345,Недригайлів,33.876,50.833,200
UA,288,Новоайдар,39.005,48.966,200
UA,595,Ширяєве,30.192,47.384,240
UA,496,Мена,32.214,51.525,200
UA,288,Приморськ,36.357,46.728,200
UA,714,Кролевець,33.382,51.552,200
UA,345,Короп,32.954,51.565,200
UA,240,Шпола,31.389,48.999,240
UA,345,Носівка,31.581,50.934,200
UA,414,Немирів,28.844,48.977,240
UA,345,Мукачево,22.719,48.442,240
UA,288,Зміїв,36.35,49.685,200
UA,595,Амвросіївка,38.485,47.797,200
UA,714,Корюківка,32.264,51.777,414
UA,240,Щирець,23.857,49.65,200
UA,288,Красилів,26.969,49.65,200
UA,240,Козелець,31.116,50.914,200
UA,714,Білгород-Дністровський,30.33,46.187,200
UA,345,Біюк-Онлар,34.126,45.292,200
UA,496,Курман,34.294,45.495,200
UA,345,Летичів,27.619,49.389,200
UA,414,Каланчак,33.292,46.254,200
UA,595,Перещепине,35.361,49.015,288
UA,345,Велика Новосілка,36.838,47.841,240
UA,714,Бердичів,28.596,49.896,288
UA,345,Велика Михайлівка,29.853,47.076,200
UA,414,Чернігівка,36.206,47.192,200
UA,240,Іршава,23.036,48.317,200
UA,288,Кам'янка,32.101,49.034,200
UA,595,Городок,26.58,49.166,240
UA,595,Семенівка,32.59,52.172,345
UA,714,Троїцьке,38.304,49.908,288
UA,856,Середина-Буда,34.035,52.186,200
UA,595,Бобровиця,31.384,50.75,200
UA,240,Арбузинка,31.314,47.906,200
UA,240,Почаїв,25.508,50.004,200
UA,414,Казанка,32.824,47.837,200
UA,345,Веселинове,31.237,47.356,200
UA,714,Радомишль,29.242,50.493,200
UA,240,Брацлав,28.947,48.818,200
UA,288,Перечин,22.475,48.739,200
UA,414,Нові Санжари,34.315,49.336,200
UA,414,Баранівка,27.665,50.296,200
UA,714,Овруч,28.806,51.325,288
UA,414,Новий Розділ,24.128,49.471,200
UA,288,Буринь,33.825,51.196,200
UA,288,Варва,32.725,50.496,200
UA,496,Любомль,24.034,51.224,288
UA,496,Лохвиця,33.263,50.36,288
UA,414,Золочів,35.97,50.278,200
UA,345,Вилкове,29.592,45.4,200
UA,288,Сосниця,32.499,51.524,200
UA,595,Кирилівка,35.346,46.366,240
UA,240,Коростишів,29.06,50.319,200
UA,288,Брусилів,29.525,50.286,200
UA,345,Згурівка,31.782,50.497,200
UA,345,Широке,33.266,47.688,200
UA,345,Гуляйполе,36.268,47.662,200
UA,240,Смоліне,31.296,48.599,200
UA,345,Красноріченське,38.208,49.214,200
UA,595,Чигирин,32.652,49.075,288
UA,414,Любешів,25.501,51.762,240
UA,714,Березівка,30.917,47.201,345
UA,288,Велика Знам'янка,34.355,47.434,200
UA,240,Зборів,25.145,49.662,200
UA,345,Ланівці,26.088,49.867,200
UA,414,Тетіїв,29.679,49.37,240
UA,496,Городня,31.597,51.892,345
UA,714,Жашків,30.113,49.241,345
UA,414,Мерефа,36.056,49.814,200
UA,1027,Червоноград,24.228,50.387,496
UA,414,Сорокине,39.745,48.294,200
UA,496,Яни Капу,33.793,45.955,414
UA,414,Подільськ,29.537,47.748,288
UA,345,Чистякове,38.627,48.036,200
UA,595,Хрустальний,38.924,48.137,240
UA,288,Петрово-Красносілля,38.887,48.298,200
UA,414,Довжанськ,39.656,48.075,288
UA,240,Кам'янське,34.609,48.506,200
UA,288,Благовіщенське,30.233,48.329,200
UA,496,Херсон,32.612,46.656,414
UA,856,Новий Буг,32.508,47.691,345
UA,595,Солоне,34.872,48.2,200
UA,345,Снятин,25.572,48.448,200
UA,1027,Лозова,36.312,48.888,345
UA,345,Тячів,23.572,48.014,200
UA,288,Турійськ,24.529,51.089,200
UA,288,Гребінка,32.437,50.118,200
UA,288,Боярка,30.293,50.328,200
UA,414,Новоград-Волинський,27.624,50.59,414
UA,288,Городище,31.456,49.289,240
UA,414,Гоща,26.677,50.599,200
UA,414,Ялта,34.158,44.501,345
UA,595,Джанкой,34.393,45.711,595
UA,496,Жмеринка,28.106,49.04,200
UA,345,Новомосковськ,35.222,48.634,200
UA,414,Бородянка,29.917,50.645,240
UA,345,Новомиргород,31.643,48.792,200
UA,240,Рава-Руська,23.626,50.227,200
UA,414,Косів,25.088,48.318,200
UA,288,Шацьк,23.931,51.498,200
UA,288,Покров,34.079,47.658,200
UA,345,Саврань,30.084,48.13,200
UA,496,Фастів,29.914,50.078,200
UA,240,Моспине,38.063,47.879,200
UA,288,Первомайське,33.857,45.716,200
UA,288,Погребище,29.266,49.488,240
UA,496,Дубровиця,26.573,51.57,200
UA,345,Путивль,33.869,51.335,240
UA,856,Феодосія,35.38,45.046,496
UA,714,Прилуки,32.39,50.588,345
UA,496,Турка,23.023,49.156,240
UA,496,Первомайський,36.218,49.378,345
UA,288,Тарутине,29.148,46.188,200
UA,414,Літин,28.083,49.325,200
UA,288,Ананьїв,29.995,47.715,200
UA,414,Окни,29.461,47.539,200
UA,240,Пулини,28.265,50.467,200
UA,288,Васильківка,36.026,48.207,240
UA,414,Оріхів,35.782,47.567,240
UA,414,Чорноморське,32.704,45.503,414
UA,27282,Київ,30.547,50.449,9138
UA,240,Велика Олександрівка,33.3,47.322,240
UA,714,Горностаївка,33.732,47.007,200
UA,240,Олександрівка,31.273,47.694,200
UA,496,Золотоноша,32.047,49.667,200
UA,288,Володимир-Волинський,24.321,50.852,200
UA,240,Доманівка,30.983,47.63,200
UA,345,Чаплинка,33.535,46.363,200
UA,288,Велика Багачка,33.726,49.791,200
UA,240,Космач,24.821,48.338,200
UA,496,Ічня,32.382,50.856,200
UA,496,Краснопілля,35.269,50.773,240
UA,1773,Керч,36.473,45.338,1027
UA,595,Крижопіль,28.868,48.386,240
UA,1478,Черкаси,32.053,49.423,1027
UA,714,Міжгір'я,23.523,48.522,288
UA,714,Кропивницький,32.255,48.516,714
UA,496,Дунаївці,26.854,48.889,200
UA,345,Березне,26.739,50.997,200
UA,856,Новоукраїнка,31.525,48.32,345
UA,414,Семенівка,33.185,49.602,200
UA,496,Кобеляки,34.197,49.148,345
UA,2552,Чернігів,31.282,51.504,856
UA,240,Клішківці,26.264,48.424,200
UA,414,Великий Березний,22.459,48.893,200
UA,345,Перемишляни,24.559,49.67,200
UA,345,Нова Маячка,33.227,46.603,200
UA,288,Полонне,27.507,50.123,240
UA,595,Глобине,33.261,49.389,200
UA,414,Пирятин,32.51,50.241,240
UA,714,Вознесенськ,31.324,47.571,345
UA,856,Дрогобич,23.512,49.351,414
UA,288,Ладижин,29.237,48.687,200
UA,345,Добропілля,37.085,48.47,200
UA,856,Куп'янськ,37.613,49.71,414
UA,595,Новопсков,39.113,49.532,240
UA,496,Синельникове,35.516,48.321,240
UA,345,Нетішин,26.64,50.339,240
UA,288,Самбір,23.205,49.518,200
UA,3062,Мелітополь,35.361,46.849,714
UA,345,Чечельник,29.35,48.214,200
UA,714,Очаків,31.543,46.619,240
UA,1773,Маріуполь,37.569,47.125,714
UA,414,Балта,29.624,47.935,200
UA,240,Макіївка,37.96,48.054,200
UA,595,Лиман,37.805,48.988,200
UA,345,Біляївка,30.213,46.48,200
UA,345,Черняхів,28.664,50.453,200
UA,496,Верховина,24.819,48.154,200
UA,496,Щолкіне,35.814,45.427,345
UA,595,Дубно,25.745,50.4,240
UA,1232,Житомир,28.671,50.265,856
UA,2127,Рівне,26.244,50.617,856
UA,345,Гайсин,29.387,48.811,345
UA,595,Луцьк,25.34,50.747,496
UA,1478,Полтава,34.539,49.597,714
UA,345,Бахчисарай,33.863,44.751,200
UA,288,Тараща,30.501,49.561,200
UA,345,Ставище,30.194,49.391,200
UA,414,Переяслав-Хмельницький,31.449,50.074,288
UA,288,Ржищів,31.052,49.965,200
UA,240,Печеніги,36.93,49.87,200
UA,288,Свалява,22.994,48.545,200
UA,496,Берегове,22.638,48.202,200
UA,345,Кагарлик,30.824,49.855,200
UA,345,Андрушівка,29.022,50.024,200
UA,1773,Чернівці,25.938,48.303,1027
UA,240,Зимогір'я,38.93,48.589,200
UA,240,Василівка,35.277,47.434,200
UA,595,Костопіль,26.444,50.879,240
UA,345,Барвінкове,37.02,48.906,288
UA,595,Золочів,24.897,49.806,240
UA,240,Гельмязів,31.835,49.823,200
UA,1232,Старобільськ,38.921,49.278,345
UA,595,Шаргород,28.076,48.756,240
UA,288,Верхній Рогачик,34.35,47.242,200
UA,714,Ізмаїл,28.841,45.353,496
UA,345,Іршанськ,28.721,50.751,200
UA,288,Долина,24.001,48.973,200
UA,288,Збараж,25.77,49.668,200
UA,240,Карлівка,35.124,49.454,200
UA,240,Українка,30.743,50.145,200
UA,345,Зіньків,34.364,50.208,240
UA,345,Рахів,24.214,48.055,200
UA,240,Бершадь,29.53,48.371,200
UA,1027,Яготин,31.78,50.259,200
UA,345,Білопілля,34.302,51.152,288
UA,240,Бахмач,32.831,51.18,200
UA,496,Борзна,32.427,51.252,200
UA,240,Березнегувате,32.851,47.308,200
UA,240,Краснопавлівка,36.323,49.136,200
UA,288,Віньківці,27.234,49.034,200
UA,414,Велика Лепетиха,33.943,47.171,240
UA,240,Теофіполь,26.413,49.84,200
UA,496,Єланець,31.855,47.698,240
UA,240,Криве Озеро,30.335,47.943,200
UA,345,Лисянка,30.827,49.257,200
UA,288,Сахновщина,35.874,49.151,200
UA,288,Магдалинівка,34.913,48.917,200
UA,414,Диканька,34.533,49.822,200
UA,240,Муровані Курилівці,27.524,48.719,200
UA,496,Котельва,34.758,50.068,200
UA,240,Гребінки,30.178,49.956,200
UA,345,Макарів,29.812,50.459,200
UA,240,Чоп,22.21,48.431,200
UA,595,Ясіня,24.351,48.264,200
UA,414,Стара Вижівка,24.433,51.439,200
UA,288,Липова Долина,33.791,50.563,200
UA,414,Ріпки,31.091,51.803,200
UA,856,Кам'янець-Подільський,26.58,48.683,414
UA,288,Опішня,34.609,49.964,200
UA,414,Долинська,32.764,48.113,345
UA,496,Калинівка,28.527,49.455,200
UA,345,Сквира,29.66,49.733,200
UA,240,Городище,39.65,49.051,200
UA,345,Лучанки,28.45,51.548,200
UA,288,Словечне,28.355,51.38,240
UA,288,Калита,31.024,50.751,200
UA,288,Городок,29.452,50.593,200
UA,240,Каштанове,34.057,44.829,200
UA,240,Радивонівка,33.544,49.643,200
UA,240,Відрадне,35.057,47.99,200
UA,240,Лопатні,30.736,51.861,200
UA,288,Тур,24.278,51.678,200
UA,240,Пушкіне,34.976,45.201,200
UA,240,Плисків,29.284,49.368,200
UA,240,Устя,26.086,48.614,200
UA,288,Загризове,37.712,49.504,200
UA,240,Іванівка,31.287,51.377,200
UA,240,Ломачинці,27.377,48.585,200
UA,240,Борівка,28.258,48.5,200
UA,288,Красносілля,32.448,48.9,200
UA,414,Зоря,37.677,48.361,200
UA,288,Клишки,33.302,51.764,200
UA,496,Сопич,34.361,51.847,200
UA,345,Панка,25.645,48.173,200
UA,240,Леонівка,29.906,50.814,200
UA,414,Діброва,40.102,49.584,200
UA,240,Чоповичі,28.947,50.831,200
UA,240,Гірське,23.8,49.47,200
UA,288,Вересаєве,33.5,45.304,200
UA,240,Кам'янське,35.371,47.539,200
UA,240,Божиківці,27.322,49.14,200
UA,496,Холмське,29.229,45.76,200
UA,240,Пащенки,34.017,49.42,200
UA,240,Жихове,33.701,52.167,200
UA,414,Оржиця,32.697,49.792,200
UA,288,Новоселівське,33.599,45.441,240
UA,240,Михайлівці,27.52,48.874,200
UA,240,Піщана,29.73,48.129,200
UA,240,Кудрівка,32.631,51.65,200
UA,345,Дмитрівка,32.952,50.936,200
UA,240,Єрофєєве,35.655,45.205,200
UA,240,Ярошівка,31.259,48.768,200
UA,288,Кубряки,31.33,47.085,200
UA,240,Костянтинівка,35.113,49.95,200
UA,345,Великий Бурлук,37.389,50.051,200
UA,240,Есмань,34.07,51.775,200
UA,288,Великоолександрівка,35.928,48.377,200
UA,288,Шпиків,28.565,48.789,200
UA,288,Григорівка,31.406,49.925,200
UA,496,Радинка,29.719,51.194,200
UA,240,Василівка,35.56,48.711,200
UA,288,Буки,30.404,49.093,200
UA,240,Шандра,31.165,49.784,200
UA,240,Яргорів,25.04,49.096,200
UA,288,Любимівка,33.716,47.393,200
UA,345,Новопокровка,34.612,48.055,200
UA,240,Комиші,34.478,50.309,200
UA,414,Славгород,35.511,48.111,200
UA,240,Михайлівка,33.752,47.77,200
UA,288,Глинськ,33.324,50.617,200
UA,240,Бунякине,34.231,51.361,200
UA,345,Нижня Дуванка,38.174,49.583,200
UA,240,Нові Білокоровичі,28.051,51.115,240
UA,240,Горщик,28.304,50.897,200
UA,240,Постійне,26.115,50.918,200
UA,240,Чонгар,34.544,46.031,200
UA,345,Баничі,33.916,51.511,200
UA,345,Липники,28.454,51.175,200
UA,240,Гать,22.64,48.317,200
UA,240,Кваси,24.282,48.155,200
UA,240,Камінь,24.261,48.924,200
UA,240,Скалат,25.975,49.429,200
UA,240,Холмівка,33.755,44.658,200
UA,288,Голоби,25.011,51.084,200
UA,240,Ушня,32.063,51.408,200
UA,345,Ботієве,35.835,46.682,240
UA,414,Агаймани,34.248,46.673,200
UA,240,Вільні Луки,31.712,48.12,200
UA,240,Майське,35.615,48.48,200
UA,595,Колки,25.673,51.099,200
UA,345,Болгарка,36.326,46.905,200
UA,240,Любицьке,35.957,47.767,200
UA,288,Рибаче,34.597,44.773,200
UA,288,Успенівка,36.395,47.781,200
UA,240,Добровілля,36.613,48.687,200
UA,345,Божедарівка,34.115,48.354,200
UA,240,Підгородці,23.426,49.157,200
UA,240,Дворічна,37.676,49.854,200
UA,288,Лазурне,32.523,46.081,200
UA,288,Ружин,29.213,49.723,200
UA,240,Суворове,28.984,45.582,200
UA,240,Погарщина,33.576,50.452,200
UA,240,Кучерське,33.409,47.153,200
UA,345,Асканія-Нова,33.872,46.453,200
UA,288,Народичі,29.08,51.203,200
UA,288,Добрянка,31.177,52.061,200
UA,240,Вчорайше,29.14,49.864,200
UA,345,Геройське,31.893,46.511,200
UA,240,Ряшки,32.563,50.7,200
UA,240,Буховецьке,31.885,47.814,200
UA,240,Делень,29.19,45.913,200
UA,240,Голінка,33.215,50.526,200
UA,240,Соснове,27.003,50.823,200
UA,240,Квітневе,32.373,49.858,200
UA,240,Максимівка,35.102,49.579,200
UA,345,Вільшанка,28.624,48.25,200
UA,240,Бондареве,39.188,49.38,200
UA,240,Федіївка,34.203,49.679,200
UA,240,Олексіївка,27.453,49.594,200
UA,288,Плетений Ташлик,31.672,48.481,200
UA,240,Колодисте,30.118,48.489,200
UA,240,Митрофанівка,32.711,48.502,200
UA,345,Степань,26.302,51.131,200
UA,240,Сатанів,26.264,49.252,200
UA,240,Видерта,25.018,51.727,200
UA,240,Межирічка,28.771,51.074,200
UA,345,Галицинове,31.957,46.791,200
UA,345,Новобогданівка,35.325,47.082,200
UA,240,Коханівка,35.861,49.29,200
UA,240,Комишатка,38.356,48.238,200
UA,345,Павлиш,33.346,48.921,200
UA,240,Видибор,28.824,50.547,200
UA,288,Сокирки,33.906,46.704,200
UA,288,Сміле,36.685,47.542,200
UA,288,Товсте,25.727,48.847,200
UA,288,Красна Поляна,37.065,47.562,200
UA,288,Роздольне,38.013,47.616,200
UA,288,Щасливцеве,34.835,46.033,200
UA,240,Шевелівка,36.746,49.347,200
UA,240,Василівка,38.517,47.67,200
UA,240,Саї,34.054,50.674,200
UA,240,Луги,29.136,48.221,200
UA,240,Дмитрівка,38.938,47.936,200
UA,240,Тур'є,23.083,49.274,200
UA,288,Сагунівка,32.364,49.289,200
UA,240,Піски-Радьківські,37.607,49.265,200
UA,240,Курячівка,39.614,49.384,200
UA,288,Лугове,34.266,48.133,200
UA,240,Межиріч,34.493,50.7,200
UA,240,Юрківці,29.218,48.959,200
UA,240,Велика Чернігівка,39.411,48.963,200
UA,240,Голинчинці,28.39,48.67,200
UA,240,Драгово,23.547,48.237,200
UA,240,Піски,37.92,49.984,200
UA,240,Шарівка,38.899,49.85,200
UA,240,Шлях,35.756,49.926,200
UA,240,Владичень,28.604,45.563,200
UA,240,Нове,29.873,45.903,200
UA,288,Містки,38.495,49.342,200
UA,345,Старе Село,27.133,51.612,240
UA,240,Мирний,33.022,45.313,200
UA,288,Валуйське,39.533,48.666,200
UA,288,Городок,25.48,51.371,200
UA,240,Шульгинка,38.926,49.144,200
UA,240,Пузирі,32.944,49.717,200
UA,240,Роїще,31.263,51.653,200
UA,240,Світле,34.652,45.633,200
UA,288,Очеретине,37.122,48.742,200
UA,345,Мізоч,26.145,50.404,200
UA,240,Черняхівське,30.489,46.833,200
UA,240,Рижове,36.715,48.939,200
UA,240,Комар,36.754,47.977,200
UA,288,Старовірівка,35.724,49.546,200
UA,240,Вільшана,31.221,49.213,200
UA,288,Корнин,29.538,50.086,200
UA,345,Інгулець,32.826,46.79,200
UA,240,Новоолександрівка,34.417,46.973,200
UA,288,Орлівка,28.448,45.32,200
UA,240,Вирішальне,33.449,50.192,200
UA,240,Петрівське,36.893,49.175,200
UA,1478,Тузли,30.092,45.866,200
UA,288,Верба,25.597,50.276,200
UA,345,Довжанське,39.755,47.858,200
UA,240,Осовини,36.592,45.431,200
UA,240,Відники,24.235,49.703,200
UA,240,Кути,24.897,49.993,200
UA,414,Базалія,26.469,49.715,200
UA,288,Форос,33.784,44.391,200
UA,288,Підгайці,25.134,49.272,200
UA,240,Ходине,34.219,51.523,200
UA,414,Лихівка,33.918,48.677,200
UA,288,Деренковець,31.439,49.426,200
UA,345,Висоцьк,26.651,51.724,200
UA,288,Боромля,34.972,50.619,200
UA,414,Миропілля,35.261,51.025,200
UA,240,Рідне,35.219,50.239,200
UA,240,Рогізки,31.847,51.682,200
UA,240,Лосинівка,31.912,50.842,200
UA,240,Мрин,31.552,51.052,200
UA,345,Гончарівське,30.926,51.3,200
UA,240,Батурин,32.877,51.342,200
UA,288,Оратів,29.527,49.191,200
UA,288,Старий Салтів,36.78,50.077,200
UA,240,Задовга,33.912,49.278,200
UA,240,Степанівка,28.763,49.131,200
UA,240,Датинь,24.756,51.523,200
UA,240,Добрянка,30.909,48.349,200
UA,240,Садове,34.651,45.307,200
UA,240,Ольшанське,31.761,47.172,200
UA,240,Кошляки,26.145,49.676,200
UA,414,Приморське,29.794,45.692,200
UA,345,Бокове,33.075,48.206,200
UA,240,Басань,36.176,47.387,200
UA,240,Милятин,26.614,50.455,200
UA,345,Компаніївка,32.203,48.255,200
UA,240,Антоніни,26.87,49.81,200
UA,240,Медвин,30.782,49.39,200
UA,288,Сиротине,38.293,50.057,200
UA,288,Тупичів,31.436,51.775,200
UA,240,Жовтанці,24.237,49.991,200
UA,288,Березанка,31.384,46.856,200
UA,240,Климпуші,24.223,48.43,200
UA,240,Оболонь,32.874,49.604,200
UA,288,Довгошиї,25.771,50.617,200
UA,288,Новокрасне,31.355,48.025,200
UA,288,Мардарівка,29.736,47.536,200
UA,288,Зачепилівка,35.244,49.196,200
UA,240,Охрімівка,35.289,46.507,200
UA,240,Мала Перещепина,34.578,49.389,200
UA,345,Гриців,27.223,49.973,200
UA,240,Хухра,34.823,50.211,200
UA,240,Демидівка,25.328,50.428,200
UA,240,Лошкарівка,34.155,47.936,200
UA,240,Григорівка,34.118,45.422,200
UA,240,Довбиш,27.988,50.373,200
UA,345,Срібне,32.919,50.664,200
UA,240,Річиця,24.665,51.757,200
UA,240,Розсипне,38.614,49.964,200
UA,496,Любар,27.764,49.921,200
UA,240,Мезенівка,35.315,50.632,200
UA,288,Осипенко,36.823,46.915,200
UA,414,Юр'ївка,36.016,48.736,200
UA,240,Нараївка,29.682,48.902,200
UA,345,Холми,32.603,51.875,200
UA,288,Оситняжка,32.185,48.676,200
UA,240,Володимирівка,32.925,47.523,200
UA,240,Головне,24.076,51.335,200
UA,414,Славське,23.443,48.837,200
UA,345,Шепіт,25.145,47.804,200
UA,240,Бараші,28.029,50.716,200
UA,240,Бузівка,30.085,49.116,200
UA,288,Росоша,29.186,49.246,200
UA,345,Петриківка,34.627,48.728,200
UA,240,Станіслав,32.148,46.572,200
UA,240,Біленьке,35.034,47.626,200
UA,288,Костобобрів,32.939,52.238,200
UA,240,Плоске,22.898,48.665,200
UA,288,Строганівка,33.876,46.255,200
UA,288,Тернівка,33.549,51.121,200
UA,345,Поворськ,25.129,51.263,200
UA,240,Сурсько-Литовське,34.934,48.335,200
UA,240,Новоданилівка,32.79,47.982,200
UA,288,Степове,32.561,49.54,200
UA,240,Багайли,33.627,45.022,200
UA,288,Кучук-Алкали,34.388,45.865,200
UA,240,Петровірівка,30.334,47.235,200
UA,240,Тарханкут,33.085,45.544,200
UA,240,Покровське,30.569,47.742,200
UA,414,Сонцівка,37.19,48.049,200
UA,345,Берестове,36.804,47.132,200
UA,345,Варварівка,37.341,50.372,200
UA,345,Добромиль,22.788,49.572,200
UA,240,Павлівка,30.483,49.25,200
UA,240,Павлівка,34.6,46.5,200
UA,240,Шенгури,34.07,49.057,200
UA,240,Миньківці,26.996,50.317,200
UA,240,Тростинка,30.363,50.059,200
UA,414,Волохів Яр,36.979,49.598,200
UA,345,Оленівка,32.534,45.377,200
UA,240,Банилів,25.348,48.36,200
UA,240,Клесів,26.892,51.317,200
UA,240,Манне,31.246,47.467,200
UA,240,Кореличі,24.54,49.542,200
UA,288,Горностаївка,36.185,45.279,200
UA,345,Перегонівка,30.521,48.536,200
UA,240,Кушлин,25.808,49.978,200
UA,240,Вовчків,31.48,50.193,200
UA,240,Прачі,32.449,51.368,200
UA,345,Омелянівка,34.903,45.534,200
UA,240,Кухарі,29.588,50.818,200
UA,240,Великі Кринки,33.481,49.459,200
UA,288,Яблунівка,32.18,50.46,200
UA,595,Грем'яч,33.288,52.336,288
UA,240,Глинськ,32.899,48.955,200
UA,345,Ташлик,31.734,49.074,200
UA,414,Плужне,26.562,50.18,200
UA,288,Привітне,24.748,50.638,200
UA,240,Дмитрівка,31.482,47.427,200
UA,414,Вереміївка,32.592,49.398,200
UA,240,Пасицели,29.936,47.612,200
UA,240,Теплівка,32.157,50.252,200
UA,288,Дольськ,25.517,51.893,200
UA,240,Катеринівка,35.879,49.018,200
UA,240,Облітки,29.051,50.645,200
UA,240,Маків,26.689,48.791,200
UA,240,Токарєве,35.151,45.284,200
UA,240,Журавське,40.065,49.259,200
UA,240,Приморське,29.605,45.521,200
UA,240,Торчин,25.001,50.765,200
UA,288,Сміле,33.586,50.923,200
UA,240,Лосяч,26.081,48.915,200
UA,240,Богодухівка,32.359,49.748,200
UA,414,Чулаківка,32.348,46.36,200
UA,240,Крем'янка,33.263,50.009,200
UA,240,Славне,34.132,46.895,200
UA,240,Виноградове,32.936,46.369,200
UA,240,Великі Сорочинці,33.945,50.024,200
UA,240,Кримка,30.762,47.937,200
UA,288,Пересадівка,32.187,47.112,200
UA,345,Любеч,30.665,51.705,200
UA,240,Успенівка,29.864,46.184,200
UA,240,Пороги,24.256,48.685,200
UA,240,Надеждине,33.989,46.038,200
UA,288,Степне,33.384,47.024,200
UA,240,Гвардійське,26.705,49.337,200
UA,240,Вертіївка,31.852,51.166,200
UA,288,Заставне,24.433,49.822,200
UA,240,Почапинці,28.042,49.215,200
UA,240,Бирлівка,32.066,50.086,200
UA,240,Корсунці,30.77,46.59,200
UA,240,Тимонове,38.451,49.746,200
UA,240,Артемівка,38.639,47.872,200
UA,345,Липняжка,31.077,48.445,200
UA,240,Перемога,32.511,47.224,200
UA,240,Лебедівка,30.545,50.715,200
UA,240,Межиліска,29.368,51.055,200
UA,288,Омельник,33.547,49.21,200
UA,345,Берездів,27.119,50.455,200
UA,240,Дунаївці,26.839,49.02,200
UA,240,Стукалівка,32.435,49.988,200
UA,240,Хорли,33.298,46.081,200
UA,288,Косівка,33.024,48.813,200
UA,240,Заріччя,25.912,51.185,200
UA,240,Пацканьово,22.604,48.585,200
UA,240,Роздольне,37.295,49.809,200
UA,288,Слов'янка,36.708,48.398,200
UA,288,Розівка,37.069,47.393,200
UA,240,Конюхи,25.056,49.56,200
UA,288,Прилуки,28.864,51.462,200
UA,288,Жаботин,32.157,49.155,200
UA,240,Черемошне,28.418,48.955,200
UA,345,Залізці,25.38,49.797,200
UA,288,Висока Піч,28.267,50.194,200
UA,345,Русанів,31.162,50.497,200
UA,240,Нова Любомирка,26.377,50.764,200
UA,240,Радичі,27.726,50.689,200
UA,345,Жукин,30.691,50.811,200
UA,288,Капітанівка,31.717,48.914,200
UA,345,Старе,31.08,50.141,200
UA,240,Стрілкове,34.881,45.896,200
UA,240,Олешник,22.963,48.166,200
UA,345,Озерна,30.127,49.636,200
UA,240,Ямне,35.394,50.403,200
UA,345,Доросині,25.006,50.954,200
UA,240,Туропин,24.435,50.988,200
UA,240,Іванопіль,28.214,49.857,200
UA,240,Карпилівка,27.201,51.155,200
UA,288,Блажове,27.339,51.425,200
UA,288,Борове,25.835,51.617,200
UA,345,Вигода,30.398,46.617,200
UA,288,Стрюкове,30.573,47.374,200
UA,240,Самгородок,28.843,49.533,200
UA,240,Межиріч,31.434,49.618,200
UA,240,Бишів,29.882,50.269,200
UA,288,Мишурин Ріг,33.945,48.822,200
UA,240,Телешівка,30.618,49.762,200
UA,240,Садове,36.58,48.827,200
UA,345,Оленівка,37.659,47.829,200
UA,240,Тридуби,30.411,48.076,200
UA,288,Сиваське,34.555,46.385,200
UA,345,Миколаївка,30.754,47.541,200
UA,240,Іванівка,30.467,46.979,200
UA,345,Обертин,25.172,48.693,200
UA,288,Білолуцьк,39.022,49.698,200
UA,240,Журавно,24.277,49.26,200
UA,240,Путила,25.1,47.994,200
UA,240,Низи,34.781,50.78,200
UA,288,Чорнухи,32.939,50.272,200
UA,288,Понорниця,32.847,51.72,200
UA,414,Бойківське,38.012,47.411,200
UA,595,Терни,33.967,50.985,200
UA,414,Айбар,33.879,45.512,200
UA,240,Щербані,31.749,47.52,200
UA,288,Баратівка,32.357,47.591,200
UA,240,Троїцьке,30.287,47.637,200
UA,288,Кетрисанівка,32.175,47.905,200
UA,240,Благовіщенка,34.243,46.299,200
PT,288,Monte,-8.703,41.38,200
PT,240,Montalegre,-7.786,41.828,200
PT,345,Fontes,-7.659,41.479,200
PT,414,Vimioso,-6.523,41.588,200
PT,345,Castanheira de Pera,-8.209,40.004,200
PT,240,Picão,-7.947,40.947,200
PT,345,Vila Meã,-8.229,40.417,200
PT,288,Vila Velha de Ródão,-7.671,39.657,200
PT,288,Fatela,-7.431,40.157,200
PT,288,Caixas,-9.146,38.47,200
PT,414,Alvalade,-8.391,37.937,240
PT,240,Porto Covo,-8.787,37.854,200
PT,240,Arronches,-7.281,39.123,200
PT,414,Fronteira,-7.644,39.051,200
PT,240,Barrancos,-6.978,38.133,200
PT,288,Mértola,-7.661,37.642,240
PT,240,Safara,-7.217,38.108,200
PT,595,Cachopo,-7.815,37.332,200
PT,414,Corvo,-31.107,39.675,200
PT,7615,Santa Cruz das Flores,-31.129,39.457,1478
PT,1027,Santa Cruz da Graciosa,-28.002,39.084,240
PT,288,Calheta,-28.017,38.608,200
PT,288,Santo Antão,-27.803,38.548,200
PT,496,Velas,-28.21,38.681,288
PT,288,São Mateus,-28.451,38.431,200
PT,1773,Vila do Porto,-25.14,36.955,595
PT,240,Santo António,-25.702,37.857,200
PT,595,Porto Moniz,-17.169,32.866,200
PT,595,Campo de Cima,-16.356,33.063,496
PT,595,Braga,-8.411,41.525,240
PT,496,Fão,-8.772,41.509,200
PT,240,Lamego,-7.809,41.097,200
PT,414,Vila Nova de Foz Côa,-7.144,41.078,288
PT,856,Vila Real,-7.731,41.299,345
PT,856,Bragança,-6.767,41.8,595
PT,714,Chaves,-7.47,41.747,345
PT,240,Miranda do Douro,-6.277,41.488,240
PT,414,Mirandela,-7.179,41.485,240
PT,714,Mogadouro,-6.705,41.342,240
PT,2127,Coimbra,-8.445,40.192,856
PT,714,Leiria,-8.808,39.742,288
PT,1027,Guarda,-7.249,40.529,345
PT,414,Pinhel,-7.069,40.771,200
PT,856,Castelo Branco,-7.489,39.823,496
PT,414,Covilhã,-7.496,40.278,200
PT,496,Caldas da Rainha,-9.144,39.413,240
PT,288,Mafra,-9.343,38.93,200
PT,288,Nazaré,-9.068,39.601,200
PT,240,Peniche,-9.381,39.361,200
PT,345,Torres Vedras,-9.255,39.09,240
PT,595,Setúbal,-8.887,38.531,200
PT,345,Entroncamento,-8.477,39.464,200
PT,414,Samora Correia,-8.862,38.929,200
PT,714,Santarém,-8.7,39.244,414
PT,240,Vila Nova de Milfontes,-8.78,37.729,200
PT,414,São Teotónio,-8.709,37.512,200
PT,1027,Sines,-8.857,37.958,496
PT,288,Nisa,-7.646,39.513,200
PT,345,Ponte de Sôr,-8.013,39.259,240
PT,714,Portalegre,-7.43,39.283,414
PT,414,Estremoz,-7.584,38.846,240
PT,1027,Évora,-7.91,38.569,595
PT,414,Portel,-7.7,38.306,200
PT,414,Vendas Novas,-8.46,38.676,240
PT,414,Almodôvar,-8.06,37.515,200
PT,1478,Beja,-7.859,38.017,414
PT,595,Castro Verde,-8.087,37.7,200
PT,496,Moura,-7.448,38.139,288
PT,240,Loulé,-8.023,37.137,200
PT,345,Monchique,-8.554,37.31,200
PT,345,Tavarede,-8.849,40.165,240
PT,3062,Angra do Heroísmo,-27.217,38.644,1232
PT,240,Ponta Garça,-25.368,37.729,200
GF,2552,Saint-Georges,-51.8,3.889,1027
GF,496,Apatou,-54.342,5.157,288
GF,3674,Saint-Laurent-du-Maroni,-54.028,5.504,1478
GF,496,Saint-Élie,-53.287,4.826,414
GF,32738,Cayenne,-52.334,4.939,13158
GF,595,Iracoubo,-53.204,5.48,240
GF,856,Kourou,-52.642,5.158,345
GF,345,Macouria,-52.473,5.013,200
GF,1232,Sinnamary,-52.958,5.378,345
GF,414,Roura,-52.323,4.728,200
GF,1232,Régina,-52.128,4.314,414
GF,414,Ouanary,-51.671,4.209,200
GF,240,Awala-Yalimapo,-53.907,5.736,200
GF,1773,Saül,-53.207,3.623,496
GF,1478,Maripasoula,-54.027,3.641,1232
GF,856,Camopi,-52.33,3.167,595
GF,1773,Grand-Santi,-54.381,4.273,496
GF,496,Papaichton,-54.148,3.81,200
MF,5289,Saint-Martin,-63.084,18.067,2127
BL,714,Saint-Barthélemy,-62.848,17.899,288
GP,856,Grand-Bourg,-61.315,15.883,200
GP,240,Le Gosier,-61.491,16.206,200
GP,47142,Basse-Terre,-61.732,15.997,39285
GP,496,Sainte-Rose,-61.697,16.333,200
GP,345,Saint-François,-61.273,16.251,200
GP,240,La Désirade,-61.074,16.303,200
GP,288,Terre-de-Haut,-61.581,15.867,200
MQ,595,Le Marin,-60.87,14.471,240
MQ,3674,Fort-de-France,-61.068,14.607,1478
MQ,414,Saint-Pierre,-61.174,14.743,200
RE,414,Saint-Paul,55.27,-21.009,200
RE,100000,Saint-Denis,55.448,-20.878,32738
RE,414,Saint-Pierre,55.478,-21.341,345
YT,240,Mtsamboro,45.069,-12.697,200
YT,240,Sada,45.1,-12.848,200
YT,10965,Dzaoudzi,45.272,-12.787,9138
UK,414,Leeds,-1.548,53.744,288
UK,345,Bury St Edmunds,0.716,52.227,200
UK,6346,London,-0.088,51.513,2127
UK,345,North Walsham,1.388,52.821,200
UK,1773,Norwich,1.28,52.632,856
UK,414,Stonehaugh,-2.324,55.08,288
UK,345,King's Lynn,0.417,52.755,345
UK,288,Heacham,0.491,52.901,200
UK,240,Deadwater,-2.62,55.266,200
UK,345,Carrshield,-2.305,54.822,240
UK,496,Chester,-2.894,53.198,345
UK,496,Brecon,-3.383,51.95,200
UK,288,Welshpool,-3.143,52.662,200
UK,240,Dol-fach,-3.602,52.603,200
UK,240,Llandovery,-3.798,51.995,200
UK,345,Pwllheli,-4.423,52.885,240
UK,496,Peterborough,-0.259,52.581,345
UK,496,Dolgellau,-3.886,52.743,200
UK,240,Bala,-3.597,52.912,200
UK,414,Colwyn Bay,-3.721,53.291,414
UK,856,Swansea,-3.949,51.643,345
UK,288,Pitton,-4.268,51.564,200
UK,345,Rhondda,-3.47,51.645,200
UK,240,Pyle,-3.688,51.528,200
UK,414,Blaenau Ffestiniog,-3.937,52.994,200
UK,714,Aberystwyth,-4.063,52.41,595
UK,496,Cardigan,-4.66,52.085,200
UK,595,Reading,-0.968,51.451,414
UK,240,Mold,-3.142,53.166,200
UK,345,Lampeter,-4.081,52.115,200
UK,240,Rhewl,-3.218,52.995,200
UK,595,Haverfordwest,-4.98,51.798,496
UK,240,Brynmawr,-3.176,51.8,200
UK,496,Huntly,-2.787,57.447,200
UK,2127,Aberdeen,-2.123,57.16,856
UK,345,Muir,-3.538,56.988,200
UK,1027,Inverness,-4.231,57.464,856
UK,1232,Fort William,-5.103,56.819,496
UK,414,Allt nan Sùgh,-5.487,57.311,288
UK,345,Polloch,-5.611,56.757,240
UK,288,Tofts,-3.087,58.596,200
UK,288,Clachan,-5.071,57.815,288
UK,240,Coulags,-5.399,57.45,240
UK,288,Braemore,-3.57,58.251,240
UK,288,Invercreran,-5.232,56.573,200
UK,288,Killiemor,-6.082,56.483,240
UK,345,Carsaig,-5.979,56.324,240
UK,595,Bunnahabhain,-6.126,55.881,345
UK,414,Kintour,-6.046,55.688,240
UK,288,Ardanaiseig,-5.096,56.378,200
UK,240,Calgary,-6.274,56.584,240
UK,1027,Heylipol,-6.914,56.484,595
UK,1232,Dumfries,-3.608,55.069,288
UK,714,Stranraer,-5.024,54.899,345
UK,240,Annan,-3.254,54.987,200
UK,496,Harris,-6.382,56.976,345
UK,714,Mudale,-4.504,58.286,345
UK,240,Ardchuilk,-4.884,57.401,240
UK,288,Scardroy,-4.986,57.522,288
UK,240,Barnhills,-5.152,55.001,200
UK,496,Drummore,-4.894,54.69,200
UK,856,Opinan,-5.582,57.906,345
UK,288,Morebattle,-2.362,55.518,200
UK,345,Balnahard,-6.16,56.117,288
UK,345,Ardheslaig,-5.707,57.547,240
UK,240,Hilton,-3.814,57.847,200
UK,288,Glentrool Village,-4.574,55.073,200
UK,240,Dalbeattie,-3.821,54.932,200
UK,496,Heilam,-4.651,58.501,496
UK,496,Aboyne,-2.785,57.073,200
UK,240,Alford,-2.7,57.231,200
UK,595,Peterhead,-1.795,57.491,240
UK,288,Inverurie,-2.386,57.287,200
UK,414,Fraserburgh,-2.016,57.687,200
UK,345,Stonehaven,-2.218,56.967,200
UK,414,Banff,-2.526,57.665,200
UK,240,Lochgarthside,-4.451,57.24,200
UK,345,Hawick,-2.782,55.428,200
UK,714,Galashiels,-2.794,55.611,288
UK,240,Peebles,-3.187,55.648,200
UK,240,Torrlaoighseach,-5.392,57.194,240
UK,414,Dalwhinnie,-4.243,56.938,240
UK,240,Rhue,-5.21,57.922,240
UK,240,Eyemouth,-2.094,55.87,200
UK,345,Dunbar,-2.53,56.001,240
UK,496,Portree,-6.198,57.404,496
UK,240,Blegbie,-2.829,55.846,200
UK,345,Redding,-3.732,55.988,200
UK,414,Arscaig,-4.529,58.09,200
UK,240,Moy,-4.596,56.909,240
UK,345,Strathan,-5.325,56.968,200
UK,714,Edinburgh,-3.2,55.938,496
UK,414,Rottal,-3.031,56.814,200
UK,496,Campbeltown,-5.598,55.418,288
UK,345,Newton,-5.005,58.239,345
UK,345,St Andrews,-2.81,56.336,200
UK,414,Trumpan,-6.634,57.559,200
UK,288,Leckie,-5.191,57.631,288
UK,414,Langholm,-3,55.152,200
UK,496,Moffat,-3.439,55.334,200
UK,345,Lunga,-5.555,56.2,200
UK,595,Lochgoilhead,-4.899,56.17,240
UK,240,Lochgilphead,-5.426,56.033,240
UK,240,Garryhorn,-4.289,55.215,200
UK,1027,Dundee,-2.974,56.475,414
UK,288,Kilmarnock,-4.498,55.607,200
UK,496,Alness,-4.251,57.696,200
UK,345,Port Mòr,-6.226,56.835,345
UK,240,Dorrery,-3.589,58.472,200
UK,595,Aviemore,-3.826,57.198,240
UK,288,Arbroath,-2.591,56.563,200
UK,240,Forfar,-2.89,56.642,200
UK,345,Yeovil,-2.636,50.946,240
UK,288,Chard,-2.959,50.874,200
UK,288,Richmond,-1.732,54.407,240
UK,414,Keld,-2.166,54.405,200
UK,240,Clay Coton,-1.128,52.388,200
UK,414,Thame,-0.975,51.749,200
UK,595,Taunton,-3.103,51.021,240
UK,345,Minehead,-3.474,51.198,200
UK,856,Northampton,-0.879,52.237,288
UK,496,Frome,-2.315,51.231,200
UK,856,Ripon,-1.53,54.135,200
UK,240,Stone,-2.142,52.898,200
UK,414,Melbost Borve,-6.436,58.43,200
UK,240,Earsary,-7.425,56.973,200
UK,288,Tobson,-6.873,58.243,200
UK,240,Scotvein,-7.236,57.488,240
UK,595,Sgarasta Bheag,-7.049,57.824,345
UK,496,Gerinish,-7.365,57.353,200
UK,240,Largymore,-5.09,55.475,200
UK,496,Wethersta,-1.347,60.373,200
UK,1027,Snevlabreck,-1.003,60.677,414
UK,240,Gossabrough,-1.037,60.528,240
UK,345,Channerwick,-1.277,59.992,200
UK,240,Scatness,-1.305,59.873,200
UK,240,Quoys,-0.87,60.796,240
UK,1232,St Kilda,-8.563,57.812,714
UK,595,Whitehaven,-3.578,54.542,345
UK,240,Corrie,-5.141,55.637,200
UK,288,Bruray,-0.754,60.425,200
UK,414,Da Hametoon,-2.067,60.12,345
UK,1232,Stonybreck,-1.638,59.524,496
UK,345,Penrith,-2.748,54.664,200
UK,288,Veness,-2.744,59.151,200
UK,414,Perth,-3.444,56.398,240
UK,288,Crieff,-3.838,56.374,200
UK,288,Rattray,-3.33,56.594,200
UK,714,Kirkwall,-2.958,58.979,288
UK,714,Ayr,-4.624,55.444,288
UK,595,Windywalls,-2.968,59.351,288
UK,288,Burray Village,-2.917,58.845,200
UK,496,Roberton,-3.675,55.54,200
UK,345,Girvan,-4.851,55.239,200
UK,345,Carluke,-3.832,55.735,200
UK,345,Dunblane,-3.963,56.189,240
UK,240,Farnham Royal,-0.615,51.538,200
UK,496,Cambridge,0.134,52.206,345
UK,345,Seascale,-3.476,54.392,200
UK,240,Lubfearn,-4.713,57.693,200
UK,240,West Helmsdale,-3.669,58.115,240
UK,345,Huntingdon,-0.178,52.339,200
UK,414,Kincardine,-4.354,57.872,200
UK,288,Kearvaig,-4.939,58.607,288
UK,240,Altanduin,-4.029,58.204,240
UK,288,Beckfoot,-3.409,54.834,200
UK,240,Delnabo,-3.393,57.238,200
UK,414,Hosta,-7.49,57.621,414
UK,288,Govig,-7.055,57.972,288
UK,240,North Tolsta,-6.217,58.349,200
UK,240,Mealista,-7.106,58.105,240
UK,414,Carlisle,-2.934,54.887,414
UK,2552,Lerwick,-1.158,60.156,856
UK,414,Largs,-4.865,55.798,200
UK,345,Spalding,-0.153,52.789,200
UK,345,Thetford,0.749,52.415,200
UK,240,Dereham,0.949,52.677,200
UK,414,Andover,-1.484,51.212,200
UK,496,Maidstone,0.53,51.269,240
UK,240,Crawley,-1.387,51.11,200
UK,2127,West Kilbride,-7.367,57.111,714
UK,240,Kinlochmore,-4.964,56.714,200
UK,595,Pitlochry,-3.73,56.706,240
UK,345,Milton Morenish,-4.258,56.493,200
UK,496,Elgin,-3.315,57.648,414
UK,288,Craigow,-3.469,56.241,200
UK,240,Keith,-2.955,57.544,200
UK,240,Monachyle,-4.466,56.346,200
UK,240,Balfron,-4.333,56.07,200
UK,288,Braintree,0.556,51.878,200
UK,414,Clacton-on-Sea,1.152,51.8,200
UK,714,The Town,-6.353,49.951,595
UK,3062,Plymouth,-4.106,50.35,856
UK,595,Swindon,-1.784,51.573,414
UK,288,Chesterfield,-1.439,53.239,200
UK,496,Barnstaple,-4.059,51.08,345
UK,288,Ilfracombe,-4.12,51.203,200
UK,496,Grimsby,-0.093,53.554,200
UK,345,Meldon,-4.039,50.713,200
UK,288,Bryanston,-2.182,50.861,200
UK,288,Harwood,-2.277,54.695,240
UK,414,Mullion,-5.246,50.021,200
UK,1773,Bristol,-2.595,51.442,856
UK,240,Hartlepool,-1.217,54.676,200
UK,345,Sizewell,1.617,52.207,240
UK,856,Camborne,-5.297,50.207,595
UK,345,St Austell,-4.781,50.345,288
UK,496,Crawley,-0.186,51.117,240
UK,345,Hereford,-2.713,52.055,200
UK,288,Leominster,-2.748,52.226,200
UK,240,Harcombe,-3.194,50.71,200
UK,595,Exeter,-3.51,50.696,345
UK,240,Crediton,-3.654,50.791,200
UK,288,Coventry,-1.515,52.411,200
UK,240,Coleby,-0.641,53.665,200
UK,414,Telford,-2.479,52.672,240
UK,288,Milford,-4.518,50.975,200
UK,240,Swanage,-1.965,50.612,200
UK,240,Ambleside,-2.96,54.426,200
UK,414,Berwick-upon-Tweed,-2.012,55.761,345
UK,595,Alnwick,-1.7,55.409,200
UK,240,Bognor Regis,-0.678,50.792,200
UK,288,Pulborough,-0.503,50.958,200
UK,345,Woking,-0.554,51.311,200
UK,345,Ham,-1.526,51.363,200
UK,414,Bridlington,-0.198,54.092,200
UK,288,Hornsea,-0.172,53.913,200
UK,1027,Oswestry,-3.052,52.859,240
UK,345,Bridport,-2.756,50.728,200
UK,414,Weymouth,-2.456,50.602,288
UK,714,Eastbourne,0.285,50.772,240
UK,414,Chelmsford,0.48,51.732,200
UK,595,Kendal,-2.739,54.327,200
UK,345,Lowestoft,1.725,52.489,200
UK,595,Padstow,-4.94,50.539,200
UK,595,Worcester,-2.212,52.19,240
UK,414,York,-1.088,53.959,240
UK,414,Sheffield,-1.45,53.388,345
UK,345,Tavistock,-4.143,50.546,200
UK,288,Gillingham,-2.275,51.039,200
UK,595,Boston,-0.02,52.963,200
UK,414,Lincoln,-0.557,53.211,345
UK,414,Morecambe,-2.854,54.066,200
UK,345,Skegness,0.327,53.149,200
UK,414,Louth,0,53.372,200
UK,240,Stevenage,-0.191,51.903,200
UK,714,Gloucester,-2.226,51.861,288
UK,240,Stroud,-2.228,51.739,200
UK,240,Oakley,-1.174,51.249,200
UK,414,Watford,-0.403,51.672,200
UK,288,Ashford,0.875,51.156,200
UK,240,Clitheroe,-2.391,53.871,200
SJ,1232,Ny-Aalesund,11.928,78.926,714
SJ,22735,Longyearbyen,15.645,78.222,5289
SJ,345,Barentsburg,14.21,78.061,240
SJ,9138,Olonkinbyen,-8.715,70.923,3062
DE,414,Todtmoos,8.001,47.739,200
DE,856,Freiburg im Breisgau,7.85,47.995,345
DE,240,Löffingen,8.344,47.884,240
DE,414,Ebingen,9.026,48.214,240
DE,595,Konstanz,9.176,47.663,240
DE,288,Emmendingen,7.848,48.122,200
DE,856,Kempten (Allgäu),10.318,47.724,496
DE,288,Memmingen,10.185,47.988,200
DE,240,Bad Waldsee,9.751,47.923,240
DE,240,Ehingen (Donau),9.725,48.284,200
DE,288,Gelting,11.423,47.893,200
DE,288,Landsberg am Lech,10.878,48.05,200
DE,345,Kaufbeuren,10.621,47.88,200
DE,345,Murnau am Staffelsee,11.202,47.682,200
DE,496,Garmisch-Partenkirchen,11.086,47.492,200
DE,345,Edling,12.165,48.056,200
DE,595,Waldkraiburg,12.4,48.208,288
DE,714,Passau,13.42,48.569,496
DE,595,Rosenheim,12.129,47.856,288
DE,414,Cham,12.667,49.219,288
DE,240,Dingolfing,12.5,48.628,200
DE,288,Straubing,12.572,48.876,240
DE,595,Regen,13.126,48.97,200
DE,414,Eggenfelden,12.762,48.404,200
DE,240,Deggendorf,12.96,48.842,200
DE,288,Freising,11.748,48.404,200
DE,240,Altdürnbuch,11.835,48.789,200
DE,856,Regensburg,12.102,49.015,595
DE,414,Landshut,12.159,48.539,345
DE,496,Ingolstadt,11.423,48.765,345
DE,240,Aichach,11.134,48.461,200
DE,414,Roth,11.091,49.245,200
DE,414,Weißenburg in Bayern,10.972,49.03,200
DE,345,Heidenheim an der Brenz,10.155,48.678,200
DE,240,Hürnheim,10.487,48.797,200
DE,288,Greiselbach,10.412,49.011,200
DE,595,Aalen,10.092,48.835,345
DE,414,Burgau,10.406,48.432,200
DE,856,Ulm,9.99,48.398,414
DE,345,Bietigheim-Bissingen,9.133,48.948,200
DE,496,Heilbronn,9.218,49.14,288
DE,496,Reutlingen,9.212,48.492,240
DE,1478,Stuttgart,9.178,48.776,1027
DE,496,Karlsruhe,8.405,49.01,345
DE,288,Calw,8.741,48.713,200
DE,240,Landau in der Pfalz,8.112,49.197,200
DE,345,Baden-Baden,8.24,48.762,200
DE,240,Freudenstadt,8.411,48.464,240
DE,240,Ötigheim,8.23,48.893,200
DE,288,Merzig,6.643,49.444,200
DE,856,Saarbrücken,6.996,49.237,496
DE,1773,Trier,6.638,49.758,414
DE,345,Pirmasens,7.608,49.197,200
DE,496,Lahr/Schwarzwald,7.874,48.339,200
DE,496,Wittlich,6.889,49.986,200
DE,288,Sankt Wendel,7.173,49.468,200
DE,496,Idar-Oberstein,7.312,49.713,240
DE,288,Kaiserslautern,7.769,49.445,288
DE,288,Bärenbach,7.302,49.947,200
DE,2127,Frankfurt am Main,8.682,50.111,856
DE,288,Speyer,8.437,49.316,200
DE,288,Wiesbaden,8.239,50.082,240
DE,345,Alzey,8.112,49.745,200
DE,288,Heppenheim (Bergstraße),8.644,49.641,200
DE,345,Muthof,9.546,49.304,200
DE,288,Aschaffenburg,9.148,49.974,240
DE,240,Walldürn,9.369,49.583,200
DE,414,Bad Mergentheim,9.773,49.491,240
DE,345,Ansbach,10.577,49.304,240
DE,288,Bad Kissingen,10.078,50.201,200
DE,288,Bad Windsheim,10.419,49.503,200
DE,288,Schrozberg,9.98,49.345,200
DE,345,Schweinfurt,10.231,50.052,200
DE,595,Würzburg,9.937,49.794,595
DE,856,Bamberg,10.887,49.893,240
DE,1478,Nürnberg,11.075,49.451,1027
DE,288,Erlangen,11.003,49.595,200
DE,414,Pegnitz,11.544,49.756,200
DE,496,Bayreuth,11.571,49.946,288
DE,240,Grub,11.377,49.342,200
DE,240,Hersbruck,11.43,49.508,200
DE,496,Amberg,11.856,49.442,200
DE,345,Weiden in der Oberpfalz,12.16,49.676,288
DE,288,Kreuth,11.927,49.312,200
DE,240,Riechberg,13.185,50.942,200
DE,1027,Dresden,13.737,51.052,714
DE,496,Chemnitz,12.922,50.834,414
DE,414,Döbeln,13.121,51.122,200
DE,856,Plauen,12.135,50.496,200
DE,856,Gera,12.08,50.876,414
DE,288,Weißenfels,11.967,51.2,200
DE,240,Wildenau,12.455,50.557,200
DE,240,Greiz,12.202,50.655,200
DE,414,Hof,11.914,50.317,200
DE,288,Altenburg,12.437,50.987,200
DE,288,Zwickau,12.496,50.719,200
DE,240,Bürgel,11.759,50.942,200
DE,345,Reinstädt,11.475,50.809,200
DE,1027,Erfurt,11.027,50.977,496
DE,288,Eschwege,10.058,51.186,200
DE,595,Ilmenau,10.916,50.686,240
DE,496,Eisenach,10.322,50.977,345
DE,714,Coburg,10.964,50.258,288
DE,496,Mühlhausen/Thüringen,10.458,51.21,200
DE,288,Arnstadt,10.947,50.833,200
DE,414,Crock,10.886,50.452,200
DE,856,Fulda,9.675,50.553,496
DE,240,Hülsa,9.461,50.947,200
DE,240,Brand,9.957,50.531,200
DE,345,Unterhaun,9.722,50.835,200
DE,240,Hünfeld,9.769,50.673,200
DE,496,Marburg,8.769,50.809,200
DE,496,Bad Nauheim,8.735,50.363,200
DE,595,Gießen,8.675,50.586,345
DE,414,Seck,8.048,50.577,240
DE,856,Koblenz,7.598,50.36,345
DE,1027,Siegen,8.025,50.875,414
DE,345,Mayen,7.222,50.329,200
DE,1232,Köln,6.957,50.938,496
DE,496,Aachen,6.085,50.774,288
DE,288,Elsdorf,6.568,50.936,200
DE,414,Prüm,6.424,50.207,200
DE,414,Daun,6.831,50.197,200
DE,288,Ahaus,7.005,52.076,200
DE,288,Dülmen,7.279,51.829,200
DE,240,Dinslaken,6.735,51.562,200
DE,240,Freiheit,7.115,51.718,200
DE,345,Goch,6.159,51.675,240
DE,288,Viersen,6.389,51.257,200
DE,496,Bocholt,6.616,51.838,288
DE,240,Gütersloh,8.381,51.91,200
DE,288,Greven,7.613,52.093,200
DE,288,Hagen,7.467,51.36,200
DE,345,Höntrup,8.152,51.693,200
DE,595,Warstein,8.354,51.443,240
DE,288,Lüdenscheid,7.634,51.216,200
DE,414,Hamm,7.817,51.678,240
DE,595,Münster,7.627,51.962,345
DE,714,Bielefeld,8.532,52.021,595
DE,345,Korbach,8.873,51.272,240
DE,240,Uslar,9.635,51.661,200
DE,414,Höxter,9.382,51.776,240
DE,240,Sielen,9.382,51.553,200
DE,1232,Kassel,9.495,51.315,595
DE,345,Marsberg,8.855,51.46,200
DE,345,Bösingfeld,9.123,52.069,200
DE,595,Paderborn,8.757,51.72,240
DE,240,Northeim,10,51.706,200
DE,414,Göttingen,9.935,51.533,240
DE,414,Einbeck,9.866,51.817,240
DE,496,Eimsen,9.816,52.004,200
DE,240,Herzberg am Harz,10.34,51.657,200
DE,1027,Goslar,10.429,51.907,288
DE,496,Halberstadt,11.047,51.896,288
DE,856,Nordhausen,10.792,51.5,345
DE,1027,Magdeburg,11.633,52.126,496
DE,240,Breitenstein,10.947,51.621,200
DE,240,Quedlinburg,11.144,51.789,200
DE,240,Sondershausen,10.87,51.37,200
DE,414,Hettstedt,11.515,51.645,200
DE,288,Sangerhausen,11.299,51.474,240
DE,288,Halle (Saale),11.971,51.482,200
DE,240,Grimma,12.727,51.235,200
DE,595,Dessau,12.246,51.835,288
DE,240,Torgau,13.004,51.559,200
DE,240,Bärenthoren,12.279,52.001,200
DE,288,Bitterfeld-Wolfen,12.325,51.625,200
DE,288,Wittenberg,12.646,51.867,200
DE,2552,Leipzig,12.378,51.338,1027
DE,414,Kirchhain,13.561,51.636,288
DE,496,Riesa,13.305,51.303,240
DE,345,Goyatz,14.175,52.02,200
DE,595,Luckenwalde,13.173,52.089,200
DE,496,Hoyerswerda,14.244,51.439,200
DE,414,Uckro,13.614,51.852,200
DE,856,Cottbus,14.335,51.759,595
DE,240,Bad Muskau,14.722,51.545,200
DE,288,Königs Wusterhausen,13.624,52.299,200
DE,414,Bautzen,14.428,51.181,288
DE,414,Guben,14.712,51.954,200
DE,595,Schwedt/Oder,14.288,53.055,288
DE,345,Eisenhüttenstadt,14.631,52.146,200
DE,288,Rietschen,14.786,51.396,200
DE,856,Görlitz,14.988,51.155,345
DE,414,Templin,13.499,53.121,200
DE,9138,Berlin,13.406,52.518,5289
DE,345,Osterburg (Altmark),11.754,52.788,200
DE,345,Karstädt,11.746,53.157,200
DE,345,Neuruppin,12.806,52.923,200
DE,240,Fehrbellin,12.764,52.813,200
DE,240,Rohrbeck,13.038,52.54,200
DE,288,Wutike,12.374,53.018,200
DE,414,Plaue,12.413,52.407,288
DE,1027,Stendal,11.859,52.605,414
DE,414,Wittstock/Dosse,12.486,53.163,200
DE,288,Beelitz,12.978,52.232,200
DE,288,Potsdam,13.054,52.4,200
DE,288,Burg,11.855,52.27,200
DE,496,Oranienburg,13.237,52.754,200
DE,856,Wittenberge,11.751,52.994,288
DE,240,Gardelegen,11.394,52.524,240
DE,345,Wolfsburg,10.785,52.422,200
DE,345,Salzwedel,11.154,52.853,288
DE,240,Helmstedt,11.01,52.228,200
DE,414,Dömitz,11.249,53.142,240
DE,288,Wittingen,10.74,52.729,200
DE,240,Peine,10.227,52.322,200
DE,496,Celle,10.081,52.626,200
DE,595,Uelzen,10.561,52.965,240
DE,345,Rotenburg (Wümme),9.409,53.112,288
DE,414,Bergen,9.962,52.81,200
DE,240,Soltau,9.838,52.987,200
DE,496,Braunschweig,10.521,52.262,414
DE,240,Göthen,8.815,52.556,200
DE,496,Minden,8.915,52.288,200
DE,1027,Bremen,8.809,53.076,595
DE,345,Nienburg (Weser),9.212,52.641,288
DE,240,Norderney,7.145,53.707,200
DE,714,Norden,7.202,53.595,200
DE,414,Cloppenburg,8.043,52.848,240
DE,240,Oldenburg (Oldb),8.213,53.14,240
DE,345,Rheine,7.439,52.279,240
DE,414,Emden,7.206,53.371,345
DE,496,Papenburg,7.393,53.078,240
DE,288,Wehm,7.666,52.833,200
DE,496,Lingen (Ems),7.317,52.522,200
DE,595,Osnabrück,8.042,52.277,240
DE,288,Meppen,7.292,52.691,200
DE,345,Rieste,8.012,52.484,200
DE,414,Lohne (Oldenburg),8.238,52.666,200
DE,414,Borkum,6.665,53.588,200
DE,240,Aurich,7.482,53.47,200
DE,288,Bremervörde,9.146,53.485,240
DE,288,Wangerooge,7.9,53.792,200
DE,345,Varel,8.135,53.395,200
DE,288,Hohenkirchen,7.916,53.663,200
DE,240,Warsingsfehn,7.486,53.314,200
DE,714,Cuxhaven,8.697,53.864,240
DE,345,Uthlede,8.578,53.311,200
DE,240,Marx,7.857,53.434,200
DE,714,Bremerhaven,8.578,53.543,345
DE,345,Tostedt,9.712,53.281,200
DE,414,Neumünster,9.988,54.07,200
DE,2552,Hamburg,9.997,53.551,1773
DE,414,Elmshorn,9.661,53.758,200
DE,240,Gyhum,9.311,53.22,200
DE,345,Itzehoe,9.512,53.927,200
DE,414,Neustadt in Holstein,10.816,54.106,200
DE,496,Mölln,10.691,53.63,200
DE,595,Lüneburg,10.409,53.249,240
DE,414,Hagenow,11.193,53.432,200
DE,714,Lübeck,10.684,53.866,345
DE,414,Parchim,11.848,53.426,200
DE,1478,Rostock,12.136,54.089,714
DE,288,Ziegendorf,11.809,53.295,200
DE,288,Neubukow,11.673,54.032,200
DE,240,Jamel,11.517,53.482,200
DE,345,Lenz,12.349,53.468,200
DE,496,Güstrow,12.176,53.794,240
DE,240,Waren (Müritz),12.686,53.513,240
DE,496,Wismar,11.466,53.892,200
DE,595,Schwerin,11.414,53.629,345
DE,240,Grimmen,13.043,54.113,200
DE,288,Altentreptow,13.25,53.693,200
DE,414,Sassnitz,13.634,54.513,240
DE,240,Ueckermünde,14.046,53.737,200
DE,414,Anklam,13.693,53.855,200
DE,595,Neubrandenburg,13.26,53.557,595
DE,414,Prenzlau,13.862,53.316,240
DE,345,Torgelow,14.011,53.629,200
DE,414,Neustrelitz,13.063,53.362,200
DE,414,Greifswald,13.38,54.096,200
DE,345,Malchin,12.762,53.739,200
DE,240,Löwitz,13.724,53.717,200
DE,288,Zinnowitz,13.909,54.077,200
DE,288,Loitz,13.13,53.974,200
DE,714,Burg auf Fehmarn,11.198,54.439,288
DE,1027,Flensburg,9.438,54.783,345
DE,288,Dranske,13.231,54.63,200
DE,414,Nübbel,9.622,54.273,200
DE,288,Zingst,12.683,54.435,200
DE,595,Stralsund,13.09,54.314,414
DE,288,Kappeln,9.931,54.659,200
DE,345,Ribnitz,12.432,54.243,200
DE,414,Schleswig,9.567,54.515,200
DE,1478,Kiel,10.137,54.322,595
DE,288,Oldenburg in Holstein,10.888,54.293,200
DE,288,Niebüll,8.829,54.788,240
DE,414,Husum,9.057,54.477,240
DE,595,Westerland,8.309,54.908,345
DE,240,Tönning,8.942,54.317,200
DE,714,Helgoland,7.887,54.182,345
DE,714,Heide,9.091,54.194,240
DE,240,Hörnum (Sylt),8.287,54.756,200
DE,240,Ekel,9.358,54.326,200
DE,240,Brösum,8.628,54.332,200
IT,714,Linosa,12.862,35.86,288
IT,288,Agordo,12.036,46.285,200
IT,2552,Bari,16.879,41.113,1478
IT,345,Alghero,8.321,40.557,200
IT,288,Licata,13.951,37.104,200
IT,288,San Giovanni in Fiore,16.698,39.254,288
IT,345,Lodi,9.503,45.314,200
IT,345,Manduria,17.635,40.399,200
IT,345,Popoli,13.832,42.172,240
IT,414,Piedimonte Matese,14.375,41.356,200
IT,1773,Pantelleria,11.946,36.829,714
IT,345,Amatrice,13.294,42.627,240
IT,496,Albenga,8.215,44.053,200
IT,288,Oschiri,9.102,40.72,200
IT,345,Muravera,9.574,39.421,288
IT,288,Cerignola,15.901,41.264,240
IT,414,Camerino,13.069,43.14,200
IT,856,Trieste,13.803,45.634,414
IT,288,Spinazzola,16.091,40.967,200
IT,414,Lavello,15.793,41.048,200
IT,856,Alessandria,8.619,44.913,288
IT,595,Fermignano,12.642,43.686,200
IT,496,Siena,11.334,43.32,288
IT,345,Isernia,14.24,41.6,240
IT,345,Motta Santa Lucia,16.292,39.091,200
IT,496,Acqui Terme,8.463,44.677,200
IT,856,La Spezia,9.85,44.114,345
IT,345,Panarea,15.076,38.637,200
IT,496,Ventotene,13.43,40.796,288
IT,345,Crepaldo,12.696,45.596,200
IT,288,Pinzolo,10.763,46.158,200
IT,345,Merano,11.161,46.668,200
IT,496,Sapri,15.629,40.075,200
IT,345,Formia,13.668,41.258,288
IT,1027,Gela,14.243,37.07,496
IT,496,Monopoli,17.296,40.952,288
IT,1027,Aosta,7.317,45.737,414
IT,414,Modena,10.918,44.656,240
IT,414,Terralba,8.638,39.718,200
IT,345,Martina Franca,17.341,40.701,200
IT,414,Quarona,8.269,45.763,200
IT,345,Belluno,12.217,46.151,240
IT,240,San Foca,18.404,40.299,200
IT,595,Treviso,12.24,45.674,200
IT,595,Ragusa,14.716,36.929,345
IT,345,Bonorva,8.769,40.419,200
IT,1027,Parma,10.329,44.803,345
IT,414,Mirandola,11.066,44.886,200
IT,288,Cogne,7.361,45.608,200
IT,5289,Palermo,13.337,38.11,2127
IT,414,Salerno,14.792,40.68,288
IT,856,Siracusa,15.273,37.084,345
IT,496,Piacenza,9.706,45.045,345
IT,345,Badia Prataglia,11.879,43.794,240
IT,288,Villasimius,9.517,39.145,240
IT,595,Policoro,16.67,40.209,345
IT,496,Cecina,10.519,43.314,200
IT,414,Nardò,18.031,40.179,200
IT,1478,Perugia,12.379,43.099,714
IT,414,Visso,13.086,42.933,200
IT,240,Cremona,10.02,45.143,200
IT,240,Busseto,10.042,44.98,200
IT,345,Mazara del Vallo,12.58,37.662,200
IT,1478,Cuneo,7.545,44.397,414
IT,595,Sanremo,7.757,43.819,345
IT,240,Monte Nai,9.571,39.252,200
IT,345,Pavullo nel Frignano,10.835,44.331,288
IT,345,Castelsardo,8.71,40.914,200
IT,714,Livorno,10.326,43.547,496
IT,1478,Lampedusa,12.61,35.5,1027
IT,288,Camporeale,13.094,37.898,200
IT,595,Mantova,10.773,45.153,240
IT,1478,Bolzano,11.334,46.493,595
IT,496,Bressanone,11.657,46.709,200
IT,288,Ramacca,14.692,37.388,200
IT,856,Latina,12.898,41.465,345
IT,288,Vicenza,11.541,45.557,200
IT,240,Enego,11.707,45.941,200
IT,595,Nicosia,14.397,37.747,240
IT,345,Rieti,12.869,42.406,200
IT,240,Torriglia,9.159,44.519,200
IT,414,Castrovillari,16.203,39.812,288
IT,345,Bronte,14.835,37.789,200
IT,414,Lercara Friddi,13.604,37.746,200
IT,288,Casale Monferrato,8.458,45.133,200
IT,345,Terracina,13.228,41.287,200
IT,595,Andria,16.295,41.227,345
IT,714,Agropoli,14.996,40.347,240
IT,496,Bobbio,9.383,44.768,200
IT,1027,Rimini,12.577,44.049,714
IT,345,Garessio,8.018,44.203,200
IT,240,Buddusò,9.258,40.579,200
IT,714,Ferrara,11.619,44.836,288
IT,345,Senise,16.289,40.147,240
IT,345,Urzulei,9.508,40.093,200
IT,345,Roteglia,10.688,44.485,200
IT,288,Città di Castello,12.233,43.469,200
IT,288,Jesi,13.24,43.529,200
IT,856,Nuoro,9.311,40.318,496
IT,288,Rivergaro,9.604,44.917,200
IT,414,Legnago,11.308,45.19,200
IT,496,Piombino,10.527,42.922,345
IT,288,Poggiardo,18.378,40.057,200
IT,345,Dobbiaco,12.225,46.724,200
IT,288,Siderno,16.297,38.279,288
IT,714,Casoli,14.291,42.113,288
IT,496,Portopalo di Capo Passero,15.135,36.683,288
IT,414,Benevento,14.776,41.125,240
IT,496,Macomer,8.766,40.262,288
IT,414,San Severo,15.377,41.686,200
IT,496,Asti,8.209,44.901,240
IT,345,Monterotondo,12.625,42.057,200
IT,240,Troia,15.313,41.364,200
IT,240,Pieve di Cadore,12.366,46.423,200
IT,414,Comacchio,12.181,44.696,200
IT,496,Tertenia,9.577,39.697,200
IT,240,Gubbio,12.579,43.353,200
IT,288,Pitigliano,11.674,42.635,200
IT,288,Casalbuono,15.686,40.215,200
IT,288,Mondragone,13.889,41.113,200
IT,414,Boccasette,12.424,44.999,200
IT,288,Fermo,13.73,43.166,200
IT,288,Abbadia San Salvatore,11.676,42.878,288
IT,496,Pavia,9.16,45.184,288
IT,288,Scicli,14.702,36.79,200
IT,414,Villaggio San Domino,15.49,42.116,240
IT,288,Sciacca,13.076,37.509,288
IT,240,Curinga,16.311,38.827,200
IT,1027,San Benedetto del Tronto,13.881,42.934,345
IT,345,San Vincenzo,10.541,43.093,200
IT,345,Ferrandina,16.456,40.501,200
IT,345,Cortina d'Ampezzo,12.136,46.536,288
IT,345,Schio,11.357,45.714,200
IT,288,Costa Paradiso,8.957,41.058,200
IT,595,Rossano Stazione,16.634,39.599,240
IT,345,Marradi,11.611,44.074,240
IT,714,Avezzano,13.427,42.031,345
IT,414,Viterbo,12.107,42.425,288
IT,414,Chioggia,12.278,45.196,240
IT,288,Fraviano,10.691,46.297,200
IT,240,Fiuggi,13.22,41.799,200
IT,240,Levane,11.62,43.499,200
IT,414,Marsala,12.49,37.821,200
IT,414,Manerbio,10.135,45.355,200
IT,345,Matera,16.603,40.668,200
IT,240,Portoferraio,10.314,42.811,200
IT,414,Portogruaro,12.839,45.777,200
IT,496,Fabriano,12.903,43.341,200
IT,345,Cento,11.288,44.726,200
IT,496,Vibo Valentia,16.095,38.673,288
IT,288,Poggibonsi,11.146,43.472,200
IT,240,Montecchio,11.93,43.234,200
IT,1478,Ponza,12.965,40.894,345
IT,240,Acilia-Castel Fusano-Ostia Antica,12.348,41.769,200
IT,856,Catanzaro,16.599,38.89,345
IT,240,Madonna,10.858,46.724,200
IT,240,Butera,14.184,37.191,200
IT,345,Capraia Isola,9.844,43.048,240
IT,345,Stromboli,15.238,38.804,288
IT,240,Desulo,9.226,40.01,240
IT,1027,Grosseto,11.107,42.771,595
IT,595,Arezzo,11.866,43.472,288
IT,240,Craco,16.438,40.379,200
IT,1478,Genova,8.904,44.421,714
IT,288,Dorgali,9.588,40.293,200
IT,595,Portocivitanova,13.721,43.307,240
IT,414,Barga,10.48,44.074,200
IT,240,O.N.P.I.,12.004,42.564,200
IT,414,Marina,15.161,40.15,200
IT,414,Spoleto,12.714,42.748,200
IT,240,Rofrano,15.429,40.213,200
IT,288,Acri,16.385,39.494,200
IT,595,Como,9.087,45.806,200
IT,856,Ancona,13.506,43.588,595
IT,240,Barile,15.673,40.947,200
IT,288,Cirò Marina,17.126,39.373,240
IT,414,Civitavecchia,11.801,42.092,345
IT,240,Punta Ala,10.753,42.805,200
IT,345,Sozza,9.492,40.728,200
IT,288,Monticchio,13.465,42.321,240
IT,414,Rovigo,11.793,45.08,200
IT,288,Vigevano,8.861,45.314,200
IT,496,Crotone,17.125,39.08,345
IT,345,Manfredonia,15.91,41.625,200
IT,1478,Messina,15.55,38.191,595
IT,1232,Taranto,17.233,40.473,496
IT,1027,Terni,12.638,42.566,414
IT,414,Rovereto,11.045,45.886,200
IT,496,Gioia Tauro,15.896,38.431,200
IT,240,Regalbuto,14.639,37.653,200
IT,240,Pariana,10.164,44.046,200
IT,1232,Foggia,15.549,41.461,714
IT,1027,Potenza,15.811,40.643,414
IT,288,Pesaro,12.891,43.903,200
IT,414,Buonconvento,11.483,43.133,200
IT,856,Udine,13.244,46.066,345
IT,345,Cassino,13.831,41.493,200
IT,345,Ozieri,9.002,40.584,200
IT,345,Montella,15.018,40.844,200
IT,288,Ala,11,45.759,200
IT,714,Verona,10.997,45.434,496
IT,288,Garda,10.718,45.58,200
IT,496,Siniscola,9.692,40.572,240
IT,1232,Ustica,13.192,38.711,496
IT,856,Olbia,9.505,40.923,595
IT,595,La Maddalena,9.412,41.221,240
IT,595,Altamura,16.548,40.828,240
IT,288,Palmadula,8.189,40.748,200
IT,345,Alicudi Porto,14.36,38.536,345
IT,240,Sambuca di Sicilia,13.11,37.649,200
IT,345,Borgo Val di Taro,9.77,44.486,240
IT,345,Casacalenda,14.847,41.738,200
IT,288,Tubre,10.463,46.644,240
IT,240,Onifai,9.652,40.407,200
IT,856,Lecce,18.178,40.357,595
IT,414,Scalea,15.796,39.811,240
IT,240,Cammarata,13.632,37.631,200
IT,240,Longarone,12.301,46.272,200
IT,496,Sala Consilina,15.599,40.391,200
IT,595,Alfonsine,12.041,44.506,240
IT,240,Codogno,9.701,45.162,200
IT,288,Ladispoli,12.078,41.95,200
IT,345,Caltagirone,14.516,37.217,200
IT,240,Madesimo,9.357,46.437,200
IT,345,Termini Imerese,13.696,37.984,240
IT,288,Coazze,7.305,45.05,200
IT,595,Caltanissetta,14.047,37.49,345
IT,414,Porto Santo Stefano,11.123,42.433,288
IT,496,Brindisi,17.938,40.628,200
IT,240,Acate,14.492,37.024,200
IT,240,Bono,9.033,40.415,200
IT,345,Nurallao,9.08,39.79,200
IT,240,Borbona,13.133,42.512,200
IT,288,Canicattì,13.851,37.36,200
IT,595,Bianco,16.151,38.089,200
IT,345,Castel di Sangro,14.104,41.775,200
IT,288,Roseto degli Abruzzi,14.022,42.667,200
IT,496,Stintino,8.219,40.954,200
IT,856,Oristano,8.594,39.902,414
IT,288,Cerchiara,13.629,42.504,200
IT,345,Carloforte,8.303,39.143,200
IT,414,Domodossola,8.291,46.112,345
IT,288,Castrignano del Capo,18.352,39.832,200
IT,496,Biella,8.058,45.573,345
IT,496,Saluzzo,7.488,44.646,200
IT,345,San Nicandro Garganico,15.565,41.838,200
IT,240,Arquata Scrivia,8.88,44.692,200
IT,496,Novara,8.614,45.441,345
IT,414,Campobasso,14.668,41.56,345
IT,496,Iglesias,8.537,39.313,414
IT,856,Tortolì,9.666,39.929,288
IT,496,Forlì,12.053,44.222,288
IT,288,Villacidro,8.738,39.458,200
IT,414,Alba,8.025,44.691,200
IT,714,Termoli,14.999,41.989,240
IT,240,Casamassima,16.919,40.958,200
IT,496,Teramo,13.714,42.662,240
AD,714,Andorra la Vella,1.523,42.506,496
AL,3062,Tiranë,19.801,41.344,2127
AL,288,Durrës,19.468,41.321,200
AL,1773,Vlorë,19.487,40.463,714
AL,414,Elbasan,20.08,41.114,200
AL,714,Shkodra,19.51,42.069,288
AL,1027,Korçë,20.78,40.618,414
AL,595,Fier,19.559,40.726,200
AL,496,Berat,19.95,40.705,240
AL,496,Pogradec,20.663,40.896,200
AL,414,Lushnja,19.704,40.94,200
AL,240,Kavajë,19.558,41.186,200
AL,595,Lezhë,19.644,41.781,240
AL,496,Sarandë,20.008,39.873,200
AL,414,Gjirokastër,20.14,40.078,200
AL,345,Kukës,20.424,42.078,200
AL,345,Dibër,20.433,41.685,200
AL,414,Mat,20.009,41.61,240
AL,288,Laç,19.714,41.636,200
AL,240,Fushë-Krujë,19.723,41.478,200
AL,345,Gramsh,20.184,40.866,200
AL,240,Mallakastër,19.736,40.597,200
AL,288,Tropojë,20.074,42.362,200
AL,288,Bulqizë,20.216,41.499,200
AL,345,Përmet,20.358,40.236,200
AL,240,Peqin,19.751,41.047,200
AT,288,Wels,14.024,48.164,200
AT,345,Baden,16.242,48.004,200
AT,1027,Lienz,12.788,46.829,595
AT,288,Waidhofen an der Ybbs,14.766,47.984,200
AT,345,Reutte,10.713,47.486,200
AT,714,Landeck,10.567,47.148,288
AT,414,Bad Ischl,13.605,47.712,200
AT,288,Fulpmes,11.34,47.138,200
AT,288,Köflach,15.074,47.059,200
AT,345,Mattighofen,13.157,48.096,200
AT,288,Mayrhofen,11.87,47.197,240
AT,240,Zell am See,12.799,47.317,200
AT,345,Gmünd,14.97,48.764,288
AT,345,Hollabrunn,16.081,48.556,200
AT,414,Feldbach,15.892,46.95,200
AT,288,Mistelbach,16.575,48.568,200
AT,240,Mürzzuschlag,15.679,47.605,200
AT,414,Horn,15.649,48.669,200
BA,2127,Sarajevo,18.363,43.849,1027
BA,1773,Banja Luka,17.204,44.79,714
BA,1232,Mostar,17.814,43.338,414
BA,1027,Tuzla,18.682,44.539,595
BA,714,Zenica,17.923,44.2,288
BA,345,Bijeljina,19.212,44.757,288
BA,595,Bihać-Centar,15.871,44.815,288
BA,414,Prijedor,16.72,44.981,288
BA,414,Doboj-Usora,18.083,44.726,345
BA,288,Modriča,18.298,44.96,200
BA,288,Bardaci,17.849,44.596,200
BA,595,Zagrad,15.825,45.164,200
BA,240,Stara Gradiška,17.259,45.143,200
BA,240,Sanski Most-Muhići,16.663,44.765,200
BA,240,Pirota,17.652,44.226,200
BA,414,Bugojno,17.446,44.057,200
BA,288,Ljubuški-Baščina,17.513,43.213,200
BA,414,Foča-Foca,18.777,43.505,288
BA,345,Mali Zvornik,19.099,44.385,200
BA,288,Ozrakovići,18.177,43.991,200
BA,288,Goražde-Vinarići,18.979,43.666,200
BA,414,Livno-Žabljak,17.006,43.824,200
BA,288,Puškari,15.922,44.963,200
BA,414,Potkleče,18.143,44.439,200
BA,496,Konjic,17.961,43.65,200
BA,414,Posušje,17.326,43.47,200
BA,240,Šamac,18.473,45.063,200
BA,288,Nevesinje,18.121,43.257,200
BA,345,Mrkonjić Grad-Kasimovac,17.085,44.416,288
BA,496,Dvor,16.382,45.045,200
BA,240,Klašnice,17.301,44.895,200
BA,240,Rapatnica-Bare,18.483,44.708,200
BA,288,Vučine,19.295,43.786,200
BA,288,Bileća-Bileca,18.429,42.872,200
BA,288,Hanke,18.521,44.407,200
BA,240,Okolica-Jug II,17.657,44.869,200
BA,288,Šipovo,17.086,44.283,200
BA,288,Bratunac-Danići,19.331,44.183,200
BA,288,Vlasenica,18.945,44.183,200
BA,288,Kostajnica,16.543,45.22,200
BA,240,Sokolac-Đurkovića Brdo,18.798,43.939,200
BA,714,Gacko,18.535,43.167,240
BE,1773,Antwerpen,4.432,51.192,595
BE,1232,Liège,5.566,50.629,595
BE,714,Gent,3.731,51.053,345
BE,714,Charleroi,4.461,50.416,345
BE,414,Brugge,3.226,51.206,240
BE,240,Namur,4.858,50.462,200
BE,288,Verviers,5.866,50.591,200
BE,240,Aalst,4.05,50.94,200
BE,414,Roeselare,3.126,50.947,200
BE,345,Turnhout,4.948,51.319,200
BE,240,Mons,3.951,50.456,200
BE,240,Blaton,3.665,50.504,200
BE,240,Ninove,4.024,50.833,200
BE,496,Marche-en-Famenne,5.333,50.209,240
BE,345,Dinant,4.914,50.257,200
BE,288,Gembloux,4.692,50.561,200
BG,4408,Sofia,23.32,42.687,1773
BG,1478,Plovdiv,24.755,42.142,856
BG,1773,Varna,27.898,43.224,1232
BG,1232,Ruse,25.968,43.842,496
BG,1478,Burgas,27.464,42.511,595
BG,856,Stara Zagora,25.621,42.424,496
BG,1232,Pleven,24.618,43.413,595
BG,714,Dobrich,27.833,43.568,288
BG,714,Sliven,26.332,42.677,345
BG,345,Yambol,26.511,42.483,200
BG,856,Shumen,26.932,43.273,496
BG,714,Haskovo,25.551,41.935,414
BG,288,Pazardzhik,24.331,42.191,240
BG,595,Veliko Tarnovo,25.619,43.079,496
BG,1027,Blagoevgrad,23.098,42.008,595
BG,856,Vratsa,23.552,43.208,414
BG,240,Asenovgrad,24.876,42.013,200
BG,345,Kazanlak,25.398,42.623,200
BG,856,Vidin,22.875,43.992,496
BG,856,Kardzhali,25.37,41.636,240
BG,496,Gabrovo,25.315,42.878,200
BG,345,Montana,23.222,43.408,240
BG,414,Kyustendil,22.688,42.282,288
BG,240,Pernik,23.038,42.604,200
BG,414,Razgrad,26.526,43.524,288
BG,496,Lovech,24.714,43.144,200
BG,288,Dupnitsa,23.119,42.262,200
BG,595,Svishtov,25.353,43.614,288
BG,496,Petrich,23.208,41.398,240
BG,595,Samokov,23.559,42.336,240
BG,345,Sandanski,23.28,41.56,200
BG,288,Dimitrovgrad,25.594,42.059,200
BG,595,Smolyan,24.71,41.576,345
BG,288,Nova Zagora,26.007,42.492,200
BG,240,Sevlievo,25.101,43.027,200
BG,288,Aytos,27.25,42.702,200
BG,714,Karlovo,24.806,42.639,240
BG,496,Gotse Delchev,23.73,41.57,288
BG,414,Lom,23.235,43.821,240
BG,345,Peshtera,24.308,42.035,200
BG,240,Velingrad,23.99,42.029,200
BG,496,Troyan,24.71,42.888,200
BG,496,Panagyurishte,24.187,42.506,240
BG,714,Kozloduy,23.718,43.781,288
BG,240,Kostinbrod,23.205,42.819,200
BG,240,Chirpan,25.335,42.2,200
BG,240,Razlog,23.465,41.887,240
BG,595,Botevgrad,23.794,42.906,200
BG,240,Novi pazar,27.196,43.345,200
BG,496,Knezha,24.08,43.498,240
BG,288,Balchik,28.167,43.419,200
BG,345,Cherven bryag,24.085,43.276,200
BG,414,Svilengrad,26.208,41.771,240
BG,288,Parvomay,25.235,42.101,200
BG,414,Sredets,27.181,42.347,200
BG,414,Dulovo,27.13,43.813,288
BG,288,Berkovitsa,23.129,43.237,200
BG,288,Ihtiman,23.813,42.439,200
BG,240,Kostenets,23.864,42.315,200
BG,240,Pavlikeni,25.308,43.239,200
BG,240,Galabovo,25.864,42.137,200
BG,288,Isperih,26.832,43.715,200
BG,496,Svoge,23.34,42.959,200
BG,288,Pirdop,24.179,42.703,200
BG,288,Veliki Preslav,26.814,43.161,200
BG,595,Kubrat,26.5,43.798,200
BG,345,Provadia,27.441,43.177,200
BG,240,Dryanovo,25.473,42.979,200
BG,345,Zlatograd,25.093,41.383,240
BG,345,General Toshevo,28.032,43.702,200
BG,288,Elin Pelin,23.6,42.669,200
BG,288,Hisarya,24.711,42.507,200
BG,288,Dolni chiflik,27.715,42.993,200
BG,595,Elhovo,26.571,42.17,240
BG,714,Popovo,26.226,43.348,200
BG,345,Rakovski,24.963,42.285,200
BG,288,Tervel,27.406,43.75,200
BG,595,Tsarevo,27.846,42.169,288
BG,345,Teteven,24.261,42.916,200
BG,414,Kotel,26.443,42.89,200
BG,240,Simitli,23.118,41.889,200
BG,345,Devin,24.398,41.743,200
BG,288,Straldzha,26.69,42.602,200
BG,414,Omurtag,26.417,43.11,200
BG,240,Topolovgrad,26.337,42.085,200
BG,414,Nesebar,27.727,42.661,200
BG,345,Byala,25.737,43.459,240
BG,288,Chepelare,24.681,41.724,200
CH,2552,Zürich,8.539,47.377,1478
CH,1478,Genève,6.154,46.197,714
CH,856,Basel,7.606,47.557,496
CH,595,Lausanne,6.632,46.527,288
CH,1232,Bern,7.443,46.943,496
CH,595,Luzern,8.302,47.059,240
CH,240,Winterthur,8.734,47.502,200
CH,496,St. Gallen,9.376,47.431,200
CH,414,Lugano,8.955,46.013,200
CH,414,Biel/Bienne,7.253,47.134,200
CH,288,Fribourg,7.151,46.798,200
CH,414,Thun,7.635,46.748,200
CH,240,Baar,8.513,47.183,200
CH,496,Olten,7.912,47.343,200
CH,595,Bellinzona-Monti di Padevilla,9.023,46.196,200
CH,1027,Chur,9.526,46.857,496
CH,288,Rapperswil-Jona,8.83,47.229,200
CH,1027,Sion,7.358,46.231,414
CH,414,Nyon,6.229,46.383,200
CH,240,Monthey,6.948,46.264,240
CH,240,Uzwil,9.137,47.441,200
CH,345,Bulle,7.058,46.617,200
CH,288,Brig-Glis-Unners Nesseltal,7.989,46.319,200
CH,240,Martigny,7.071,46.099,200
CH,240,Glarus Nord-Vogelgut,9.061,47.11,200
CH,240,Interlaken,7.855,46.683,200
CH,240,Habsburg,8.203,47.48,200
CH,240,Langenthal,7.785,47.214,200
CH,414,Altdorf (UR),8.644,46.871,200
CH,240,Burg,8.181,47.252,200
CH,288,Le Locle,6.753,47.056,200
CH,345,Celerina/Schlarigna-Alp dal Staz,9.854,46.511,240
CH,414,Delémont,7.351,47.365,200
CH,345,Davos,9.833,46.799,200
CH,240,Langnau im Emmental,7.795,46.939,200
CH,288,Schwyz,8.644,47.02,200
CH,288,Murten,7.116,46.927,200
CH,414,Orbe,6.534,46.725,200
CH,345,Biasca,8.965,46.36,200
CH,414,Zermatt,7.749,46.021,200
CY,10965,Lefkosia,33.346,35.149,5289
CY,1027,Lemesos,33.032,34.692,414
CZ,496,Liberec,15.063,50.761,496
CZ,288,Uherské Hradiště,17.46,49.068,200
CZ,345,Přeštice,13.334,49.575,200
CZ,288,Žamberk,16.459,50.082,200
CZ,240,Hustopeče,16.722,48.944,200
CZ,240,Jilemnice,15.506,50.611,200
DE,3674,Ruhrgebiet,7.128,51.503,2552
DE,3674,München,11.561,48.135,2127
DE,595,Düsseldorf,6.812,51.215,240
DE,1773,Hannover,9.756,52.379,595
DE,414,Bonn,7.121,50.753,200
DE,856,Mannheim/Ludwigshafen,8.442,49.496,496
DE,414,Haunstetten,10.89,48.353,345
DE,714,Frankfurt (Oder),14.543,52.343,345
DE,240,Tarp,9.393,54.663,200
DK,6346,København,12.492,55.701,1773
DK,288,Vejen,9.129,55.474,200
DK,345,Morsø,8.86,56.782,200
DK,288,Ribe,8.771,55.333,200
DK,496,Skagen-Vesterby,10.578,57.727,240
DK,240,Hirtshals,9.969,57.577,200
DK,240,Hadsund-Hadsund Huse,10.117,56.718,200
EE,1773,Narva,28.181,59.379,1027
EE,496,Põlva,27.069,58.057,200
EE,595,Jõgeva,26.392,58.749,288
EE,595,Rapla,24.802,58.998,200
GR,22735,Athens,23.742,38,10965
GR,4408,Thessaloniki,22.952,40.636,1773
GR,5289,Iraklio,25.133,35.329,2127
GR,595,Volos,22.947,39.371,345
GR,1232,Ioannina,20.846,39.663,1027
GR,1232,Chania,24.027,35.51,714
GR,714,Agrinio,21.411,38.627,288
GR,856,Kerkyra,19.91,39.619,595
GR,288,Perea,22.919,40.505,200
GR,240,Nea Makri,23.978,38.097,200
GR,345,Kastoria,21.26,40.52,240
GR,345,Igoumenitsa,20.265,39.502,240
GR,496,Aegina,23.453,37.758,200
GR,496,Lavrio,24.054,37.715,200
GR,240,Psachna,23.639,38.574,200
GR,414,Nigrita,23.489,40.913,200
GR,595,Leros,26.844,37.15,345
GR,714,Poros,23.453,37.501,200
GR,240,Sidirokastro,23.387,41.231,200
GR,2127,Thira,25.442,36.41,496
ES,15789,Madrid,-3.7,40.406,6346
ES,5289,Barcelona,2.149,41.395,3674
ES,3062,Valencia,-0.4,39.476,1773
ES,5289,Bilbao,-2.97,43.294,2127
ES,2127,Alicante/Alacant,-0.47,38.374,856
ES,856,Granada,-3.611,37.163,595
ES,1773,Palma de Mallorca,2.649,39.578,1478
ES,288,Sabadell,2.123,41.523,200
ES,32738,Las Palmas,-15.442,28.104,7615
ES,1232,Pamplona/Iruña,-1.647,42.814,714
ES,3062,Valladolid,-4.733,41.641,1027
ES,1232,Santa Cruz de Tenerife,-16.294,28.46,496
ES,1232,Córdoba,-4.78,37.886,714
ES,4408,A Coruña,-8.395,43.346,1773
ES,714,Murcia,-1.133,37.994,496
ES,2127,Vigo,-8.72,42.227,856
ES,856,San Sebastián/Donostia,-1.955,43.313,414
ES,288,Oviedo,-5.847,43.366,200
ES,345,Alcalá de Henares,-3.368,40.488,200
ES,714,Jerez de la Frontera,-6.125,36.689,496
ES,3062,Almería,-2.446,36.851,714
ES,595,Santander,-3.825,43.46,496
ES,1232,Burgos,-3.691,42.347,714
ES,2127,León,-5.577,42.604,595
ES,714,Logroño,-2.444,42.461,345
ES,1027,Castellón de la Plana/Castelló de la Plana,-0.046,39.985,345
ES,1027,Salamanca,-5.665,40.962,714
ES,1478,Cartagena,-0.992,37.624,288
ES,1027,Huelva,-6.941,37.266,595
ES,240,Majadahonda,-3.883,40.499,200
ES,2127,Badajoz,-6.974,38.878,1232
ES,288,Cádiz,-6.283,36.519,200
ES,714,Tarragona,1.234,41.121,414
ES,1027,Girona,2.811,41.977,345
ES,856,Jaén,-3.794,37.776,496
ES,288,Fuengirola,-4.624,36.552,200
ES,1027,Ourense,-7.867,42.336,496
ES,240,Ferrol,-8.212,43.49,200
ES,240,Telde,-15.399,28.004,200
ES,345,Elda,-0.787,38.477,200
ES,714,Manresa,1.822,41.731,200
ES,496,Ceuta,-5.323,35.887,200
ES,595,Talavera de la Reina,-4.828,39.962,595
ES,496,Torrevieja,-0.672,37.996,288
ES,714,Palencia,-4.528,42.009,288
ES,1027,Gandia,-0.173,38.978,414
ES,240,Benidorm,-0.144,38.535,240
ES,414,Pontevedra,-8.645,42.435,200
ES,288,Vilanova i la Geltrú,1.729,41.224,288
ES,496,Santa Lucía de Tirajana,-15.446,27.849,200
ES,714,Lorca,-1.694,37.676,414
ES,240,Chiclana de la Frontera,-6.145,36.417,200
ES,240,Sanlúcar de Barrameda,-6.348,36.778,200
ES,288,Igualada,1.619,41.581,200
ES,496,Alcoi/Alcoy,-0.476,38.697,200
ES,714,Ponferrada,-6.603,42.552,496
ES,595,Linares,-3.633,38.098,240
ES,595,Collado Villalba,-3.999,40.633,200
ES,1027,Eivissa,1.427,38.905,856
ES,1773,Arrecife,-13.553,28.971,1478
ES,496,Estepona,-5.15,36.425,200
ES,595,Puertollano,-4.105,38.689,200
ES,288,Pampanico,-2.812,36.775,240
ES,414,Alzira-El Respirall,-0.431,39.153,200
ES,414,Pineda de Mar-Poblenou,2.678,41.621,200
ES,345,Eibar-Ipurua,-2.482,43.185,240
ES,595,Écija,-5.081,37.542,240
ES,595,Antequera,-4.561,37.02,240
ES,414,Andújar,-4.048,38.041,240
ES,288,Ontinyent,-0.606,38.823,200
ES,288,Miranda de Ebro,-2.941,42.687,200
ES,595,Cieza,-1.42,38.236,240
ES,240,Úbeda,-3.37,38.012,200
ES,714,Yecla,-1.113,38.611,200
ES,414,Ronda,-5.162,36.746,240
ES,345,Dénia-La Pedrera,0.102,38.839,200
ES,496,Valdepeñas,-3.383,38.764,288
ES,496,Tortosa-els Dolors,0.517,40.815,496
ES,496,Olot,2.485,42.181,200
ES,345,Xàtiva,-0.521,38.989,200
ES,240,Mieres,-5.777,43.251,200
ES,496,Playa de las Américas,-16.716,28.054,345
ES,345,Villarrobledo,-2.602,39.268,288
ES,345,Vilagarcía de Arousa,-8.767,42.593,200
ES,345,Lepe,-7.203,37.255,200
ES,856,Benicarló,0.427,40.417,288
ES,345,San Pedro del Pinatar-Lo Pagán,-0.785,37.825,200
ES,288,Ciutadella de Menorca,3.838,40,240
ES,345,Palafrugell-Xalet Sant Jordi,3.162,41.915,200
ES,288,Ordizia,-2.188,43.05,200
ES,288,Banyoles,2.77,42.114,200
ES,414,Barbate,-5.921,36.191,200
ES,288,Priego de Córdoba,-4.2,37.439,200
ES,345,Marchena,-5.418,37.329,200
ES,240,Carballo,-8.691,43.217,200
ES,288,Almussafes,-0.416,39.29,200
ES,1027,Benavente,-5.677,42.003,414
ES,345,Llíria,-0.595,39.628,200
ES,595,Pozoblanco,-4.846,38.377,414
ES,240,Montijo,-6.619,38.902,200
ES,595,Requena,-1.104,39.489,345
ES,288,Archena,-1.294,38.115,200
ES,240,Bermeo,-2.726,43.419,200
ES,288,Guernica,-2.678,43.312,200
ES,240,Coín,-4.756,36.655,200
ES,345,Loja,-4.148,37.169,240
ES,240,Valga,-8.658,42.722,200
ES,2552,Santa Cruz de la Palma-Roque de Abajo,-17.767,28.683,714
ES,345,Cehegín,-1.791,38.093,200
ES,240,Icod de los Vinos,-16.711,28.368,240
ES,240,Ponteareas,-8.506,42.174,200
ES,240,Villamartín,-5.643,36.859,200
ES,288,"Seu d'Urgell, La",1.461,42.358,200
ES,496,Alcúdia,3.127,39.842,200
ES,595,Tafalla,-1.673,42.531,200
ES,240,Madridejos,-3.531,39.47,200
ES,714,Viveiro,-7.598,43.668,414
ES,496,Miajadas,-5.909,39.15,200
ES,595,A Guarda,-8.857,41.911,240
ES,240,Pego,-0.115,38.841,200
ES,345,Caspe,-0.04,41.235,200
ES,288,Montoro,-4.381,38.022,200
ES,288,Níjar,-2.135,36.938,200
ES,414,Trujillo,-5.877,39.466,240
ES,856,Pájara,-14.348,28.051,414
ES,288,Álora,-4.702,36.826,200
ES,1027,Noia,-8.883,42.782,200
ES,240,Campillos,-4.863,37.049,200
ES,414,Móra d'Ebre,0.642,41.096,200
ES,288,Andorra,-0.446,40.979,200
ES,414,Cazorla,-3.001,37.914,200
ES,414,Quintanar del Rey,-1.927,39.345,200
ES,345,Xinzo de Limia,-7.724,42.063,200
ES,345,Dúrcal,-3.569,36.987,200
ES,240,Puigcerdà,1.93,42.433,200
ES,414,Huéscar,-2.537,37.813,240
ES,414,Cangas del Narcea,-6.547,43.178,414
ES,345,Hinojosa del Duque,-5.144,38.5,200
ES,240,Artà,3.347,39.692,200
ES,714,Guardo,-4.848,42.789,414
ES,496,Vilalba,-7.679,43.297,200
ES,714,Valdés,-6.525,43.54,288
ES,496,Cee,-9.187,42.952,200
ES,496,Castuera,-5.544,38.725,240
ES,496,Constantina,-5.617,37.872,200
ES,288,Navàs,1.878,41.901,200
ES,345,Motilla del Palancar,-1.907,39.559,200
ES,414,Aguilar de Campoo,-4.265,42.79,200
ES,345,Corral de Almaguer,-3.165,39.76,200
ES,240,Grado,-6.072,43.386,200
ES,595,Almadén,-4.831,38.775,240
ES,345,Huelma,-3.459,37.649,200
ES,345,Cedeira,-8.051,43.657,200
ES,856,Villablino,-6.321,42.94,200
ES,240,Roldán,-1.007,37.797,200
ES,595,Llanes,-4.746,43.418,345
ES,595,Almazán,-2.529,41.488,200
ES,240,Oliva de la Frontera,-6.918,38.279,240
ES,288,Alburquerque,-6.999,39.223,240
ES,240,Beas de Segura,-2.886,38.252,200
ES,240,Isla Mayor,-6.164,37.131,200
ES,414,Ayora,-1.055,39.061,200
ES,240,Villabona,-2.048,43.186,200
ES,345,Talarn-Casa Castells,0.896,42.169,288
ES,240,Villanueva de los Infantes,-3.016,38.738,240
ES,240,Chantada,-7.764,42.609,200
ES,345,Torreblanca,0.198,40.217,200
FR,100000,Paris,2.363,48.828,100000
FR,4408,Lyon,4.853,45.743,1478
FR,3674,Marseille,5.402,43.316,1478
FR,2552,Bordeaux,-0.593,44.829,1478
FR,3062,Toulouse,1.412,43.611,1232
FR,1232,Nice,7.225,43.693,1027
FR,856,Strasbourg,7.746,48.574,714
FR,3674,Nantes,-1.551,47.219,2127
FR,1232,Grenoble,5.733,45.177,496
FR,1478,Rouen,1.093,49.433,595
FR,414,Cergy-Pontoise,2.063,49.019,200
FR,2127,Tours,0.694,47.379,1027
FR,414,Toulon,5.951,43.129,345
FR,3674,Nancy,6.18,48.689,856
FR,1478,Reims,4.027,49.251,856
FR,595,Le Havre,0.136,49.505,496
FR,2552,Dijon,5.032,47.32,856
FR,595,Saint-Etienne,4.393,45.443,288
FR,856,Clermont-Ferrand,3.096,45.787,714
FR,414,Mulhouse,7.333,47.767,200
FR,1232,Orléans,1.911,47.905,714
FR,414,Lens,2.856,50.42,200
FR,856,Metz,6.179,49.113,345
FR,856,Angers,-0.549,47.465,595
FR,2552,Caen,-0.355,49.178,288
FR,1478,Le Mans,0.198,47.994,496
FR,240,Cannes,7.01,43.563,200
FR,856,Dunkerque,2.364,51.03,345
FR,595,Avignon,4.818,43.951,288
FR,595,Pau,-0.37,43.311,595
FR,496,Valenciennes,3.514,50.362,240
FR,1478,Troyes,4.069,48.293,714
FR,1478,Poitiers,0.348,46.581,595
FR,240,Bayonne,-1.506,43.489,240
FR,595,Melun,2.657,48.534,240
FR,714,Valence,4.9,44.934,414
FR,856,La Rochelle,-1.15,46.159,856
FR,856,Chambery,5.926,45.576,240
FR,1478,Lorient,-3.362,47.754,595
FR,496,Boulogne-sur-mer,1.603,50.719,200
FR,240,Douai,3.09,50.372,200
FR,856,Creil,2.471,49.27,240
FR,714,Chartres,1.484,48.44,414
FR,240,Arras,2.773,50.289,200
FR,496,Fréjus,6.761,43.434,200
FR,595,Belfort,6.848,47.643,288
FR,496,Meaux,2.893,48.958,288
FR,1027,Saint-Brieuc,-2.76,48.504,496
FR,856,Chalon-sur-Saône,4.842,46.793,414
FR,345,Compiègne,2.816,49.413,200
FR,595,Tarbes-Le Pradeau,0.075,43.234,240
FR,595,Châlons-en-Champagne,4.367,48.956,240
FR,496,Villefranche-sur-Saône,4.72,45.987,200
FR,414,Roanne,4.065,46.036,345
FR,496,Thionville,6.163,49.359,200
FR,496,Nevers-Monastère de la Visitation,3.156,46.995,414
FR,1478,Agen,0.624,44.201,414
FR,288,Caudebec-lès-Elbeuf,1.022,49.29,200
FR,1232,Mâcon,4.825,46.309,240
FR,1027,Epinal,6.446,48.176,414
FR,240,Béthune,2.639,50.525,200
FR,595,Dreux,1.368,48.734,240
FR,240,Maubeuge,3.957,50.277,240
FR,496,Vichy,3.432,46.132,240
FR,595,Périgueux,0.717,45.187,414
FR,345,Soissons-La Motte,3.322,49.376,288
FR,714,Rodez-Les Ondes,2.574,44.358,345
FR,288,Saint-Omer,2.258,50.746,200
FR,288,Fontainebleau,2.716,48.409,200
FR,496,Moulins-Champmilan,3.341,46.56,345
FR,414,Montargis,2.728,48.003,288
FR,240,Homécourt,5.995,49.218,200
FR,595,Dax,-1.052,43.713,288
FR,345,Scionzier,6.558,46.067,240
FR,240,Dammartin-en-Goële,2.685,49.057,200
FR,288,Beaucaire,4.654,43.807,200
FR,288,Guebwiller,7.218,47.9,200
FR,240,Beaumont-sur-Oise,2.284,49.147,200
FR,345,Deauville,0.054,49.343,200
FR,240,Le Tréport,1.397,50.054,200
FR,345,Châteaudun-Saint-Denis-les-Ponts,1.33,48.072,200
FR,240,Blaye-les-Mines-Le Buguet,2.159,44.046,200
FR,345,Foix-La Coume,1.616,42.956,200
FR,345,Remiremont,6.594,48.017,200
FR,595,Redon-Le Tertre,-2.077,47.656,288
FR,345,Livron-sur-Drôme,4.831,44.766,200
FR,288,Tournon-sur-Rhône,4.845,45.063,200
FR,414,Saint-Sauveur,6.391,47.815,200
FR,240,Saint-André-de-Cubzac,-0.437,45.006,200
FR,288,Capbreton,-1.427,43.652,200
FR,240,Mazamet-Le Cros,2.375,43.496,200
FR,240,Vif-La Santon,5.662,45.053,200
FR,345,La Ferté-Bernard,0.651,48.184,288
FR,288,Faulquemont,6.582,49.058,200
FR,345,Gray-la-Ville,5.587,47.445,240
FR,240,Péronne,2.938,49.928,200
FR,414,L'Aigle,0.619,48.761,288
FR,414,Podensac,-0.363,44.666,200
FR,288,Barraux,6.004,45.437,200
FR,414,Codalet,2.418,42.619,200
FR,288,Saint-Jean-d'Angély,-0.523,45.944,200
FR,240,Carspach,7.229,47.621,200
FR,240,Argenton-sur-Creuse-L'Auvergnier,1.526,46.587,200
FR,240,Marbaix,3.928,50.121,200
FR,345,Revin,4.642,49.937,200
FR,288,Valognes,-1.472,49.508,200
FR,288,Ganges-La Baraque,3.713,43.934,240
FR,240,Ham,3.072,49.741,200
FR,345,Doullens,2.348,50.155,200
FR,595,Loches,1,47.129,240
FR,345,Decize-Chez Tabarant,3.461,46.832,200
FR,240,Saussay,1.418,48.861,200
FR,240,Sainte-Florine,3.325,45.414,200
FR,240,Mirecourt,6.129,48.306,200
FR,595,Prunières,5.788,44.906,200
FR,414,Marconne,2.026,50.378,200
FR,345,Sézanne,3.724,48.722,200
FR,240,Forcalquier,5.774,43.951,200
FR,288,Tonnerre-Valru,3.978,47.863,200
FR,288,Bar-sur-Aube-Sainte-Germaine,4.706,48.234,240
HR,1773,Split,16.465,43.519,1027
HR,595,Rijeka,14.419,45.34,345
HR,1232,Zadar,15.242,44.116,714
HR,856,Slavonski Brod,18.014,45.161,345
HR,345,Novi Marof,16.333,46.178,200
HR,496,Rab,14.777,44.752,200
HR,240,Pakrac,17.195,45.439,200
HU,3062,Budapest,19.093,47.492,1478
HU,856,Debrecen,21.63,47.532,345
HU,1478,Miskolc,20.765,48.096,496
HU,1027,Szeged,20.155,46.254,714
HU,856,Gyõr,17.643,47.68,345
HU,1027,Pécs,18.226,46.081,414
HU,714,Székesfehérvár,18.432,47.196,345
HU,714,Nyíregyháza,21.726,47.961,345
HU,595,Kecskemét,19.689,46.912,414
HU,1232,Szombathely,16.619,47.235,496
HU,496,Tatabánya,18.395,47.579,288
HU,856,Szolnok,20.188,47.18,240
HU,240,Érd,18.907,47.394,200
HU,345,Veszprém,17.915,47.096,288
HU,856,Sopron,16.584,47.683,345
HU,496,Eger,20.378,47.9,200
HU,496,Kaposvár,17.789,46.358,288
HU,856,Zalaegerszeg,16.838,46.837,288
HU,288,Dunakeszi-Fenyves (Toboz),19.16,47.631,200
HU,1027,Békéscsaba,21.09,46.676,414
HU,414,Dunaújváros,18.932,46.966,288
HU,345,Hódmezővásárhely,20.327,46.42,200
HU,414,Nagykanizsa,16.999,46.458,240
HU,345,Gyöngyös,19.928,47.781,240
HU,714,Baja,18.958,46.182,345
HU,595,Vác,19.134,47.783,200
HU,288,Szekszárd,18.701,46.346,200
HU,345,Cegléd,19.798,47.172,200
HU,288,Kazincbarcika,20.624,48.252,200
HU,240,Esztergom,18.739,47.792,200
HU,345,Mosonmagyaróvár,17.272,47.869,200
HU,496,Pápa,17.471,47.326,288
HU,414,Kiskunfélegyháza,19.85,46.713,200
HU,240,Komló,18.253,46.193,200
HU,240,Hajdúböszörmény,21.513,47.668,200
HU,414,Ajka,17.554,47.105,200
HU,240,Jászberény,19.915,47.499,240
HU,414,Kiskunhalas,19.486,46.429,240
HU,240,Hajdúszoboszló,21.395,47.443,200
HU,595,Karcag,20.924,47.318,240
HU,288,Dunaharaszti,19.099,47.353,200
HU,288,Makó,20.48,46.219,200
HU,240,Keszthely,17.242,46.768,240
HU,288,Nagykőrös,19.782,47.034,200
HU,714,Siófok-Belváros,18.052,46.902,200
HU,345,Orosháza,20.673,46.56,200
HU,414,Paks,18.853,46.624,240
HU,414,Dabas,19.31,47.191,200
HU,414,Mohács,18.682,45.991,200
HU,595,Balassagyarmat,19.296,48.074,240
HU,595,Sátoraljaújhely,21.658,48.398,200
HU,345,Mezőtúr,20.626,47.002,240
HU,288,Tiszaújváros,21.039,47.932,200
HU,345,Újfehértó,21.682,47.803,200
HU,240,Bátonyterenye,19.831,47.996,200
HU,288,Szerencs-Szerencsi Ipari Park,21.191,48.158,200
HU,240,Dombóvár,18.133,46.376,200
HU,496,Ózd,20.281,48.218,200
HU,345,Tapolca,17.44,46.883,200
HU,345,Mátészalka,22.323,47.957,200
HU,240,Pilis,19.548,47.284,200
HU,240,Sárbogárd,18.619,46.881,200
HU,240,Nyírbátor,22.13,47.839,200
HU,496,Tiszafüred,20.761,47.616,240
HU,240,Mezőkövesd,20.569,47.809,200
HU,288,Szarvas,20.556,46.862,200
HU,345,Siklós,18.293,45.86,200
HU,288,Kisvárda,22.081,48.22,200
HU,288,Kőszeg,16.541,47.388,200
HU,240,Tiszakécske,20.094,46.933,200
HU,345,Szeghalom,21.17,47.023,200
HU,240,Túrkeve,20.744,47.104,200
HU,345,Mór,18.207,47.373,200
HU,288,Jánoshalma,19.329,46.3,200
HU,345,Kiskőrös,19.285,46.622,200
HU,240,Kisújszállás,20.754,47.215,200
HU,240,Berettyóújfalu,21.534,47.227,200
HU,414,Kapuvár,17.028,47.593,240
HU,288,Heves,20.283,47.596,200
HU,345,Nagyatád,17.365,46.225,240
HU,240,Encs-Abaújdevecser,21.106,48.327,200
HU,345,Körmend,16.6,47.014,200
HU,240,Létavértes,21.882,47.384,200
HU,496,Tamási,18.284,46.633,200
HU,288,Szigetvár,17.8,46.05,200
HU,345,Zirc,17.873,47.264,200
HU,288,Páty,18.829,47.515,200
HU,240,Kompolt,20.249,47.745,200
HU,240,Bácsalmás,19.336,46.128,200
HU,240,Kistelek,19.981,46.474,200
HU,288,Mezőberény,21.026,46.829,200
HU,288,Polgárdi,18.304,47.065,200
HU,288,Marcali,17.411,46.582,200
HU,414,Jánoshida,20.081,47.376,200
HU,240,Tiszalök,21.377,48.017,200
HU,345,Solt-Kissolt,19.012,46.803,200
HU,240,Dömsöd,19.012,47.091,200
HU,288,Csákvár,18.461,47.393,200
UK,1232,Douglas-Willaston,-4.48,54.163,595
UK,288,Ramsey,-4.384,54.324,200
IS,39285,Reykjavík,-21.903,64.115,7615
IS,240,Reykjanesbær,-22.563,63.997,240
IT,7615,Milano,9.182,45.541,3674
IT,9138,Napoli,14.339,40.851,3674
IT,2127,Roma,12.501,41.883,1232
IT,1478,Torino,7.644,45.067,856
IT,1773,Catania,15.067,37.536,1232
IT,2127,Bologna,11.336,44.494,1232
IT,1027,Firenze,11.238,43.774,595
IT,414,Bergamo,9.651,45.707,288
IT,3674,Cagliari,9.143,39.237,2127
IT,414,Caserta,14.304,41.064,200
IT,1773,Padova,11.871,45.412,714
IT,595,Brescia,10.217,45.562,345
IT,2552,Pescara,14.202,42.466,1027
IT,288,Mestre,12.225,45.491,200
IT,345,Pisa,10.439,43.705,200
IT,3062,Sassari,8.556,40.734,1232
IT,2552,Cosenza,16.242,39.317,1027
IT,856,Trento,11.129,46.071,345
IT,714,Trapani,12.538,38.021,496
IT,414,Savona,8.475,44.31,240
IT,414,Pordenone,12.659,45.967,240
IT,345,Carlentini-Masseria Piano Viola,15.005,37.28,200
IT,414,Chiavari-Sampierdicanne,9.326,44.315,240
IT,414,Giarre-Altarello,15.192,37.725,200
IT,345,Monfalcone,13.528,45.805,200
IT,414,Racale,18.09,39.968,200
IT,345,Clusone,9.966,45.888,200
IT,414,Orvieto,12.118,42.725,240
IT,345,Borgo Valsugana,11.491,46.061,200
IT,240,Chiavenna-Crotti di Pratogiano,9.395,46.313,200
IT,240,Margherita di Savoia,16.15,41.374,200
IT,414,Maniago,12.705,46.163,200
IT,240,Tremezzina-Monti di Nava,9.212,45.97,200
IT,240,Sessa Aurunca,13.926,41.222,200
IT,240,Satriano,16.548,38.689,200
IT,288,Calto,11.295,45.014,200
IT,288,Salemi,12.796,37.828,200
IT,714,Tolmezzo,13.017,46.401,200
IT,345,Cetraro,15.948,39.511,200
IT,288,Ilartzi/Ghilarza,8.827,40.128,200
IT,414,Cavalese,11.45,46.29,200
IT,856,Brolo,14.841,38.157,288
IT,496,Caluso,7.888,45.294,200
IT,240,Tortorici,14.823,38.036,200
IT,288,Susa,7.056,45.136,240
IT,595,Lipari,14.956,38.473,240
IT,240,Cingoli,13.212,43.386,200
IT,496,Pula,9.002,39.008,200
IT,414,Roccalumera,15.419,37.998,200
LT,345,Širvintos,24.958,55.043,200
LT,714,Šalčininkai,25.386,54.307,288
LT,288,Pakruojis,23.856,55.98,200
LV,345,Krāslava,27.17,55.894,288
LV,856,Madona,26.212,56.851,345
LV,345,Aizkraukle,25.258,56.599,288
LV,595,Alūksne,27.051,57.422,240
LV,496,Preiļi,26.724,56.291,240
LV,345,Balvi,27.263,57.132,200
LV,288,Smiltene,25.901,57.42,240
ME,1232,Podgorica,19.272,42.442,856
ME,595,Niksic,18.954,42.773,240
ME,240,Bar-Stari Bar,19.105,42.1,240
ME,856,Pljevlja,19.349,43.357,414
ME,414,Беране,19.872,42.843,288
ME,345,Bijelo Polje,19.744,43.035,200
ME,345,Topla,18.527,42.457,288
ME,345,Budva,18.842,42.286,200
ME,240,Golubovci,19.224,42.336,200
ME,240,Muo,18.768,42.432,200
ME,288,Rožaje,20.168,42.843,200
ME,345,Ulcinj,19.209,41.925,200
MK,1773,Skopje,21.432,42.002,856
MK,345,Kumanovo,21.723,42.133,200
MK,1478,Bitola,21.329,41.03,856
MK,414,Tetovo,20.968,42.005,200
MK,714,Prilep,21.554,41.348,288
MK,595,Gostivar,20.909,41.793,200
MK,496,Veles,21.778,41.718,240
MK,595,Ohrid,20.807,41.122,345
MK,414,Štip,22.199,41.742,240
MK,414,Kavadarci,22.01,41.432,200
MK,595,Kočani,22.413,41.916,200
MK,595,Kičevo,20.96,41.513,240
MK,496,Strumica,22.64,41.436,288
MK,345,Radoviš,22.464,41.633,200
MK,240,Kriva Palanka,22.33,42.201,200
MK,496,Debar,20.525,41.52,240
MK,288,Delčevo,22.774,41.969,200
MK,240,Resen,21.013,41.091,200
MK,288,Gevgelija,22.505,41.141,240
MK,414,Berovo,22.853,41.708,200
MK,288,Kratovo,22.18,42.08,200
MK,288,Kruševo,21.248,41.369,200
MK,240,Podgorci,20.598,41.268,200
MK,345,Demir Hisar,21.203,41.22,200
MK,240,Makedonski Brod,21.216,41.511,200
MT,4408,Valletta,14.487,35.891,1232
MT,288,Victoria,14.244,36.041,200
NL,2127,Amsterdam,4.871,52.382,1027
NL,856,Rotterdam,4.497,51.917,345
NL,288,Den Haag,4.327,52.052,200
NL,240,Leiden,4.47,52.17,200
NL,595,Eindhoven,5.457,51.445,496
NL,288,Tilburg,5.054,51.565,200
NL,1027,Arnhem,5.915,51.968,414
NL,240,Breda,4.772,51.593,200
NL,496,'s-Hertogenbosch,5.315,51.711,200
NL,240,Maastricht,5.689,50.846,200
NL,240,Beverwijk/Heemskerk,4.67,52.498,200
NL,288,Ede,5.654,52.029,200
NL,595,Vlissingen,3.579,51.459,200
NL,240,Veendam,6.869,53.103,200
NL,288,Middelharnis,4.156,51.756,200
PL,3674,Górnośląski Związek Metropolitalny,18.986,50.294,1773
PL,2127,Białystok,23.142,53.132,856
PL,345,Legionowo,20.929,52.398,200
PL,345,Bolesławiec,15.569,51.258,288
PL,240,Sucha Beskidzka – Maków Podhalański,19.634,49.704,240
PL,240,Działdowo,20.188,53.239,200
PL,345,Sulechów,15.624,52.085,200
PL,496,Ostrów Mazowiecka,21.891,52.802,200
PL,240,Mnich,18.789,49.897,200
PL,345,Nowa Dęba,21.751,50.408,200
PL,288,Tłuszcz,21.441,52.433,200
PL,240,Czarnków,16.557,52.894,200
PL,414,Miastko,16.975,54.003,240
PL,345,Przasnysz,20.896,53.022,200
PL,288,Strzyżów,21.789,49.867,200
PL,240,Luzino,18.105,54.58,200
PL,288,Żmigród,16.906,51.469,200
PL,240,Poraj,19.22,50.68,200
PL,288,Łosice,22.715,52.214,200
PL,240,Brusy,17.709,53.882,200
PL,240,Rymanów,21.859,49.565,200
PL,240,Zagnańsk,20.664,50.979,200
PL,414,Wyrzysk,17.268,53.152,200
PL,240,Markowa,22.339,50.023,200
PT,5289,Lisboa,-9.229,38.756,3674
PT,4408,Porto,-8.596,41.169,1773
PT,240,Almada,-9.174,38.644,200
PT,9138,Funchal,-16.937,32.658,3674
PT,2552,Faro,-7.939,37.025,714
PT,1027,Aveiro,-8.633,40.638,414
PT,496,Portimão,-8.547,37.142,345
PT,13158,Ponta Delgada,-25.652,37.75,6346
PT,496,São João da Madeira,-8.497,40.896,200
PT,345,Viseu,-7.903,40.658,288
PT,288,Lourinhã,-9.299,39.227,200
PT,345,Seia,-7.718,40.414,200
PT,1478,Horta,-28.636,38.538,856
PT,345,Alcácer do Sal,-8.51,38.377,200
RO,13158,Bucureşti,26.101,44.44,5289
RO,3062,Cluj-Napoca,23.592,46.773,1773
RO,2127,Timişoara,21.227,45.754,856
RO,2127,Iaşi,27.58,47.158,714
RO,1773,Constanţa,28.63,44.176,856
RO,1773,Craiova,23.8,44.317,1232
RO,2552,Galaţi,28.035,45.436,856
RO,1773,Braşov,25.609,45.649,856
RO,1027,Ploieşti,26.018,44.939,414
RO,1478,Oradea,21.932,47.057,1027
RO,345,Brăila,27.956,45.274,200
RO,856,Piteşti,24.863,44.857,595
RO,1478,Sibiu,24.15,45.792,714
RO,856,Arad,21.316,46.18,345
RO,1478,Bacău,26.913,46.561,595
RO,595,Târgu Mureş,24.56,46.54,595
RO,714,Buzău,26.817,45.152,414
RO,1773,Baia Mare,23.572,47.653,714
RO,856,Botoşani,26.657,47.745,496
RO,496,Satu Mare,22.878,47.79,414
RO,414,Drobeta-Turnu Severin,22.658,44.633,414
RO,345,Râmnicu Vâlcea,24.368,45.104,345
RO,714,Focşani,27.182,45.69,496
RO,595,Piatra Neamţ,26.375,46.932,345
RO,345,Târgovişte,25.462,44.923,288
RO,1232,Târgu Jiu,23.275,45.037,414
RO,345,Tulcea,28.798,45.177,200
RO,414,Slatina,24.367,44.431,288
RO,856,Călărași,27.325,44.202,414
RO,856,Bistrita,24.492,47.135,414
RO,856,Hunedoara,22.909,45.759,496
RO,240,Deva,22.908,45.874,200
RO,345,Suceava,26.243,47.644,200
RO,856,Bârlad,27.673,46.228,496
RO,496,Sfântu Gheorghe,25.789,45.865,200
RO,414,Municipiul Alba Iulia,23.571,46.075,345
