rs,name,lon,lat,r1
28,Halden,9.647,47.203,20
94,Warth,10.184,47.258,39
39,Bangs,9.545,47.266,24
66,Hohenweiler,9.781,47.588,28
39,Fluh,9.775,47.493,20
46,Möggers,9.816,47.561,20
94,Thal,9.885,47.539,20
33,Sulzberg,9.913,47.521,24
112,Andelsbuch,9.894,47.413,33
33,Bizau,9.929,47.369,20
24,Marul,9.863,47.2,20
39,Amagmach,9.984,47.418,28
79,Innerbraz,9.915,47.146,39
66,Gaschurn,10.028,46.987,28
46,Stuben,10.158,47.137,39
112,Holzgau,10.344,47.259,55
28,Gaißau,9.601,47.466,20
46,Meiningen,9.578,47.299,28
39,Fußach,9.662,47.479,20
28,Koblach,9.604,47.332,20
24,Paspels,9.587,47.288,20
66,Lustenau,9.651,47.431,46
476,Feldkirch,9.586,47.255,134
24,Hard,9.697,47.486,20
28,Brederis,9.608,47.277,20
55,Götzis,9.641,47.334,24
134,Hörbranz,9.751,47.555,55
55,Lochau,9.751,47.53,20
28,Weiler,9.653,47.302,20
24,Lauterach,9.728,47.474,20
112,Hohenems,9.682,47.363,39
79,Frastanz,9.629,47.217,33
24,Fraxern,9.674,47.315,20
28,Dums,9.645,47.241,20
24,Eichenberg,9.78,47.537,20
24,Lutzenreute,9.785,47.548,20
39,Unterklien,9.715,47.381,20
24,Kennelbach,9.763,47.479,20
28,Dafins,9.686,47.294,20
28,Übersaxen,9.672,47.253,20
160,Dornbirn,9.743,47.414,55
66,Schwarzach,9.763,47.445,24
24,Weienried,9.82,47.573,20
24,Bildstein,9.771,47.457,20
33,Satteins,9.672,47.225,24
24,Latz,9.661,47.191,20
46,Laterns,9.704,47.266,28
46,Ebnit,9.745,47.349,33
46,Gütle,9.774,47.392,20
28,Buch,9.818,47.481,20
55,Langen bei Bregenz,9.83,47.507,39
46,Schlins,9.704,47.206,20
28,Düns,9.719,47.22,20
66,Nenzing,9.704,47.184,39
46,Fischbach,9.829,47.467,20
39,Alberschwende,9.83,47.45,39
28,Bludesch,9.745,47.199,20
33,Doren,9.88,47.492,20
24,Müselbach,9.879,47.456,20
24,Bersbuch,9.86,47.402,20
46,Thüringerberg,9.784,47.215,20
112,Brand,9.739,47.104,46
28,Langenegg,9.897,47.468,20
79,Ludesch,9.781,47.194,20
28,Lingenau,9.92,47.45,20
24,Unterbach,9.909,47.424,20
134,Krumbach,9.935,47.482,55
39,Nüziders,9.801,47.174,20
134,Mellau,9.881,47.351,28
55,Bezau,9.901,47.385,24
28,Reuthe,9.896,47.371,20
24,Blons,9.835,47.223,20
28,Raggal,9.838,47.211,28
46,Riefensberg,9.964,47.504,20
192,Bludenz,9.821,47.156,134
55,Hittisau,9.959,47.457,20
24,Ittensberg,9.95,47.43,20
94,Damüls,9.891,47.28,33
33,Schnepfau,9.946,47.352,20
160,Sonntag,9.899,47.238,33
28,Bings,9.859,47.145,20
33,Sankt Anton im Montafon,9.869,47.113,20
33,Vandans,9.865,47.096,24
39,Buchboden,9.952,47.244,28
94,Sibratsgfäll,10.037,47.427,46
24,Bartholomäberg,9.907,47.092,20
94,Schoppernau,10.016,47.312,46
55,Silbertal,9.977,47.094,24
55,Dalaas,9.997,47.121,46
134,Sankt Gallenkirch,9.975,47.02,46
28,Wald am Arlberg,10.032,47.133,20
66,Schröcken,10.091,47.259,39
66,Baad,10.12,47.31,28
28,Gortipohl,10.003,47.008,20
39,Mittelberg,10.154,47.324,20
28,Hirschegg,10.167,47.343,20
39,Zug,10.109,47.2,20
397,Riezlern,10.187,47.358,134
134,Klösterle,10.09,47.132,33
331,Lech,10.142,47.209,66
33,Partenen,10.061,46.97,20
79,Zürs,10.163,47.168,24
24,Wirl,10.163,46.965,20
94,Galtür,10.185,46.969,55
28,Hägerau,10.308,47.248,20
134,Jungholz,10.448,47.573,55
94,Kaisers,10.301,47.213,28
94,Sankt Anton am Arlberg,10.268,47.131,94
46,Mathon,10.244,46.99,28
33,Zöblen,10.478,47.508,20
46,Boden,10.606,47.284,20
28,Ehenbichl,10.703,47.472,20
160,Häselgehr,10.491,47.309,94
39,Pettneu am Arlberg,10.343,47.15,39
134,Vils,10.63,47.549,55
46,Bach,10.403,47.27,20
112,Ischgl,10.291,47.011,46
112,Tannheim,10.516,47.498,66
39,Tösens,10.607,47.018,20
39,Hinterhornbach,10.46,47.361,39
46,Ried im Oberinntal,10.656,47.053,20
66,Piller,10.695,47.135,28
331,Imst,10.741,47.237,192
39,Elbigenalp,10.438,47.291,28
33,Biberwier,10.892,47.384,20
39,Vergötschen,10.754,47.042,33
46,Obsteig,10.928,47.299,28
39,Obermieming,10.987,47.305,24
24,Mittelberg,10.875,46.957,20
230,Längenfeld,10.969,47.074,134
28,Grän,10.553,47.502,20
24,Flirsch,10.408,47.149,24
192,Kappl,10.374,47.064,55
24,Auland,11.199,47.311,20
79,Völs,11.323,47.254,46
79,Igls,11.411,47.231,20
33,Perpat,10.407,47.074,20
28,Vorderhornbach,10.542,47.37,20
24,Martinau,10.543,47.359,20
66,Elmen,10.544,47.34,28
160,Stanzach,10.565,47.384,46
55,Nesselwängle,10.61,47.484,33
55,Forchach,10.587,47.418,28
33,Strengen,10.466,47.127,28
66,Habigen,10.443,47.072,39
79,Gramais,10.537,47.269,33
46,Musau,10.671,47.535,24
94,Weißenbach am Lech,10.642,47.443,39
66,Bschlabs,10.586,47.308,24
94,Spiss,10.436,46.959,55
55,Grins,10.515,47.141,28
24,Brandstatt,10.679,47.524,20
55,Pflach,10.716,47.514,24
66,Namlos,10.657,47.356,39
28,Kelmen,10.682,47.37,20
24,Rinnen,10.719,47.405,20
160,Nauders,10.502,46.891,66
112,Brand,10.724,47.39,39
685,Pfunds,10.542,46.967,134
39,Heiterwang,10.749,47.444,24
28,Birkach,10.556,46.982,20
33,Berwang,10.746,47.408,20
55,Schönwies,10.656,47.195,39
55,Fließ,10.629,47.119,33
39,Serfaus,10.609,47.038,28
39,Fiss,10.621,47.056,20
28,Imsterberg,10.698,47.206,24
55,Bichlbach,10.79,47.419,24
33,Bichlbächle,10.79,47.399,20
24,Gunglgrün,10.72,47.225,20
160,Prutz,10.666,47.076,33
55,Tarrenz,10.763,47.262,20
33,Obtarrenz,10.775,47.279,20
33,Lähn,10.836,47.418,24
134,Wenns,10.732,47.169,55
28,Karrösten,10.767,47.229,20
66,Arzl im Pitztal,10.761,47.207,24
39,Kaunerberg,10.708,47.082,24
24,Unterleins,10.755,47.179,20
33,Jerzens,10.747,47.152,20
94,Nassereith,10.838,47.315,46
28,Lermoos,10.883,47.401,20
24,Roppen,10.815,47.218,24
28,Feichten,10.749,47.028,20
192,Ehrwald,10.92,47.399,94
55,Ötztal-Bahnhof,10.855,47.235,20
94,Zaunhof,10.81,47.111,33
28,Sautens,10.862,47.207,20
33,Haiming,10.883,47.256,24
134,Oetz,10.896,47.203,39
160,Silz,10.928,47.266,79
39,Sankt Leonhard im Pitztal,10.848,47.066,39
28,Habichen,10.908,47.19,20
66,Tumpen,10.906,47.173,24
28,Mötz,10.955,47.282,20
39,Wald,10.94,47.229,24
112,Neuruhr,10.867,47.022,33
46,Stams,10.983,47.275,24
39,Köfels,10.917,47.12,20
134,Umhausen,10.927,47.139,55
28,Wildermieming,11.005,47.32,20
39,Plangeross,10.868,46.986,20
94,Mandarfen,10.87,46.968,79
39,Winklen,10.944,47.101,20
55,Rietz,11.029,47.287,24
28,Niederthai,10.967,47.128,20
24,Dorf,10.957,47.089,20
112,Kühtai,11.025,47.214,46
331,Telfs,11.076,47.311,192
66,Huben,10.969,47.043,24
134,Vent,10.916,46.863,66
79,Leutasch,11.145,47.37,33
33,Gries,11.02,47.072,28
46,Flaurling,11.124,47.291,28
39,Heiligkreuz,10.975,46.91,28
230,Sölden,11.007,46.968,79
112,Seefeld in Tirol,11.184,47.328,46
28,Hatting,11.167,47.278,24
66,Zwieselstein,11.027,46.938,24
160,Praxmar,11.134,47.15,39
39,Gries im Sellrain,11.154,47.196,33
24,Gießenbach,11.236,47.378,20
24,Inzing,11.197,47.274,20
55,Reith bei Seefeld,11.209,47.3,20
160,Untergurgl,11.04,46.895,55
39,Pirchhütt,11.032,46.875,39
79,Scharnitz,11.261,47.389,46
28,Ranggen,11.21,47.258,20
79,Sellrain,11.218,47.215,24
79,Zirl,11.244,47.272,79
28,Oberperfuss,11.249,47.244,20
24,Kematen in Tirol,11.272,47.255,20
46,Axams,11.279,47.23,24
160,Ranalt,11.228,47.035,66
55,Axamer Lizum,11.303,47.196,28
66,Krößbach,11.267,47.077,28
24,Neu-Götzens,11.337,47.233,20
24,Milders,11.283,47.099,20
55,Neustift im Stubaital,11.308,47.11,24
160,Hinterriß,11.467,47.474,112
28,Natters,11.376,47.234,20
28,Kampl,11.336,47.125,20
24,Raitis,11.378,47.222,20
2042,Innsbruck,11.403,47.268,822
33,Kreith,11.38,47.204,20
66,Mieders,11.381,47.168,24
33,Obertal,11.331,47.028,20
33,Schönberg im Stubaital,11.403,47.186,20
55,Patsch,11.415,47.203,24
94,Gschnitz,11.349,47.045,39
33,Aldrans,11.446,47.252,24
39,Rum,11.461,47.287,28
28,Sistrans,11.448,47.239,20
24,Ampass,11.461,47.262,20
55,Steinach am Brenner,11.467,47.093,55
24,Hainzenberg,11.898,47.218,20
28,Oberndorf,12.212,47.617,20
24,Wald im Pinzgau,12.226,47.247,24
66,Weerberg,11.667,47.299,33
24,Fanghaus,11.672,47.271,20
46,Steinberg am Rofan,11.8,47.513,46
55,Innerellbögen,11.454,47.166,28
46,Trins,11.419,47.083,28
66,Hintertux,11.681,47.115,39
39,Münster,11.833,47.421,28
55,Schlitters,11.838,47.375,24
28,Rinn,11.502,47.249,20
134,Landl,12.033,47.588,39
46,Obernberg am Brenner,11.422,47.017,33
94,Ebbs,12.215,47.63,39
66,Sankt Martin,11.554,47.32,20
112,Kelchsau,12.134,47.39,28
112,Söll,12.191,47.504,46
66,Tulfes,11.531,47.257,24
46,Außerweg,11.474,47.121,24
55,Königsleiten,12.122,47.251,28
134,Krimml,12.174,47.222,28
79,Achenwald,11.671,47.567,33
66,Oberaurach,12.433,47.418,24
160,Mühlau,12.551,47.594,66
24,Volderwildbad,11.561,47.251,20
685,Mariahilf,12.298,46.914,476
46,Sankt Jakob in Haus,12.562,47.501,20
33,Simling,12.796,48.061,20
192,Gries am Brenner,11.483,47.04,39
46,Sankt Jodok am Brenner,11.502,47.062,20
230,Achenkirch,11.705,47.527,79
160,Navis,11.54,47.13,39
94,Pertisau,11.695,47.44,33
24,Weer,11.646,47.304,20
39,Schmirn,11.563,47.08,39
39,Kolsassberg,11.653,47.282,20
28,Vomp,11.68,47.342,20
24,Fiecht,11.694,47.358,20
46,Pill,11.683,47.321,20
66,Madern,11.602,47.107,24
24,Stans,11.717,47.37,20
192,Schwaz,11.708,47.346,112
28,Außerweerberg,11.703,47.305,20
33,Eben am Achensee,11.759,47.415,20
94,Jenbach,11.769,47.395,39
33,Hochgallzein,11.774,47.367,20
24,Maurach,11.79,47.383,20
46,Strass im Zillertal,11.826,47.396,20
79,Hochfügen,11.777,47.271,46
160,Tux,11.733,47.16,79
33,Aschau,11.889,47.51,20
55,Brandenberg,11.894,47.49,33
33,Reith im Alpbachtal,11.878,47.417,20
24,Fügen,11.849,47.346,20
46,Moosen,11.907,47.468,20
24,Hygna,11.889,47.401,20
28,Radfeld,11.91,47.447,20
24,Hart im Zillertal,11.873,47.35,20
94,Finkenberg,11.825,47.155,33
94,Stumm,11.887,47.291,33
112,Dornauberg,11.808,47.1,46
66,Alpbach,11.942,47.399,33
33,Laimach,11.865,47.217,20
55,Schönau,11.993,47.508,24
79,Zell am Ziller,11.88,47.234,28
55,Aschau,11.895,47.265,20
24,Mayrhofen,11.863,47.167,20
24,Hollenzen,11.872,47.184,20
28,Haslach,11.906,47.251,20
55,Inneralpbach,11.96,47.373,20
46,Brandberg,11.898,47.168,24
33,Angerberg,12.041,47.507,20
24,Mühltal,12.026,47.428,20
24,Niederbreitenbach,12.08,47.537,20
66,Wildschönau,12.043,47.439,33
230,Wörgl,12.066,47.486,79
66,Auffach,12.036,47.408,24
24,Vorderthiersee,12.118,47.594,24
55,Kirchbichl,12.091,47.514,24
33,Schwarzenau,12.05,47.392,20
192,Erl,12.18,47.681,39
28,Niederau,12.089,47.449,24
24,Mühlgraben,12.185,47.669,20
33,Bruckhäusl,12.112,47.488,20
79,Schwoich,12.141,47.544,28
66,Gmünd,12.004,47.211,66
55,Erlerberg,12.224,47.69,20
33,Eichelwang,12.191,47.601,20
33,Gerlos,12.034,47.226,20
28,Niederndorf,12.214,47.65,20
46,Itter,12.144,47.47,20
46,Penningberg,12.128,47.425,20
28,Reith,12.241,47.663,20
66,Hopfgarten im Brixental,12.159,47.449,55
28,Rettenschöss,12.27,47.658,20
24,Hauning,12.214,47.509,20
24,Durchholzen,12.288,47.64,20
39,Scheffau am Wilden Kaiser,12.251,47.528,28
33,Westendorf,12.215,47.431,33
66,Walchsee,12.318,47.652,46
55,Rettenbach,12.219,47.392,33
28,Brixen im Thale,12.249,47.451,20
79,Kirchbichl,12.298,47.507,55
39,Niederbichl,12.376,47.65,20
28,Prama,12.342,47.518,24
160,Kössen,12.405,47.67,79
55,Schwendt,12.391,47.632,20
28,Kirchberg in Tirol,12.317,47.446,28
55,Reith bei Kitzbühel,12.341,47.476,24
112,Gründau,12.307,47.389,46
24,Münichau,12.353,47.464,20
46,Neukirchen am Großvenediger,12.275,47.252,39
46,Oberndorf in Tirol,12.385,47.5,20
160,Kitzbühel,12.39,47.448,66
192,Sankt Johann in Tirol,12.425,47.522,134
55,Wohlmuting,12.464,47.598,20
79,Kirchdorf in Tirol,12.448,47.558,28
28,Furth,12.449,47.545,20
276,Bramberg am Wildkogel,12.345,47.275,134
39,Erpfendorf,12.479,47.575,20
24,Filzen,12.414,47.389,24
39,Wiesenegg-Grüntal,12.431,47.4,39
39,Astach,12.413,47.355,39
134,Jochbergwald,12.407,47.335,46
28,Erlsbach,12.261,46.917,20
112,Sankt Radegund,12.762,48.097,39
46,Sankt  Adolari,12.567,47.557,24
24,Unterwasser,12.579,47.582,20
33,Wanghausen,12.816,48.147,20
94,Fieberbrunn,12.545,47.476,66
55,Sankt Ulrich am Pillersee,12.574,47.529,46
192,Duttendorf,12.839,48.162,79
46,Mittersill,12.483,47.28,46
24,Prägraten am Großvenediger,12.377,47.017,24
66,Heutal,12.652,47.661,46
28,Tarsdorf,12.824,48.081,28
79,Lengau,12.536,47.373,33
66,Strub,12.624,47.582,39
55,Überackern,12.875,48.193,24
112,Ostermiething,12.831,48.045,55
33,Kalkstein,12.319,46.806,28
39,Feistritz,12.369,46.913,33
24,Wilhelmsdorf,12.523,47.276,20
28,Stuhlfelden,12.529,47.29,24
28,Unterwarming,12.611,47.486,20
39,Hochburg,12.878,48.13,24
39,Hochfilzen,12.618,47.469,39
28,Riedersbach,12.849,48.023,20
33,Hinterglemm,12.595,47.378,24
112,Innervillgraten,12.369,46.808,46
39,Au,12.714,47.604,20
66,Wals,12.968,47.791,33
112,Lofer,12.692,47.586,66
28,Franking,12.912,48.053,20
66,Schwand im Innkreis,12.968,48.178,46
55,Reith,12.939,48.095,24
94,Berg,12.515,47.052,28
24,Utzenaich,13.46,48.276,20
28,Hof,13.485,48.169,20
24,Patschgsiedlung,13.129,47.104,20
28,Gundertshausen,12.992,48.089,20
79,Stubach,12.565,47.262,20
28,Stockham,12.984,48.018,20
66,Virgen,12.459,47.005,46
79,Sankt Veit in Defereggen,12.426,46.925,66
46,Viehhofen,12.732,47.367,39
24,Bogenhofen,13.112,48.266,20
160,Niederland,12.736,47.658,55
28,Steinbach,13.012,47.974,20
39,Lenzing,12.816,47.447,20
66,Reit,12.726,47.626,28
39,Tobersbach,12.586,47.286,33
28,Bachwinkl,12.852,47.447,20
39,Sankt Martin bei Lofer,12.705,47.566,20
66,Gilgenberg am Weilhart,12.937,48.131,39
55,Bruck an der Großglocknerstraße,12.823,47.289,24
134,Saalbach,12.637,47.392,66
39,Maria Alm am Steinernen Meer,12.904,47.406,33
55,Scherschham,13.175,48.021,20
33,Werberg,12.923,48.079,20
39,Sankt Pantaleon,12.895,48.008,20
33,Untereching,12.882,47.975,28
24,Schwaighofen,13.136,47.831,20
24,Sankt Georgen bei Obernberg am Inn,13.334,48.292,20
24,Schwendt,13.456,48.556,20
24,Schwöll,13.231,47.994,20
28,Koppl,13.156,47.809,20
46,Spieglern,12.962,48.157,20
33,Loidersdorf,12.912,48.03,20
79,Straßwalchen,13.254,47.981,28
33,Gattern,13.481,48.544,20
24,Sankt Florian am Inn,13.442,48.441,20
33,Mettmach,13.344,48.172,24
28,Watzlberg,13.299,47.994,24
39,Hareth,13.527,48.545,20
28,Hingsham,13.531,48.473,20
79,Aurolzmünster,13.453,48.248,33
55,Mühlbach am Hochkönig,13.127,47.377,39
33,Tumeltsham,13.496,48.231,20
28,Sankt Kollmann,13.465,48.121,20
24,Sankt Roman,13.611,48.482,24
24,Rangersdorf,12.962,46.863,20
28,Vichtenstein,13.65,48.529,20
39,Lichtenberg,13.422,47.928,24
94,Bischofshofen,13.217,47.418,55
39,Lafen,13.108,47.151,20
134,Sankt Gilgen,13.367,47.768,33
46,Taiskirchen im Innkreis,13.573,48.264,39
822,Sankt Johann im Pongau,13.204,47.35,276
33,Kenading,13.636,48.412,20
28,Au,13.404,47.816,20
24,Jagern,13.631,48.377,20
46,Ranshofen,13.017,48.232,20
192,Thalgau,13.332,47.595,112
24,Geiersberg,13.581,48.2,20
46,Sankt Wolfgang im Salzkammergut,13.449,47.738,46
134,Schneiderau,12.601,47.205,66
39,Gampern,13.553,47.988,28
66,Unterach,13.488,47.805,55
28,Panidorf,13.854,48.711,20
46,Hackenbuch,12.949,48.044,20
39,Parschallen,13.525,47.859,20
46,Außervillgraten,12.427,46.785,28
39,Strobl,13.48,47.717,20
79,Julbach,13.867,48.659,55
28,Prossegg,12.527,47.016,20
33,Hofkirchen im Mühlkreis,13.81,48.483,33
55,Lenzing,13.61,47.976,20
112,Annaberg im Lammertal,13.432,47.514,39
39,Hinterkleinarl,13.327,47.258,20
66,Ibm,12.964,48.066,20
79,Wolfsegg am Hausruck,13.674,48.107,33
33,Feistritz,13.124,46.736,24
276,Sillian,12.418,46.748,134
33,Igelsberg,12.685,47.379,28
33,Hatzing,13.842,48.372,20
39,Reitsteg,13.466,47.436,20
79,Lembach im Mühlkreis,13.895,48.495,66
24,Lebertsham,13.736,48.049,20
39,Niedernsill,12.65,47.28,39
46,Haibach ob der Donau,13.917,48.41,46
112,Weißbach bei Lofer,12.754,47.522,33
39,Desselbrunn,13.771,48.022,24
192,Matrei in Osttirol,12.537,47.002,134
24,Hofern,13.822,48.089,24
24,Handenberg,13.008,48.134,24
33,Kletzenmarkt,13.905,48.248,20
33,Fellbach,13.325,46.753,20
33,Gleiming,13.593,47.389,20
66,Tröpolach,13.276,46.615,55
112,Zederhaus,13.507,47.154,79
28,Eggelsberg,12.99,48.076,24
39,Sankt Lorenzen im Gitschtal,13.305,46.67,28
46,Krenglbach,13.956,48.204,20
46,Finstergrube,13.542,47.132,20
46,Niederarnsdorf,12.952,47.968,20
33,Fraham,14.029,48.283,20
28,Wimpassing,13.986,48.164,20
28,Hopfgarten in Defereggen,12.52,46.922,28
24,Lacken,14.089,48.382,20
33,Seblas,12.548,46.985,20
112,Oberndorf bei Salzburg,12.945,47.94,39
33,Asten,12.973,48.004,20
28,Feichten,13.02,48.119,20
28,Kimmelsdorf,12.995,48.054,20
24,Elling,12.989,48.037,20
28,Haselreith,13.015,48.102,20
28,Neukirchen an der Enknach,13.047,48.18,28
39,Aching,13.073,48.234,20
33,Dietzing,13.05,48.165,20
66,Leogang,12.758,47.438,33
94,Feld,12.559,46.96,20
24,Sankt Peter am Hart,13.096,48.255,24
28,Hummersdorf,12.696,47.279,20
24,Sankt Oswald,12.479,46.738,20
39,Piesendorf,12.717,47.292,24
94,Altheim,13.038,48.072,66
55,Strassen,12.489,46.75,39
39,Ottendorf,13.069,48.142,33
24,Hart,13.119,48.242,20
46,Michaelbeuern,13.03,48.02,20
134,Großgmain,12.91,47.726,55
24,Nußdorf am Haunsberg,13.008,47.959,24
46,Kartitsch,12.497,46.726,20
24,Unterpeischlach,12.592,46.93,24
24,Landerting,13.075,48.095,20
46,Oichten,13.056,48.042,20
33,Acharting,12.997,47.896,20
28,Abfaltersbach,12.529,46.756,20
28,Dorfleiten,13.017,47.925,28
55,Mining,13.162,48.277,33
24,Lahntal,12.8,47.386,20
24,Reit,13.051,47.984,20
55,Kaprun,12.759,47.273,39
134,Mauerkirchen,13.137,48.191,46
28,Mitterhofen,12.803,47.375,20
46,Kals am Großglockner,12.647,47.002,46
39,Lesach,12.64,46.984,20
33,Siezenheim,12.984,47.81,20
33,Anthering,13.013,47.88,28
24,Elling,13.164,48.253,20
55,Berndorf bei Salzburg,13.062,47.996,24
46,Anras,12.556,46.772,39
66,Höfen,13.128,48.151,24
28,Zellermoos,12.776,47.292,20
94,Maishofen,12.806,47.36,33
33,Wagenham,13.111,48.095,20
28,Muntigl,13.014,47.854,20
28,Dietraching,13.165,48.22,20
134,Saalfelden am Steinernen Meer,12.842,47.427,134
24,Perwang am Grabensee,13.084,48.007,20
55,Auerbach,13.107,48.065,20
28,Moosbach,13.165,48.206,20
55,Bsuch,12.834,47.398,20
39,Weng im Innkreis,13.179,48.234,28
24,Wiesenlehen,12.816,47.341,20
66,Oberleibnig,12.637,46.913,28
24,Gerling,12.836,47.385,20
24,Seeham,13.077,47.968,20
33,Weikertsham,13.101,48.024,20
28,Thumersbach,12.818,47.33,20
24,Fürstenbrunn,12.993,47.745,24
66,Untermödlham,13.061,47.904,24
46,Obertrum am See,13.077,47.937,46
33,Mühlheim am Inn,13.218,48.282,24
46,Schalchen,13.157,48.12,20
28,Mitterhof,13.089,47.949,20
33,Lengfelden,13.049,47.846,20
986,Salzburg,13.034,47.81,685
39,Mittewald,12.602,46.773,24
24,Pfaffstätt,13.146,48.077,20
79,Mattsee,13.105,47.97,28
24,Schlaiten,12.653,46.877,20
39,Elixhausen,13.065,47.869,33
28,Jeging,13.147,48.049,20
28,Pichl,12.83,47.276,20
94,Altheim,13.232,48.25,94
39,Untertreubach,13.211,48.195,24
46,Grödig,13.035,47.741,33
39,Fusch an der Großglocknerstraße,12.826,47.227,39
160,Obertilliach,12.615,46.71,66
55,Munderfing,13.181,48.068,24
192,Ferleiten,12.812,47.17,46
24,Mayrwies,13.087,47.835,20
28,Grünau,13.246,48.222,20
33,Reitsham,13.152,47.981,20
46,Maria Schmolln,13.218,48.139,33
39,Ainet,12.691,46.865,20
24,Kirchdorf am Inn,13.282,48.294,24
94,Thal-Aue,12.661,46.786,46
46,Esch,13.103,47.847,20
24,Edt,13.253,48.207,20
24,Anif,13.067,47.748,20
39,Schleedorf,13.153,47.956,28
24,Tödtleinsdorf,13.149,47.932,20
24,Lochen am See,13.181,48.008,24
24,Helming,13.154,47.942,20
46,Guggenthal,13.104,47.817,20
134,Eugendorf,13.126,47.869,46
24,Glasenbach,13.088,47.77,20
33,Bannberg,12.687,46.801,20
46,Elsbethen,13.087,47.76,28
28,Polling im Innkreis,13.28,48.232,20
46,Geinberg,13.294,48.265,33
39,Wallersee-Zell,13.163,47.919,20
24,Fraham,13.277,48.191,20
46,Höhnhart,13.267,48.166,20
39,Sankt Jakob am Thurn,13.095,47.74,20
24,Tannberg,13.199,47.989,20
55,Obernberg am Inn,13.336,48.322,55
24,Högmoos,12.915,47.292,24
66,Puch bei Hallein,13.091,47.717,24
39,Oberlienz,12.729,46.844,33
33,Untertilliach,12.678,46.703,33
28,Außerleiten,13.281,48.145,20
28,Freiling,13.335,48.262,20
66,Henndorf am Wallersee,13.188,47.899,33
94,Aspach,13.305,48.186,46
33,Neuhofen,13.174,47.858,20
33,Friedburg,13.242,48.02,28
39,Wildenau,13.317,48.206,20
33,Sankt Johann am Walde,13.285,48.121,33
112,Heiligenblut am Großglockner,12.84,47.04,112
24,Mörschwang,13.366,48.304,20
39,Leisach,12.75,46.81,20
39,Gurten,13.343,48.243,28
94,Neumarkt am Wallersee,13.225,47.947,39
28,Schalkham,13.222,47.934,20
28,Grafendorf,12.771,46.844,20
24,Oelling,13.215,47.909,20
28,Plainfeld,13.185,47.834,20
33,Taxenbach,12.964,47.296,33
24,Adnet,13.13,47.697,20
24,Neufahrn,13.223,47.921,20
24,Schärding,13.437,48.453,20
39,Dienten am Hochkönig,13.003,47.384,39
24,Steindorf,13.24,47.961,20
46,Antiesenhofen,13.398,48.344,33
28,Wernstein am Inn,13.464,48.508,20
46,Weilbach,13.372,48.277,28
24,Storach,13.141,47.707,20
112,Suben,13.431,48.411,20
46,Vorderschroffenau,13.187,47.799,20
46,Bad Vigaun,13.135,47.665,20
33,Rojach,12.869,47.023,20
94,Frauschereck,13.312,48.096,20
24,Maria Luggau,12.736,46.705,24
24,Grubmühl,13.329,48.132,20
28,Anzberg,13.5,48.56,20
24,Kirchheim im Innkreis,13.361,48.21,24
28,Hart,13.407,48.317,20
28,Itzenthal,13.379,48.245,20
39,Großweiffendorf,13.345,48.151,20
46,Niederhof,13.158,47.689,20
66,Schneegattern,13.296,48.025,39
66,Schardenberg,13.497,48.52,39
79,Hof bei Salzburg,13.216,47.82,55
28,Putschall,12.872,46.988,20
28,Irrsdorf,13.277,47.967,20
24,Wippenham,13.381,48.221,20
24,Embach,13.003,47.29,20
28,Apriach,12.886,47.009,20
28,Sankt Marienkirchen bei Schärding,13.45,48.387,28
24,Hundsdorf,12.983,47.241,20
24,Jadorf,13.147,47.638,20
33,Rainding,13.467,48.423,20
192,Hinding,13.527,48.573,24
24,Wallester,13.273,47.934,24
134,Kuchl,13.147,47.626,24
24,Hundsdorf,13.019,47.313,20
28,Debant,12.818,46.832,20
66,Wörth,12.975,47.197,28
39,Ort im Innkreis,13.434,48.315,20
112,Rauris,12.994,47.23,66
66,Ramerding,13.388,48.19,20
46,Gaißau,13.195,47.711,33
33,Berg,13.419,48.263,20
46,Thalgau,13.254,47.842,20
94,Bucheben,12.974,47.16,55
28,Asing,13.532,48.532,20
28,Stelzen,13.365,48.112,28
160,Sankt Martin im Innkreis,13.438,48.294,66
24,Rabenschwand,13.302,47.955,20
134,Döllach,12.897,46.973,55
66,Sankt Lorenzen im Lesachtal,12.783,46.701,66
24,Iselsberg,12.845,46.839,20
24,Kobernaußen,13.376,48.124,20
55,Lend,13.042,47.3,46
24,Sagritz,12.903,46.961,20
55,Golling an der Salzach,13.168,47.597,55
24,Wald,13.248,47.791,24
24,Schmidham,13.399,48.162,20
28,Strubau,13.179,47.617,20
39,Schwandt,13.323,47.97,20
28,Gödnach,12.848,46.819,20
79,Vordersee,13.24,47.761,33
24,Egg,13.267,47.823,20
55,Lavant,12.841,46.797,20
28,Forstern,13.343,48.009,20
39,Winklern,12.877,46.87,24
33,Forchtenau,13.452,48.264,20
46,Sankt Koloman,13.203,47.642,28
33,Mehrnbach,13.434,48.208,28
28,Mayrhof,13.492,48.351,20
55,Esternberg,13.571,48.545,39
24,Weng,13.079,47.33,20
39,Obermühlham,13.352,47.994,33
66,Hauzing,13.537,48.452,28
46,Zell am Moos,13.318,47.902,39
79,Hof,13.508,48.364,33
79,Mörtschach,12.917,46.921,39
66,Taufkirchen an der Pram,13.536,48.411,28
94,Waldzell,13.428,48.136,46
55,Oberasch,13.265,47.733,24
66,Münzkirchen,13.57,48.484,66
33,Tenneck,13.17,47.493,20
39,Hofmark,13.099,47.318,28
46,Haslau,13.35,47.925,20
39,Pyrawang,13.606,48.563,20
46,Wetzendorf,13.591,48.52,20
55,Lambrechten,13.515,48.318,33
24,Lengberg,12.89,46.797,20
28,Unterberg,13.083,47.257,20
46,Fuschl am See,13.307,47.796,24
39,Neuhofen im Innkreis,13.473,48.189,20
33,Werfen,13.184,47.475,20
230,Ried im Innkreis,13.483,48.208,230
33,Hintersee,13.286,47.715,20
79,Lainach,12.93,46.854,46
46,Hatz,13.313,47.771,20
33,Hauberg,13.353,47.868,20
24,Schwarzindien,13.344,47.841,20
39,Pötting,13.518,48.267,24
24,Hütt,13.629,48.545,20
112,Nikolsdorf,12.909,46.785,55
46,Ludham,13.6,48.462,20
55,Dorfgastein,13.108,47.243,55
66,Fornach,13.429,48.023,28
46,Pattigham,13.484,48.155,28
46,Luggau,13.102,47.22,20
192,Andorf,13.574,48.372,79
79,Pfarrwerfen,13.205,47.458,33
33,Wiesenberg,13.543,48.288,20
66,Sankt Lorenz,13.356,47.823,24
192,Frankenmarkt,13.424,47.986,39
28,Birnbaum,12.885,46.685,24
33,Gallwies,13.1,47.186,20
46,Kasten,13.654,48.543,46
33,Oberscheffau,13.265,47.579,33
33,Großschörgern,13.582,48.356,20
28,Sigharting,13.598,48.396,20
24,Laderding,13.111,47.198,20
55,Unterpirkach,12.926,46.758,20
28,Hilprigen,13.474,48.082,20
55,Sportgastein,13.059,47.061,46
112,Bad Hofgastein,13.107,47.171,46
39,Ginzldorf,13.652,48.501,20
28,Peterskirchen,13.547,48.238,20
24,Mitterndorf,13.626,48.423,20
24,Tresdorf,12.993,46.875,20
28,Innerhörgersteig,13.477,48.048,20
24,Roith,13.543,48.207,20
94,Frankenburg am Hausruck,13.492,48.069,66
39,Mitterberghütten,13.219,47.398,20
24,Hohenzell,13.543,48.193,24
24,Powang,13.427,47.896,20
33,Grossenschwandt,13.423,47.884,20
24,Urreiting,13.217,47.38,20
28,Maschl,13.212,47.368,20
39,Scharfling,13.39,47.8,20
24,Mösendorf,13.467,47.987,20
24,Sankt Jakob im Lesachtal,12.928,46.684,24
24,Loibichl,13.405,47.831,24
33,Weng,13.26,47.461,24
66,Kopfing im Innkreis,13.658,48.441,33
24,Altmannsdorf,13.583,48.252,20
39,Vöcklamarkt,13.486,48.002,33
55,Innerfragant,13.058,46.963,39
55,Oberwang,13.433,47.868,39
33,Hipping,13.466,47.949,20
55,Zipf,13.501,48.034,24
28,Schmidham,13.477,47.973,20
24,Stadl,13.686,48.493,20
28,Pöham,13.258,47.431,24
39,Enzenkirchen,13.646,48.389,24
55,Böckstein,13.118,47.092,20
24,Zwickenberg,12.981,46.764,24
230,Stall,13.036,46.888,94
276,Bad Gastein,13.134,47.116,160
55,Schied,13.197,47.266,24
112,Eberschwang,13.561,48.155,46
55,Zell an der Pram,13.63,48.317,28
66,Raab,13.646,48.353,39
24,Ort,13.43,47.807,20
66,Pram,13.606,48.235,24
39,Niederaigen,13.193,47.219,20
33,Riedau,13.634,48.302,20
24,Au,13.218,47.278,20
230,Großarl,13.201,47.237,66
28,Oberprenning,13.603,48.221,20
24,Falkenstein,13.414,47.75,20
28,Hackendorf,13.704,48.468,20
94,Sankt Georgen im Attergau,13.491,47.933,79
28,Zeiling,13.528,48.019,20
24,Kötschachtal,13.162,47.127,20
24,Kehlhof,13.348,47.575,20
66,Abtenau,13.346,47.564,24
24,Laas,12.988,46.694,20
55,Ampflwang,13.566,48.093,39
55,Au,13.451,47.805,20
55,Engelhartszell,13.732,48.505,20
28,Bierbaum,13.537,48.002,20
46,Irschen,13.024,46.756,33
39,Oberaschau,13.474,47.841,24
33,Gschwendt,13.427,47.722,20
39,Sankt Willibald,13.687,48.361,20
160,Schwarzenberg am Böhmerwald,13.835,48.731,55
28,Piesdorf,13.535,47.975,20
192,Sankt Aegidi,13.737,48.479,66
39,Neustift im Mühlkreis,13.757,48.53,39
46,Hüttau,13.307,47.417,39
230,Kötschach,13.004,46.679,112
134,Oberkappel,13.772,48.553,20
33,Mauthen,12.999,46.664,20
46,Puchkirchen,13.572,48.044,33
46,Stocker,13.392,47.594,24
24,Altschwendt,13.688,48.323,24
33,Kimpling,13.67,48.269,24
28,Kemating,13.546,47.96,20
33,Wagrain,13.295,47.334,33
66,Haag am Hausruck,13.641,48.185,39
112,Flattach,13.13,46.936,46
24,Dorf,13.766,48.49,20
39,Nußdorf am Attersee,13.522,47.883,24
46,Lammertal,13.365,47.497,24
24,Attersee,13.536,47.914,20
33,Englfing,13.615,48.109,24
33,Wendling,13.664,48.232,20
39,Geboltskirchen,13.633,48.154,24
39,Dorf,13.761,48.454,20
28,Niedernfritz,13.345,47.424,20
24,Altenhof,13.782,48.504,20
28,Pehring,13.698,48.293,20
33,Thomasroith,13.618,48.081,24
24,Misling,13.517,47.83,20
66,Wolfau,13.246,47.169,55
94,Mallnitz,13.172,46.988,79
24,Obererleinsbach,13.723,48.339,20
28,Straß bei Sankt Sixt,13.761,48.432,20
33,Stappitz,13.18,47.004,20
112,Natternbach,13.749,48.397,33
39,Aschau,13.715,48.306,20
24,Ungenach,13.613,48.048,24
24,Redl,13.633,48.096,20
28,Amesedt,13.817,48.551,20
46,Seitelschlag,13.87,48.682,20
134,Sankt Martin am Tennengebirge,13.38,47.465,46
79,Kollerschlag,13.84,48.606,46
24,Langenpeuerbach,13.743,48.356,20
33,Mayrdörfl,13.34,47.359,24
112,Dellach,13.082,46.741,55
46,Seewalchen am Attersee,13.586,47.954,20
46,Mollmannsreith,13.834,48.574,24
28,Untergermating,13.772,48.418,20
24,Lungötz,13.401,47.495,20
94,Innernsee,13.693,48.214,24
28,Hehenberg,13.707,48.244,20
33,Schlag,13.814,48.512,24
24,Untergallaberg,13.606,47.99,20
55,Weyregg am Attersee,13.571,47.902,46
134,Seefeld,13.547,47.839,33
46,Freundorf,13.893,48.704,33
28,Seeberg,13.58,47.919,20
28,Timelkam,13.614,48.002,24
33,Teucht,13.762,48.369,20
94,Kleinarl,13.319,47.278,46
79,Neumarkt im Hausruckkreis,13.728,48.274,55
28,Mühlbrenning,13.747,48.318,20
39,Weißenbach am Attersee,13.54,47.8,24
24,Ottnang,13.661,48.097,20
24,Gröming,13.682,48.148,24
28,Wesenufer,13.808,48.459,20
46,Räuflach,13.189,46.939,33
28,Weibern,13.704,48.186,28
55,Aichberg,13.808,48.445,33
55,Dellach,13.08,46.662,46
33,Aigen,13.52,47.717,20
134,Peuerbach,13.773,48.343,79
66,Eben im Pongau,13.395,47.408,24
55,Eckartsroith,13.76,48.302,20
24,Bruck an der Aschach,13.773,48.328,20
24,Reitdorf,13.388,47.372,20
28,Peilstein im Mühlviertel,13.894,48.618,28
55,Schmidham,13.67,48.054,24
24,Berg,13.133,46.748,20
24,Taufkirchen an der Trattnach,13.749,48.247,20
39,Feuersang,13.389,47.359,20
24,Hofkirchen an der Trattnach,13.741,48.22,24
24,Friesam,13.701,48.118,20
39,Trattberg,13.63,47.935,24
39,Kirchbach,13.912,48.636,20
24,Viertlbach,13.74,48.197,20
24,Oberregau,13.655,47.987,20
24,Andling,13.81,48.367,20
33,Flachau,13.395,47.342,20
24,Grafendorf,13.112,46.659,20
46,Aistersheim,13.741,48.187,20
46,Putzleinsdorf,13.874,48.516,20
46,Atzbach,13.704,48.084,20
33,Stallhofen,13.229,46.922,20
39,Hölzing,13.838,48.406,24
79,Altenmarkt im Pongau,13.424,47.378,79
33,Haiden,13.565,47.718,24
79,Gaspoltshofen,13.737,48.142,55
24,Heiligenberg,13.822,48.354,20
33,Schindlau,13.949,48.662,20
66,Sarleinsbach,13.905,48.548,46
24,Witzersdorf,13.88,48.484,20
28,Aurach am Hongar,13.674,47.953,20
33,Rutzersdorf,13.924,48.577,24
112,Gosau,13.524,47.58,55
33,Niederkappel,13.881,48.465,24
39,Greifenburg,13.182,46.75,39
66,Teuchl,13.234,46.872,20
28,Mittertal,13.523,47.567,20
24,Hintertal,13.519,47.555,20
24,Neuberg,13.477,47.452,24
24,Kasten,13.678,47.942,20
55,Oepping,13.945,48.604,24
33,Eckersdorf,13.883,48.436,20
46,Hausleiten,13.845,48.341,39
24,Radstadt,13.46,47.388,20
24,Schlägl,13.962,48.635,20
24,Reisach,13.154,46.649,20
46,Attnang,13.722,48.021,28
160,Aigen im Mühlkreis,13.971,48.646,55
94,Penk,13.264,46.902,24
24,Puchheim,13.719,48.008,20
24,Obergallspach,13.794,48.194,20
33,Michaelnbach,13.831,48.287,33
33,Preising,13.713,47.989,20
28,Napplach,13.263,46.889,20
33,Rutzenmoos,13.71,47.973,28
33,Fürling,13.935,48.531,20
79,Sankt Agatha,13.878,48.386,20
33,Meggenhofen,13.797,48.181,20
24,Katzing,13.97,48.615,20
24,Waisach,13.207,46.739,20
24,Freiling,13.875,48.368,20
33,Niederthalheim,13.768,48.099,33
66,Gallspach,13.814,48.206,24
33,Niederholzham,13.765,48.069,20
28,Taufel,13.688,47.862,20
28,Bachmanning,13.796,48.131,20
94,Zauchensee,13.457,47.293,39
66,Kirchbach,13.185,46.642,39
39,Pollham,13.85,48.26,20
24,Deutenham,13.752,48.011,20
33,Fürling,13.987,48.59,20
33,Roith,13.642,47.727,20
55,Filzmoos,13.522,47.433,39
46,Kröß,13.613,47.653,20
24,Gstattersiedlung,13.494,47.364,20
33,Reindlmühl,13.714,47.896,20
33,Großkufhaus,13.724,47.918,24
33,Kirchberg ob der Donau,13.934,48.443,20
46,Hörhag,13.946,48.471,20
39,Eck,13.635,47.693,20
276,Rohrbach,13.99,48.574,134
160,Steinfeld,13.252,46.759,112
94,Neukirchen,13.714,47.875,28
24,Haselbach,13.965,48.501,20
39,Haiden,13.937,48.427,20
28,Sankt Thomas,13.881,48.285,28
33,Mitterweißenbach,13.662,47.742,28
33,Unterkolbnitz,13.306,46.875,24
39,Reith,13.912,48.358,24
28,Altenfelden,13.968,48.486,28
46,Offenhausen,13.836,48.155,39
55,Prambachkirchen,13.904,48.318,33
46,Arnreit,13.993,48.526,20
33,Schlüßlberg,13.872,48.217,24
55,Sankt Oswald bei Haslach,14.032,48.618,33
24,Pennewang,13.842,48.128,20
28,Sulzbach,13.871,48.2,20
112,Weißbriach,13.254,46.69,46
33,Untertauern,13.511,47.304,28
33,Waidegg,13.232,46.634,24
94,Rotgülden,13.434,47.112,39
46,Frindorf,14.017,48.55,20
33,Forstau,13.549,47.379,24
24,Gajach,13.29,46.751,20
39,Altmünster,13.767,47.902,20
46,Ohlsdorf,13.792,47.961,20
28,Kleinzell im Mühlkreis,13.993,48.457,24
33,Haslach an der Mühl,14.04,48.576,28
24,Eck,13.777,47.915,20
33,Untermühl,13.982,48.425,20
24,Großkrottendorf,13.875,48.154,20
28,Roitham,13.823,48.024,28
55,Mandling,13.572,47.405,28
66,Langwies,13.723,47.773,24
46,Mühldorf,13.349,46.858,20
46,Stroheim,13.956,48.337,28
55,Pichl bei Wels,13.9,48.184,24
33,Sankt Marienkirchen an der Polsenz,13.932,48.264,28
24,Hallstatt,13.65,47.564,20
24,Plöcking,14.003,48.437,20
33,Bad Schallerbach,13.921,48.231,33
24,Lahn,13.649,47.552,20
134,Laakirchen,13.824,47.983,55
476,Gmunden,13.799,47.919,192
28,Senghübl,13.988,48.383,20
55,Hörleinsödt,14.071,48.591,20
24,Jedl,13.473,47.111,24
24,Plankau,13.751,47.789,20
66,Obergottesfeld,13.348,46.803,24
55,Neusach,13.314,46.717,33
33,Leßnig,13.346,46.787,20
79,Möllbrücke,13.37,46.835,66
39,Lindach,13.85,48.001,20
46,Marbach,14.061,48.527,20
55,Traunkirchen,13.789,47.845,39
28,Bergham,13.869,48.043,20
39,Kasten,14.072,48.548,24
24,Göriach,13.385,46.855,20
33,Sankt Ulrich im Mühlkreis,14.044,48.473,24
79,Obertauern,13.556,47.251,46
24,Wackersbach,13.98,48.295,20
66,Lind im Drautal,13.356,46.77,55
24,Giering,13.874,48.029,20
33,Pupping,14,48.339,24
24,Naggl,13.332,46.704,20
33,Vordermuhr,13.499,47.098,20
112,Obertraun,13.688,47.558,46
39,Gschwandt,13.845,47.935,24
55,Sankt Martin im Mühlkreis,14.037,48.415,39
66,Kalköfen,13.983,48.277,20
46,Aschach an der Donau,14.021,48.367,46
24,Gfereth,13.953,48.193,20
55,Wimsbach,13.902,48.062,20
24,Lupitsch,13.727,47.63,24
24,Sankt Stefan am Walde,14.103,48.568,20
66,Sankt Peter am Wimberg,14.078,48.502,46
28,Finklham,13.978,48.249,24
55,Koschach,13.463,46.982,24
79,Gunskirchen,13.941,48.133,39
55,Ramsau am Dachstein,13.655,47.421,24
66,Kößlwang,13.903,48.03,20
33,Saag,13.94,48.107,20
24,Rosenheim,13.418,46.815,20
33,Moostal,13.964,48.149,20
39,Niederwaldkirchen,14.085,48.452,33
33,Lendorf,13.427,46.836,33
24,Kirchham,13.899,47.972,20
28,Oberthan,13.984,48.178,20
33,Feldkirchen an der Donau,14.053,48.345,20
33,Fischerndorf,13.771,47.642,24
24,Bimberg,14.077,48.403,24
55,Vorchdorf,13.922,48.004,55
79,Hemerach,13.55,47.089,55
24,Leppersdorf,14.028,48.267,20
33,Radnig,13.366,46.643,20
33,Forstberg,13.97,48.11,20
39,Sankt Konrad,13.891,47.912,24
39,Eichham,13.92,47.984,20
28,Steinerkirchen an der Traun,13.958,48.078,28
46,Helfenberg,14.143,48.544,33
28,Tweng,13.602,47.191,20
46,Untertal,13.677,47.371,20
46,Buchkirchen,14.022,48.223,46
331,Hermagor,13.368,46.628,134
24,Oberscharten,14.036,48.252,24
94,Malta,13.507,46.955,39
160,Schladming,13.688,47.392,134
24,Sankt Johann am Wimberg,14.131,48.488,20
46,Wörschach,14.146,47.553,20
192,Rennweg,13.608,47.015,55
112,Hinterweißpriach,13.683,47.191,33
28,Gottesbichl,14.368,46.653,20
33,Perwarth,14.993,48.03,20
28,Herzogsdorf,14.111,48.43,20
39,Schauersberg,14.007,48.137,20
24,Weyern,13.866,47.461,20
39,Bad Aussee,13.783,47.609,39
24,Fleckendorf,14.303,48.194,24
28,Goldwörth,14.1,48.329,24
33,Frauenstein,14.185,47.848,20
160,Neumarkt im Mühlkreis,14.485,48.427,46
46,Knierübl,14.435,48.286,20
230,Gmünd in Kärnten,13.536,46.906,66
24,Baldramsdorf,13.451,46.802,24
39,Rottenegg,14.135,48.368,20
55,Hagenmühle,13.923,47.945,28
94,Grünau im Almtal,13.957,47.855,94
28,Kainisch,13.849,47.573,24
24,Unterkainisch,13.784,47.598,20
112,Waldhausen im Strudengau,14.949,48.273,79
24,Dornleiten,14.768,47.789,20
28,Weißpriach,13.703,47.176,20
66,Wang,15.026,48.045,20
24,Edramsberg,14.176,48.311,20
33,Emling,14.066,48.285,20
46,Zlan,13.584,46.73,24
39,Vordergöriach,13.772,47.174,20
94,Kremsmünster,14.132,48.053,66
66,Puchenau,14.235,48.312,24
55,Pruggern,13.879,47.42,20
33,Wartberg an der Krems,14.116,47.989,28
79,Altersberg,13.489,46.858,20
33,Oberweißburg,13.592,47.104,24
39,Fischertratten,13.521,46.934,20
28,Sautern,14.113,47.951,20
46,Zlatting,13.502,46.884,20
79,Schlierbach,14.126,47.936,24
79,Traun,14.244,48.229,33
24,Kirchdorf an der Krems,14.124,47.906,20
28,Fürling,14.163,48.506,20
55,Eberstalzell,13.98,48.044,33
79,Nußbach,14.163,47.972,55
276,Wels,14.03,48.168,134
24,Micheldorf,13.393,46.616,20
66,Tauplitz,14.013,47.561,46
33,Eschelberg,14.117,48.385,20
28,Atzmannsdorf,13.99,48.064,20
28,Vorderwinkel,13.63,47.178,28
94,Steyrling,14.13,47.805,66
39,Ramingstein,13.837,47.075,39
28,Hirschbach im Mühlkreis,14.411,48.488,24
24,Sankt Marien,14.28,48.146,24
28,Birnberg,13.728,47.413,20
39,Wintersdorf,14.396,48.436,24
55,Furth,14.213,47.919,20
24,Erlach,13.755,46.763,20
28,Untervellach,13.406,46.629,20
55,Niederneukirchen,14.34,48.159,20
33,Niederlaab,14.055,48.206,20
46,Steinhaus,14.02,48.116,28
28,Thalheim bei Wels,14.035,48.151,20
33,Schlag,14.53,48.526,20
230,Sankt Nikolai im Sölktal,14.049,47.32,66
66,Sankt Veit im Mühlkreis,14.163,48.467,28
33,Ramsau,14.262,47.841,33
24,Aigen im Ennstal,14.144,47.521,20
28,Samesleiten,14.421,48.207,24
55,Vorderstoder,14.224,47.713,55
24,Archkogl,13.826,47.617,20
66,Breitenau,14.325,47.882,39
66,Sankt Margarethen,13.891,46.812,33
28,Sankt Ruprecht ob Murau,14.024,47.113,24
55,Sankt Oswald bei Freistadt,14.584,48.501,46
94,Enns,14.473,48.215,39
33,Lassersdorf,14.147,48.409,20
46,Spieldorf,13.989,48.01,28
24,Sand,14.403,47.998,20
55,Hopfgarten,13.835,47.628,28
28,Sankt Ulrich bei Steyr,14.425,48.022,20
24,Ranten,14.083,47.157,20
66,Haidershofen,14.46,48.076,24
331,Spittal an der Drau,13.496,46.796,192
39,Gnesau,13.962,46.776,24
79,Sankt Valentin,14.534,48.174,33
24,Landfraß,13.538,46.894,20
33,Neußerling,14.162,48.427,28
94,Lederau,13.979,47.968,33
33,Schwertberg,14.584,48.274,28
24,Sankt Peter,13.595,47.028,20
28,Gschlößl,13.828,47.593,20
28,Stiftung,14.651,48.424,20
28,Alkoven,14.108,48.285,20
46,Selzthal,14.316,47.548,24
79,Bodensdorf,13.975,46.687,55
33,Umberg,13.958,46.639,20
33,Harbach,14.797,48.711,20
39,Großtraberg,14.201,48.514,33
94,Scharnstein,13.958,47.904,39
24,Goritschach,13.953,46.609,20
79,Laab,14.634,48.216,24
112,Vorderweißenbach,14.22,48.554,66
24,Wultschau,14.827,48.7,20
39,Treffling,13.525,46.837,20
39,Schönau im Mühlkreis,14.729,48.395,39
24,Neuhof,14.658,48.211,20
79,Brunnbach,14.512,47.825,55
46,Seeboden am Millstätter See,13.518,46.818,20
24,Winkeln,14.113,48.273,20
55,Unterweißenbach,14.781,48.437,33
55,Arbing,14.705,48.23,28
66,Dellach,14.079,46.678,33
39,Bubendorf,14.658,48.055,20
33,Igelschwang,14.705,48.146,20
24,Presseggen,13.448,46.631,20
55,Sankt Lambrecht,14.301,47.072,55
94,Axberg,14.115,48.256,20
28,Rupertiberg,14.098,46.561,20
24,Weißenbach,13.78,47.424,20
94,Hammer,13.665,47.144,33
79,Bad Kreuzen,14.805,48.268,28
46,Großwolfgers,14.971,48.684,24
28,Ramsau,14.747,48.107,20
55,Saxen,14.79,48.209,20
39,Steinbichl,14.232,46.808,33
24,Wielings,15.071,48.902,20
24,Klein Wetzles,14.932,48.54,20
28,Illmanns,15.109,48.979,20
28,Eisentratten,13.577,46.923,24
28,Wurmbrand,14.971,48.611,20
24,Wetzelsdorf,14.813,48.2,20
39,Eisgarn,15.1,48.917,24
112,Stockenboi,13.495,46.723,46
28,Bernhardschlag,14.232,48.536,20
39,Eberweis,15.095,48.886,20
46,Ardagger Markt,14.827,48.182,20
55,Dellach,13.447,46.606,46
46,Zeillern,14.809,48.129,28
79,Gaflenz,14.726,47.896,55
46,Heckenau,13.955,47.834,20
476,Sankt Martin,13.654,47.1,230
46,Schaumboden,14.294,46.789,28
28,Pulst,14.286,46.753,20
46,Kleinpertenschlag,14.966,48.433,24
55,Gstatterboden,14.639,47.592,46
33,Treglwang,14.592,47.475,24
24,Stromberg,14.337,46.827,20
39,Hausleiten,14.118,48.229,28
28,Köttmannsdorf,14.235,46.562,24
24,Limbach,15.118,48.7,20
33,Bergern,14.021,47.981,20
28,Sattledt,14.057,48.07,28
94,Kraig,14.369,46.813,39
79,Bärnkopf,15.005,48.391,55
24,Steinmühle,14.834,47.945,24
28,Heinreichs,15.164,48.787,24
28,Überfeld,14.375,46.8,20
33,Edelprinz,15.177,48.805,20
55,Ruperting,13.793,47.412,46
39,Kleintaxen,15.244,48.957,20
24,Triglas,15.239,48.907,20
66,Straßham,14.147,48.284,33
28,Sankt Peter,13.532,46.775,20
24,Ferndorf,14.921,48.044,24
24,Roiten,15.127,48.53,20
66,Treibach,14.461,46.867,46
55,Großweißenbach,15.162,48.551,46
66,Passering,14.465,46.808,24
33,Ferschnitz,14.987,48.094,28
46,Timenitz,14.419,46.684,20
46,Sankt Martin am Silberberg,14.549,46.985,24
55,Guttaring,14.511,46.89,28
79,Marchtrenk,14.118,48.193,46
39,Fratres,15.347,48.979,20
24,Niederdorf,14.408,46.627,20
24,Schlag,15.252,48.728,20
39,Kaltenbach,15.135,48.424,20
112,Kremsbrücke,13.617,46.961,33
66,Gramastetten,14.193,48.38,28
33,Schönering,14.161,48.299,20
33,Ottensheim,14.176,48.332,20
94,Leombach,14.093,48.123,20
28,Laimbach am Ostrong,15.123,48.317,28
331,Berndorf,14.216,48.431,112
94,Zell-Pfarre,14.385,46.471,46
28,Köchling,15.059,48.126,20
39,Ulrichschlag,15.322,48.796,24
39,Gößl,13.903,47.639,39
33,Voitsdorf,14.062,48.009,20
28,Weyerbach,14.118,48.145,20
39,Köstendorf,13.495,46.625,24
28,Millstatt am See,13.571,46.804,28
28,Thening,14.164,48.256,20
112,Obersdorf,13.889,47.571,94
55,Weißkirchen,14.128,48.163,24
28,Gassen,13.54,46.726,24
55,Pratsdorf,14.045,47.955,39
66,Ried im Traunkreis,14.073,48.023,33
33,Assach,13.836,47.427,24
39,Sankt Margarethen im Lungau,13.694,47.079,24
33,Magdalenaberg,14.046,47.939,20
46,Sipbachzell,14.11,48.097,28
28,Breitbrunn,14.17,48.243,20
28,Schachadorf,14.069,47.985,20
39,Eidenberg,14.233,48.397,20
33,Steinbach am Ziehberg,14.033,47.892,33
46,Mariapfarr,13.738,47.15,39
24,Voidersdorf,13.721,47.106,20
46,Langzwettl,14.278,48.486,20
33,Bad Leonfelden,14.293,48.522,33
33,Zwettl an der Rodl,14.272,48.467,28
24,Pichl,13.736,47.139,20
28,Derfling,14.074,47.967,20
28,Pischelsdorf,13.718,47.093,20
46,Hörsching,14.178,48.226,28
46,Rothenthurn,13.582,46.763,20
39,Weigetschlag,14.311,48.558,28
28,Weitersdorf,14.139,48.118,20
28,Eggendorf im Traunkreis,14.144,48.13,20
28,Hintergöriach,13.762,47.187,28
28,Winkl,13.874,47.449,20
28,Pasching,14.204,48.259,24
55,Vorderberg,13.525,46.596,46
28,Unterstiftung,14.303,48.501,20
24,Rufling,14.217,48.279,20
39,Öhndorf,14.19,48.206,20
28,Rudersbach,14.288,48.453,20
28,Bad Mitterndorf,13.931,47.556,24
39,Kirchschlag bei Linz,14.276,48.413,20
39,Pucking,14.187,48.188,28
28,Allhaming,14.173,48.151,24
33,Dellach,13.617,46.788,24
39,Lichtenberg,14.258,48.36,28
46,Bergbau,13.644,46.847,33
39,Kerschdorf,13.558,46.618,20
134,Gröbming,13.903,47.444,112
55,Hellmonsödt,14.3,48.43,46
66,Kreuzen,13.584,46.672,33
24,Lessach,13.806,47.189,20
24,Reith,14.242,48.265,20
28,Leonding,14.249,48.279,24
33,Sankt Andrä im Lungau,13.793,47.148,20
66,Ferndorf,13.625,46.736,28
33,Langholzfeld,14.244,48.246,20
66,Innerkrems,13.726,46.97,33
55,Kematen an der Krems,14.191,48.11,24
46,Burg,14.186,48.09,20
28,Oberlengdorf,13.939,47.474,24
24,Dauersdorf,14.136,47.961,20
46,Döbriach am Millstätter See,13.658,46.781,28
39,Glanz,13.651,46.761,20
24,Ehrnsdorf,14.16,47.999,24
66,Schenkenfelden,14.364,48.504,66
33,Rohr im Kremstal,14.192,48.066,24
28,Gersdorf,13.945,47.452,20
79,Tamsweg,13.812,47.127,79
28,Stein an der Enns,13.94,47.437,20
55,Reichenthal,14.384,48.543,33
46,Reichenau im Mühlkreis,14.351,48.456,28
24,Erdmannsiedlung,13.677,46.794,20
134,Neuhofen an der Krems,14.229,48.137,55
55,Nöstlbach,14.242,48.165,20
24,Mignitz,13.807,47.086,20
24,Hehenberg,14.202,48.054,20
24,Reith,13.945,47.418,20
24,Weifersdorf,14.231,48.125,20
46,Kleinsölk,13.937,47.394,33
33,Micheldorf,14.135,47.878,20
79,Bleiberg-Kreuth,13.62,46.628,33
46,Kaning,13.705,46.827,20
94,Hinterwald,13.929,47.367,24
24,Feistritz an der Gail,13.607,46.575,20
39,Zulissen,14.423,48.578,20
134,Karneralm,13.791,47.011,55
160,Feistritz an der Drau,13.663,46.702,79
79,Radenthein,13.708,46.803,79
79,Nötsch,13.62,46.587,55
2042,Linz,14.307,48.268,986
46,Wullowitz,14.454,48.64,28
39,Altenberg bei Linz,14.35,48.374,39
24,Ottenschlag im Mühlkreis,14.386,48.465,20
39,Freindorf,14.291,48.223,20
33,Großsölk,13.967,47.409,20
46,Schön,14.151,47.855,20
28,Kelzendorf,14.375,48.415,20
66,Öblarn,13.994,47.459,46
79,Plesching,14.341,48.321,28
28,Kulm,14.359,48.361,20
24,Fresach,13.692,46.713,20
33,Adlwang,14.218,47.992,28
24,Untertweng,13.729,46.79,20
39,Oberstuttern,14.02,47.495,20
28,Freudenthal,14.436,48.533,20
24,Summerau,14.444,48.551,20
55,Klaus an der Pyhrnbahn,14.159,47.832,24
33,Schiedlberg,14.268,48.091,28
28,Oberer Wienerweg,14.178,47.867,20
33,Niederöblarn,14.02,47.476,20
24,Bleiberg-Nötsch,13.67,46.626,24
33,Waldburg,14.439,48.509,20
33,Kerschbaum,14.47,48.588,24
66,Sankt Oswald,13.765,46.837,28
134,Dietlgut,14.106,47.669,66
39,Wörschachwald,14.064,47.557,24
24,Niederstuttern,14.047,47.51,20
55,Waidern,14.273,48.071,20
24,Feld am See,13.746,46.776,20
39,Pesendorf,14.263,48.039,20
33,Wimberg,14.256,48.019,20
46,Steyregg,14.367,48.287,33
28,Hohenthurn,13.661,46.557,20
112,Rainbach im Mühlkreis,14.477,48.558,39
46,Alberndorf in der Riedmark,14.419,48.406,28
39,Maglern,13.661,46.543,28
112,Markt Leopoldschlag,14.505,48.616,33
24,Ruprechtshofen,14.321,48.149,20
33,Weißenstein,13.722,46.682,24
39,Waldneukirchen,14.262,47.997,24
24,Unterburg,14.074,47.527,20
24,Enzing,14.345,48.196,20
28,Ölkam,14.36,48.225,20
39,Obergrünburg,14.253,47.953,20
28,Leonstein,14.232,47.9,20
33,Weichstetten,14.322,48.121,24
24,Spattendorf,14.425,48.381,20
46,Untergrünburg,14.263,47.972,20
46,Gallneukirchen,14.417,48.353,46
79,Schwarzenbichl,13.933,47.149,46
24,Schweinbach,14.426,48.341,20
46,Predlitz,13.914,47.07,33
33,Loigistal,14.175,47.703,28
28,Helbetschlag,14.509,48.543,20
39,Zirkitzen,13.813,46.817,28
46,Haid,14.427,48.328,20
94,Stainach,14.109,47.533,66
55,Falkenburg,14.099,47.506,24
46,Mößna,14.033,47.344,20
79,Sankt Pankraz,14.208,47.765,39
192,Freistadt,14.504,48.507,160
46,Molln,14.258,47.886,46
134,Arnoldstein,13.711,46.55,66
55,Fernbach,14.38,48.182,20
94,Turrach,13.886,46.964,55
66,Kraa,13.787,46.727,33
28,Raffelstetten,14.405,48.237,20
55,Heiligengeist,13.744,46.617,39
33,Einach,13.942,47.088,20
55,Lest,14.494,48.455,24
66,Puch,13.767,46.664,46
39,Pachschallern,14.34,48.059,20
24,Grub,14.513,48.483,20
28,Hofkirchen im Traunkreis,14.378,48.142,28
24,Unterweitersdorf,14.468,48.368,24
24,Niederlindach,14.366,48.1,20
24,Abwinden,14.431,48.26,20
28,Loibersdorf,14.482,48.386,20
55,Aschach an der Steyr,14.335,48.012,24
46,Windhaag bei Freistadt,14.562,48.587,46
24,Winkling,14.398,48.162,20
24,Asten,14.42,48.218,20
24,Lantschern,14.139,47.51,20
28,Vorwald,13.859,46.828,20
28,Riemetschlag,14.566,48.569,20
66,Wolfern,14.375,48.082,33
46,Oberschütt,13.757,46.569,24
46,Edlau,14.533,48.476,20
192,Donnersbach,14.129,47.464,33
24,Au,14.509,48.411,20
79,Katsdorf,14.473,48.318,28
28,Siegelsdorf,14.53,48.457,20
79,Stadl an der Mur,13.981,47.092,55
28,Saaß,14.36,48.024,20
55,Krakaudorf,14.019,47.181,39
24,Volkersdorf,14.431,48.195,20
55,Äußere Einöde,13.826,46.695,20
134,Ebene Reichenau,13.893,46.855,46
39,Oberrauchenödt,14.569,48.524,20
46,Dürnbach,14.355,47.981,24
24,Laastadt,13.85,46.742,20
39,Thann,14.43,48.162,20
134,Donnersbachwald,14.117,47.385,46
33,Kefermarkt,14.541,48.442,28
28,Standorf,14.485,48.298,20
79,Arriach,13.85,46.73,46
28,Hagenberg im Mühlkreis,14.519,48.367,20
28,Oberwollanig,13.821,46.649,20
134,Ternberg,14.357,47.946,79
28,Pießling,14.272,47.732,20
33,Dietach,14.416,48.09,24
33,Mahrersdorf,14.533,48.385,20
24,Spörbichl,14.6,48.556,20
39,Seebach,14.042,47.161,20
24,Ruhstetten,14.509,48.311,20
24,Langenstein,14.489,48.25,20
24,Oberstallbach,14.438,48.117,20
33,Döllach,14.21,47.548,20
24,Stadlkirchen,14.435,48.105,20
28,Roßleithen,14.275,47.701,28
66,Treffen,13.855,46.668,46
28,Kronstorf,14.464,48.142,20
476,Steyr,14.428,48.045,192
55,Grünau,14.526,48.284,28
66,Fürnitz,13.824,46.562,39
39,Stiftungsberg,14.606,48.481,20
28,Rading,14.31,47.735,20
476,Liezen,14.242,47.565,276
39,Rubring,14.484,48.167,20
55,Sandl,14.643,48.561,46
39,Sankt Ruprecht,13.87,46.645,20
24,Untermarreith,14.629,48.511,24
33,Hundsdorf,14.592,48.402,20
94,Ernsthofen,14.485,48.127,39
46,Erdmannsdorf,14.612,48.443,20
46,Neusiedl,14.251,47.535,24
331,Windischgarsten,14.328,47.722,134
39,Heinrichsbrunn,14.535,48.239,20
46,Planneralm,14.2,47.404,46
33,Dorf an der Enns,14.48,48.092,20
46,Schöder,14.113,47.181,20
46,Gutau,14.614,48.416,46
55,Rems,14.529,48.201,20
28,Viehdorf,14.51,48.148,20
39,Annenheim,13.904,46.662,28
94,Rottenmann,14.111,47.158,33
39,Wanzenöd,14.476,48.056,20
39,Gleinkerau,14.336,47.702,20
33,Sankt Lorenzen ob Murau,14.092,47.098,33
28,Gutenhofen,14.526,48.16,20
112,Flattnitz,14.033,46.943,55
55,Losenstein,14.434,47.926,39
66,Laussa,14.454,47.952,20
112,Spital am Pyhrn,14.34,47.664,46
24,Winden,14.594,48.285,20
24,Sankt Ulrich,13.912,46.609,20
79,Oppenberg,14.274,47.486,39
28,Sankt Pantaleon,14.569,48.211,20
24,Niedersebern,14.582,48.243,20
55,Behamberg,14.499,48.034,33
39,Erdleiten,14.633,48.37,20
46,Faak am See,13.902,46.571,33
24,Kleinraming,14.492,48.01,20
28,Vestenthal,14.52,48.076,24
33,Tragwein,14.622,48.333,33
24,Erla,14.573,48.199,20
33,Pogöriach,13.908,46.556,20
28,Pürgschachen,14.332,47.581,20
79,Wernberg,13.938,46.625,20
55,Reichraming,14.457,47.89,28
28,Rosenau am Hengstpaß,14.386,47.712,28
28,Sankt Leonhard bei Freistadt,14.679,48.443,28
66,Lauterbach,14.778,48.697,33
112,Gurk,14.008,46.777,55
39,Sankt Peter am Kammersberg,14.188,47.186,39
39,Hintere Pöllau,14.201,47.217,24
46,Langfirling,14.7,48.459,20
94,Karlstift,14.752,48.591,39
39,Wienau,14.721,48.508,24
24,Naarn,14.61,48.225,20
46,Ostriach,13.977,46.665,20
28,Pehersdorf,14.685,48.409,24
79,Ardning,14.362,47.595,39
24,Stumberg,14.735,48.519,20
24,Harmanschlag,14.787,48.652,20
39,Bad Zell,14.669,48.349,24
276,Murau,14.171,47.112,192
33,Allerheiligen im Mühlkreis,14.653,48.302,20
39,Perg,14.632,48.247,39
33,Föderlach,13.963,46.598,20
66,Sirnitz,14.057,46.823,28
46,Anzenbach,14.478,47.85,20
24,Steindorf am Ossiacher See,14.008,46.697,20
24,Angelbach,14.791,48.637,20
39,Weitersfelden,14.729,48.477,28
55,Deutsch-Griffen,14.076,46.855,55
46,Kürnberg,14.548,48.008,28
55,Himmelberg,14.037,46.748,24
79,Rottenmann,14.358,47.525,66
46,Holzleiten,14.59,48.101,39
28,Thürnbuch,14.614,48.159,20
33,Pasching,14.656,48.262,20
33,Ledenitzen,13.967,46.567,20
66,Weißberg,14.108,46.9,20
39,Wolfgrub,14.709,48.375,20
24,Köstenberg,14.01,46.652,20
46,Weistrach,14.585,48.055,39
28,Thurnhof,14.66,48.245,20
79,Sankt Martin,13.984,46.582,79
46,Nadling,14.043,46.722,20
28,Frauenberg,14.398,47.585,20
28,Reinprechts,14.847,48.714,24
33,Windhaag bei Perg,14.68,48.284,20
66,Höhenberg,14.877,48.769,20
33,Schagges,14.863,48.732,20
192,Sankt Martin,14.837,48.662,94
46,Glödnitz,14.119,46.874,24
66,Bad Großpertholz,14.825,48.629,28
33,Ruprechtshofen,14.651,48.183,24
55,Liebenstein,14.779,48.509,20
39,Althofen,14.242,47.165,24
39,Rechberg,14.711,48.323,24
28,Tiffen,14.057,46.708,20
46,Straß,14.752,48.416,20
24,Triebendorf,14.236,47.131,24
46,Anger,14.862,48.683,20
112,Großraming,14.549,47.887,39
112,Liebenau,14.806,48.532,79
46,Limbach,14.659,48.151,24
55,Kerschdorf,14.043,46.639,20
24,Groißing,14.695,48.241,20
39,Steirisch Laßnitz,14.218,47.057,39
24,Göriach,14.042,46.626,20
192,Oberwölz,14.281,47.202,79
55,Münzbach,14.713,48.267,20
55,Velden am Wörther See,14.041,46.614,33
33,Singsdorf,14.412,47.509,33
39,Feistritz,14.103,46.75,28
28,Loa,14.689,48.195,20
39,Sankt Michael am Bruckbach,14.617,48.013,20
66,Weitra,14.892,48.702,33
33,Pierbach,14.755,48.348,20
192,Hall,14.459,47.601,66
24,Höfling,14.089,46.696,20
46,Eichberg,14.912,48.743,28
66,Rennweg,14.127,46.784,24
55,Bruderndorf,14.857,48.595,24
94,Hackstock,14.813,48.477,20
33,Oberhall,14.459,47.586,20
33,Altweitra,14.909,48.72,20
39,Landshut,14.805,48.454,20
24,Mötlas,14.786,48.405,24
39,Altenmarkt,14.162,46.855,20
24,Saurau,14.277,47.131,20
160,Metnitz,14.216,46.981,66
39,Katsch an der Mur,14.284,47.144,39
46,Zammelsberg,14.155,46.829,20
24,Admont,14.461,47.575,20
24,Augsdorf,14.062,46.602,20
112,Maria Neustift,14.608,47.936,79
24,Mitterkirchen,14.71,48.185,20
28,Schlag,15.01,48.952,20
94,Wolfsbach,14.669,48.079,33
66,Sankt Thomas am Blasenstein,14.763,48.315,55
94,Seitenstetten,14.653,48.036,66
28,Rosenbach,14.039,46.534,20
79,Ertl,14.631,47.976,33
24,Sankt Martin am Techelsberg,14.09,46.65,24
28,Nonndorf,14.884,48.613,20
28,Watzmanns,14.891,48.629,20
39,Goggau,14.157,46.803,20
24,Deiming,14.731,48.219,20
28,Sankt Egyden,14.064,46.577,20
39,Spital,14.914,48.675,20
66,Sankt Jakob im Rosental,14.056,46.548,39
134,Wallsee,14.716,48.167,46
33,Oberglan,14.118,46.693,20
66,Mönchdorf,14.797,48.361,24
66,Pusterwald,14.376,47.309,46
28,Harmannstein,14.908,48.642,20
276,Sankt Andrä,14.2,46.876,94
24,Baumgartenberg,14.74,48.208,20
66,Ading,14.214,46.905,24
28,Pernach,14.116,46.663,20
28,Wetzles,14.936,48.696,20
46,Weng,14.505,47.599,24
28,Grades,14.253,46.979,20
33,Bretstein-Gassen,14.403,47.344,28
46,Alt-Nagelberg,14.996,48.84,46
46,Sankt Blasen,14.301,47.094,20
94,Lachtal,14.366,47.251,46
94,Haugschlag,15.059,48.996,39
28,Hörmanns bei Litschau,15.049,48.965,20
39,Schönberg-Lachtal,14.346,47.189,28
79,Brand,15.012,48.865,20
24,Schönau bei Litschau,15.041,48.933,20
66,Litschau,15.045,48.945,46
24,Dietmannsdorf bei Trieben,14.477,47.504,20
79,Sankt Urban,14.168,46.751,39
39,Ingolsthal,14.27,46.997,20
55,Dörfl,14.565,47.718,28
24,Graslitz,14.327,47.131,24
24,Oberkirchen,14.915,48.6,20
94,Königswiesen,14.841,48.408,39
24,Kasbach,14.909,48.58,20
24,Besendorf,14.711,48.074,20
28,Maria Elend,14.081,46.531,20
39,Hörmanns bei Weitra,14.967,48.722,28
33,Kleinpertholz,14.901,48.552,28
55,Großschönau,14.942,48.654,39
24,Krenstetten,14.713,48.061,20
33,Gopprechts,15.04,48.893,24
33,Steinbach,15.015,48.823,20
28,Schroffen,14.939,48.625,20
39,Haid,14.863,48.431,20
94,Oed,14.742,48.121,33
230,Trieben,14.488,47.486,134
46,Neustift,14.893,48.506,28
33,Klam,14.783,48.225,20
28,Biberbach,14.709,48.029,28
28,Oberaschbach,14.735,48.094,20
39,Neudorf,14.829,48.33,33
28,Wörnharts,14.965,48.67,20
24,Harruck,14.927,48.569,20
28,Moar in Gaschbach,14.422,47.3,24
33,Greif,14.432,47.322,28
24,Thaures,15.049,48.881,20
192,Kleinreifling,14.639,47.821,46
33,Teufenbach,14.36,47.132,20
28,Plescherken,14.137,46.591,20
112,Hohentauern,14.485,47.434,39
28,Reitzenschlag,15.084,48.946,20
94,Niederwölz,14.374,47.153,39
33,Friedlach,14.201,46.727,20
55,Moosburg,14.174,46.657,24
39,Neudorf,14.673,47.879,28
55,Tigring,14.186,46.685,24
46,Hoheneich,15.026,48.772,24
24,Maria Wörth,14.161,46.617,20
28,Aschbach-Markt,14.754,48.072,24
28,Rußdorf,14.364,47.106,20
28,Obsweyer,14.673,47.865,20
134,Sankt Johann am Tauern,14.47,47.357,66
24,Großotten,14.981,48.643,20
24,Ludmannsdorf,14.135,46.541,20
28,Sankt Peter,14.282,46.893,20
112,Groß Gerungs,14.958,48.574,66
66,Schönau an der Enns,14.637,47.752,24
39,Preinreichs,14.982,48.623,24
39,Liemberg,14.232,46.752,20
134,Sankt Gallen,14.617,47.691,79
24,Griesbach,14.948,48.525,20
46,Rosenau am Sonntagberg,14.744,48.007,20
24,Maria Feicht,14.215,46.706,20
46,Reifnitz,14.174,46.604,20
33,Hausdorf,14.305,46.911,20
33,Weißenbach an der Enns,14.63,47.707,20
46,Nondorf,15.042,48.751,20
24,Großreichenbach,15.019,48.691,24
46,Gurk,14.292,46.874,20
24,Tauchendorf,14.234,46.732,20
24,Vockenberg,14.382,47.088,20
39,Frauendorf,14.968,48.553,20
33,Abetzdorf,14.773,48.052,20
33,Ottenschlag,14.907,48.39,24
46,Kematen an der Ybbs,14.764,48.028,33
55,Pisweg,14.286,46.849,20
66,Stephanshart,14.816,48.158,24
94,Sankt Georgen am Walde,14.896,48.36,66
46,Gaishorn am See,14.55,47.492,33
28,Hirschenschlag,15.144,48.992,20
33,Groß-Radischen,15.122,48.931,20
230,Arbesbach,14.953,48.495,66
24,Keutschach,14.186,46.593,20
66,Altenmarkt bei Sankt Gallen,14.65,47.722,24
94,Schrems,15.073,48.793,55
46,Mariahof,14.399,47.099,20
46,Mauer bei Amstetten,14.801,48.092,39
79,Amaliendorf,15.089,48.83,28
94,Grein,14.856,48.228,46
112,Johnsbach,14.584,47.541,39
822,Leopoldsdorf,15.138,48.948,160
55,Krumpendorf,14.21,46.627,33
94,Möderbrugg,14.48,47.281,55
94,Unzmarkt,14.449,47.199,79
39,Reingers,15.149,48.966,20
46,Feistritz im Rosental,14.17,46.523,46
55,Pöllau,14.386,47.04,28
33,Sankt Salvator,14.358,46.968,28
66,Straßburg-Stadt,14.328,46.895,46
46,Großbuch,14.244,46.691,20
24,Sörg,14.275,46.764,20
66,Jagenbach,15.032,48.64,24
46,Haselbach,14.985,48.514,20
94,Heidenreichstein,15.121,48.866,66
66,Altmelon,14.966,48.463,24
39,Dimbach,14.908,48.307,24
55,Zweikirchen,14.263,46.712,20
24,Etlas,14.975,48.475,20
55,Waidhofen an der Ybbs,14.773,47.959,20
24,Grossgundholz,15.002,48.54,20
66,Hausmening,14.815,48.065,20
28,Dietweis,15.135,48.885,20
55,Oberzeiring,14.489,47.253,24
28,Pürbach,15.091,48.765,20
79,Eggern,15.148,48.909,33
24,Ulmerfeld,14.826,48.076,20
28,Fromberg,15.086,48.737,20
28,Groß Meinharts,15.017,48.558,20
55,Liebenfels,14.285,46.739,39
79,Wölfnitz,14.256,46.667,33
46,Dürnstein in der Steiermark,14.39,46.991,20
24,Rohnsdorf,14.279,46.722,20
192,Neumarkt in Steiermark,14.426,47.074,94
112,Schweiggers,15.063,48.668,46
28,Kirchberg am Walde,15.086,48.724,20
24,Seyfrieds,15.131,48.837,24
24,Holzhausen,14.874,48.176,24
28,Unterwindhag,15.064,48.652,20
33,Reauz,14.234,46.586,20
39,Gebharts,15.127,48.806,20
39,Gotthardsdorf,14.452,47.104,24
33,Langschwarza,15.118,48.776,24
33,Sankt Georgen ob Judenburg,14.499,47.207,28
24,Sankt Georgen,14.377,46.904,24
397,Amstetten,14.871,48.123,230
46,Krenngraben,14.753,47.825,20
28,Rieggers,15.072,48.633,20
28,Alpen,14.256,46.606,20
33,Neustadtl-Markt,14.904,48.193,20
28,Lembach,15.037,48.527,20
33,Haagberg,14.849,48.047,20
160,Friesach,14.406,46.951,112
46,Krippau,14.706,47.686,24
24,Wetzelsberg,14.517,47.217,20
24,Neuhofen an der Ybbs,14.855,48.057,20
28,Unterhömbach,14.864,48.075,20
24,Greith,14.465,47.084,20
24,Katzling,14.531,47.245,24
39,Hirschbach,15.126,48.743,28
33,Sallingstadt,15.104,48.683,20
66,Kirchbach,15.053,48.539,55
39,Negers,15.082,48.612,20
39,Lohn,15.031,48.473,20
66,Viktring,14.272,46.593,28
39,Neustift,15.046,48.508,20
24,Rohrbach,15.186,48.865,20
24,Karnburg,14.315,46.684,20
55,Hollenstein an der Ybbs,14.771,47.801,55
112,Bodental,14.23,46.478,28
66,Dorfstetten,14.982,48.326,46
33,Artolz,15.176,48.826,20
33,Pehendorf,15.047,48.49,20
33,Hörzendorf,14.34,46.732,28
24,Windisch Bleiberg,14.239,46.49,20
33,Lambichl,14.276,46.577,20
28,Walterschlag,15.119,48.669,20
192,Sankt Veit an der Glan,14.357,46.766,112
39,Zeltschach,14.443,46.971,20
55,Schönbach,15.039,48.454,39
39,Pfaffenschlag bei Waidhofen an der Thaya,15.191,48.843,39
46,Hainstetten,14.926,48.161,24
28,Gloxwald,14.956,48.238,20
24,Oberdorf,14.48,47.05,20
986,Klagenfurt am Wörthersee,14.305,46.625,571
46,Micheldorf,14.427,46.914,28
55,Meiselding,14.397,46.838,20
33,Kirchenlandl,14.73,47.652,33
24,Seisenegg,14.922,48.134,20
66,Gastern,15.22,48.896,28
39,Merzenstein,15.096,48.57,20
79,Opponitz,14.824,47.877,66
33,Rappottenstein,15.078,48.522,20
39,Sankt Leonhard am Wald,14.873,47.995,39
55,Kautzen,15.24,48.931,55
39,Waldhams,15.11,48.592,28
46,Ottenschlag,15.152,48.699,33
28,Hart,14.927,48.12,20
28,Dielach,14.4,46.816,20
55,Maria Rain,14.293,46.556,20
39,Kleingöpfritz,15.217,48.86,20
55,Maria Saal,14.346,46.681,33
28,Kleinpoppen,15.17,48.733,20
79,Vitis,15.181,48.759,55
28,Dorfstadt,15.058,48.439,20
39,Pernthon,15.072,48.473,20
66,Hitzmannsdorf,14.498,47.037,39
24,Treffling,14.423,46.85,20
46,Buchbach,15.214,48.822,20
24,Wolfenstein,15.174,48.717,20
94,Nöchling,14.982,48.224,39
39,Unterloibl,14.287,46.508,20
94,Pöls,14.582,47.22,39
28,Unterholz,14.965,48.175,20
33,Frühwärts,15.24,48.88,20
33,Wald am Schoberpaß,14.676,47.447,28
79,Euratsfeld,14.932,48.082,33
192,Ferlach,14.301,46.529,55
24,Sankt Michael am Zollfeld,14.379,46.718,20
46,Gradnitz,15.147,48.631,20
24,Pleßberg,15.258,48.918,20
112,Hieflau,14.746,47.606,79
55,Sankt Georgen am Ybbsfelde,14.955,48.13,46
55,Sankt Donat,14.393,46.736,24
46,Großglobnitz,15.171,48.676,20
28,Leutzmannsdorf,14.951,48.11,20
39,Großhaslau,15.162,48.648,20
33,Schnotzendorf,14.935,48.065,20
33,Lainbach,14.767,47.635,20
33,Possau,14.385,46.7,20
24,Sankt Peter ob Judenburg,14.587,47.186,20
39,Ybbsitz,14.895,47.949,39
24,Edelsstückl,14.734,47.535,20
46,Palfau,14.805,47.71,33
94,Gams bei Hieflau,14.788,47.667,55
24,Göltschach,14.334,46.559,24
24,Aschen,15.105,48.467,20
46,Noreia,14.526,47.014,20
28,Drasendorf,14.435,46.793,20
28,Sparbach,15.218,48.748,20
46,Eschenau,15.231,48.78,24
33,Sankt Georgen am Längsee,14.431,46.78,33
33,Ebenthal in Kärnten,14.36,46.607,33
28,Glainach,14.335,46.544,20
28,Wielands,15.127,48.505,20
24,Gerotten,15.179,48.636,20
331,Zwettl-Niederösterreich,15.168,48.606,230
39,Hohenau,15.297,48.935,20
28,Sankt Oswald,15.039,48.269,20
28,Reibers,15.304,48.951,20
28,Harland,14.991,48.141,20
55,Echsenbach,15.217,48.718,24
33,Bromberg,15.127,48.482,20
55,Sankt Georgen am Reith,14.876,47.841,28
28,Rothenthurm,14.608,47.173,24
24,Rudolz,15.315,48.962,20
28,Sankt Thomas,14.399,46.665,20
39,Pisching,15.069,48.323,28
33,Kainraths,15.252,48.793,20
28,Allerheiligen,14.627,47.212,24
46,Radmer an der Stube,14.763,47.545,46
24,Germanns,15.206,48.663,20
24,Frankenreith,15.156,48.534,20
33,Gerweis,15.222,48.703,20
39,Yspertal,15.062,48.288,39
46,Weins,15.03,48.201,28
24,Hörmanns,15.217,48.679,20
33,Thaya,15.286,48.856,33
28,Tutzach,14.378,46.588,20
39,Sankt Martin am Ybbsfelde,15.019,48.165,20
33,Hörtendorf,14.402,46.638,24
28,Silberegg,14.492,46.852,20
55,Waidisch,14.346,46.499,24
79,Dietmanns,15.14,48.465,46
24,Dörfl,14.729,47.424,20
24,Schafberg,15.159,48.509,20
55,Niederedlitz,15.303,48.873,20
24,Pyhrafeld,14.986,48.06,24
39,Gaal,14.67,47.273,20
24,Großegg,14.866,47.757,20
276,Waidhofen an der Thaya,15.284,48.816,94
66,Schwarzenau,15.256,48.744,39
55,Schwarz,14.386,46.574,24
33,Merkengersch,15.314,48.891,20
46,Randegg,14.973,48.012,20
46,Spielberg,15.143,48.443,20
112,Schönfeld,15.343,48.96,55
39,Ratschenhof,15.2,48.586,20
24,Ennsbach,15.029,48.146,20
39,Zosen,14.552,46.957,20
46,Hüttenberg,14.548,46.939,33
24,Haselberg,15.141,48.413,20
24,Reitzendorf,15.135,48.394,20
79,Oed,15.133,48.381,46
55,Kalwang,14.756,47.429,39
39,Waldkirchen an der Thaya,15.352,48.939,20
39,Windigsteig,15.286,48.766,20
24,Ganz,15.268,48.715,20
39,Bernschlag,15.265,48.697,24
28,Radsberg,14.419,46.586,20
94,Lassing,14.893,47.744,46
28,Schuppertholz,15.353,48.919,20
55,Sankt Wolfgang,14.633,47.097,33
66,Poggersdorf,14.449,46.651,24
24,Großhaselbach,15.282,48.726,20
39,Wieting,14.541,46.87,20
24,Rottenstein,14.415,46.567,20
39,Ulrichschlag,15.131,48.336,20
46,Bischoffeld,14.708,47.271,46
28,Neumarkt an der Ybbs,15.06,48.141,28
28,Linsenberg,14.466,46.673,20
112,Göstling an der Ybbs,14.931,47.807,55
94,Klein Sankt Paul,14.542,46.836,55
94,Sankt Margareten im Rosental,14.421,46.543,55
28,Rappolz,15.386,48.956,20
28,Steinakirchen am Forst,15.049,48.071,20
28,Neuriegers,15.439,48.942,24
39,Hohenwarth,15.378,48.905,20
24,Liesingau,14.789,47.404,20
112,Plaggowitz,14.611,46.96,55
24,Kemmelbach,15.095,48.155,20
55,Brückl,14.531,46.75,55
24,Lugendorf,15.201,48.467,20
24,Zettenreith,15.567,48.816,20
39,Oberthürnau,15.609,48.89,20
39,Roggenreith,15.19,48.374,20
55,Schönweg,14.792,46.743,20
24,Ebersdorf,14.788,46.578,20
39,Fachwerk,14.928,47.687,33
28,Mitterreith,15.256,48.607,20
33,Wabelsdorf,14.508,46.657,20
33,Wegscheid,15.326,47.687,20
55,Geistthal,15.164,47.17,28
46,Buttendorf,15.742,48.587,20
55,Fisching,14.739,47.163,24
28,Sankt Bartholomä,15.258,47.069,24
55,Seckau,14.786,47.274,33
39,Marhof,15.217,46.913,20
66,Sankt Jakob-Breitenau,15.43,47.392,55
39,Sankt Stefan ob Stainz,15.256,46.93,20
55,Lannach,15.334,46.946,24
24,Kleinpertholz,15.178,48.394,24
33,Pöls an der Wieserbahn,15.407,46.893,24
28,Starzing,15.972,48.217,20
24,Lind,14.782,47.194,20
331,Weiz,15.63,47.216,94
192,Wildon,15.507,46.887,66
24,Sankt Margarethen bei Lebring,15.523,46.863,20
24,Ollern,16.083,48.267,20
160,Klaus,15.008,47.728,55
66,Göpfritz an der Wild,15.401,48.725,39
79,Wildalpen,14.985,47.665,79
55,Sankt Filippen,14.499,46.702,33
24,Neuhof,15.192,48.423,20
46,Trögern,14.489,46.438,33
39,Ziernreith,15.492,48.931,20
39,Münichreith am Ostrong,15.132,48.266,39
39,Lölling Graben,14.592,46.92,24
94,Gresten,15.025,47.988,66
33,Puch,15.359,48.846,33
66,Raabs an der Thaya,15.5,48.848,46
55,Grafenstein,14.467,46.611,33
55,Stetten,15.066,48.089,39
39,Thon,14.477,46.631,20
28,Pömling,15.298,48.255,20
39,Els,15.374,48.444,20
276,Bad Eisenkappel,14.593,46.486,79
28,Obernondorf,15.245,48.537,20
24,Kleinhaslau,15.23,48.496,20
24,Kollnitz,15.136,48.255,20
33,Lading,14.751,46.84,20
39,Wolfenreith,15.381,48.394,20
33,Armschlag,15.214,48.452,20
28,Münichtal,14.861,47.559,20
33,Prebl,14.797,46.913,20
28,Weinpolz,15.333,48.757,20
39,Pölling,14.759,46.792,24
55,Brunn an der Wild,15.521,48.694,39
24,Voitschlag,15.228,48.482,20
33,Friedersbach,15.271,48.59,20
192,Spitz,15.413,48.369,94
28,Schönbühel an der Donau,15.377,48.256,24
397,Rotmoos,15.16,47.688,79
55,Eberstein,14.559,46.807,24
24,Mitterarnsdorf,15.437,48.365,20
66,Sankt Marein,14.819,46.81,24
46,Zissersdorf,15.624,48.83,20
24,Mahrersdorf,15.564,48.661,20
24,Groß-Schollach,15.38,48.179,20
24,Theißenegg,14.879,46.909,20
79,Loosdorf,15.4,48.2,39
28,Mauer bei Melk,15.415,48.226,20
55,Innerzwain,15.154,47.557,33
39,Sankt Walburgen,14.549,46.769,20
24,Neukirchen am Ostrong,15.162,48.288,20
39,Hainberg,15.41,48.137,20
28,Aich,14.814,46.629,20
33,Senftenberg,15.555,48.451,20
24,Wolfshof,15.616,48.605,20
66,Sallingberg,15.235,48.466,33
46,Thaua,15.334,48.719,20
39,Langau,15.716,48.83,28
39,Mittelberg,15.604,48.498,20
39,Unterradl,15.468,48.144,20
192,Allentsteig,15.327,48.696,79
112,Ottenschlag,15.221,48.423,66
33,Rehberg,15.585,48.432,20
230,Aflenz Kurort,15.239,47.543,46
33,Scheideldorf,15.343,48.737,33
46,Waldhausen,15.261,48.522,24
28,Stratzing,15.604,48.45,20
24,Abtei,14.469,46.552,20
79,Riegersburg,15.776,48.852,28
28,Ambach,15.582,48.306,20
28,Felling,15.798,48.866,20
66,Karlstein an der Thaya,15.404,48.883,55
66,Karlstetten,15.567,48.258,46
39,Aschbach,15.335,47.67,20
39,Halltal,15.374,47.76,33
33,Zell-Freibach,14.442,46.48,33
79,Afling,15.121,47.108,20
28,Loibes,15.388,48.838,20
28,Döllach,15.301,47.545,20
24,Klein-Kainach,15.121,47.093,20
46,Ulreichsberg,15.419,47.833,33
28,Obritzberg,15.6,48.289,20
24,Kammerhof,15.53,48.103,20
94,Mautern in Steiermark,14.823,47.401,94
46,Klein Sankt Veit,14.546,46.724,20
66,Wolfsberg,15.286,48.568,66
79,Weitersfeld,15.81,48.781,55
28,Sankt Oswald,14.588,46.819,20
39,Marbach an der kleinen Erlauf,15.11,48.111,20
94,Terz,15.451,47.772,66
66,Kirchschlag,15.223,48.393,24
33,Hollenburg,15.694,48.379,20
94,Osterwitz,15.091,46.859,24
397,Sankt Pölten,15.63,48.201,397
55,Merkersdorf,15.872,48.829,24
94,Obdach,14.694,47.069,79
66,Lehenrotte,15.552,47.959,33
39,Modl,14.838,47.418,20
24,Kremschitz,14.544,46.699,20
28,Maria Taferl,15.162,48.226,20
230,Eisenerz,14.891,47.543,94
46,Hinterwildalpen,14.932,47.645,28
39,Blumau,14.884,47.525,20
66,Soboth,15.076,46.681,39
66,Sankt Anna am Lavantegg,14.688,47.039,24
39,Eggersdorf,15.412,48.865,20
55,Mürzsteg,15.492,47.675,46
33,Reinsberg,15.07,47.986,24
94,Pöggstall,15.201,48.318,79
33,Brettl-Gaming,15.058,47.955,24
33,Mechters,15.714,48.195,24
94,Hohenberg,15.62,47.908,46
24,Grainbrunn,15.27,48.486,20
28,Sankt Oswald ob Eibiswald,15.143,46.708,20
66,Furth,15.229,46.865,24
24,Loibersdorf,15.212,48.329,20
66,Eggendorf,15.812,48.308,46
79,Goggendorf,15.935,48.619,20
24,Mitterdorf im Mürztal,15.512,47.534,20
55,Mühldorf,14.736,47.135,24
28,Waldsdorf,15.337,47.087,20
24,Feichsen,15.105,48.052,20
39,Wienings,15.401,48.813,20
46,Altenwörth,15.86,48.386,33
24,Radlbrunn,15.91,48.511,20
24,Rittis,15.535,47.552,20
192,Lunz am See,15.03,47.861,134
28,Hochfeistritz,14.595,46.781,20
112,Kleinzell,15.738,47.979,46
33,Hainfeld,15.772,48.035,33
46,Gallizien,14.505,46.56,39
39,Stattegg,15.42,47.139,39
33,Tainach,14.536,46.634,24
46,Stössing,15.815,48.123,24
134,Hinternaßwald,15.668,47.738,55
24,Sankt Josef (Weststeiermark),15.337,46.91,24
24,Bierbaum am Kleebühel,15.934,48.391,24
24,Königsbrunn am Wagram,15.946,48.417,24
24,Muttendorf,15.362,46.938,20
39,Mettersdorf,15.337,46.866,24
39,Unterbergla,15.314,46.807,33
79,Langenwang,15.623,47.568,33
24,Möbersdorf,14.761,47.174,20
2450,Graz,15.434,47.078,986
28,Breitenfeld,15.386,48.748,20
66,Haugsdorf,16.077,48.708,66
55,Ramsau,15.805,48.003,24
28,Spielberg,14.781,47.217,20
46,Gasen,15.571,47.384,33
33,Unterpremstätten,15.403,46.967,33
39,Groß-Siegharts,15.405,48.792,39
24,Vellach,14.516,46.571,20
24,Weinitzen,15.49,47.14,20
28,Braunegg,15.236,48.352,24
39,Petzenkirchen,15.156,48.146,20
55,Brand,15.311,48.542,20
24,Rossa,15.45,48.902,20
28,Mostbach,15.421,48.826,20
28,Golling an der Erlauf,15.177,48.194,20
33,Niederrußbach,16.042,48.451,33
24,Pixendorf,15.981,48.287,20
66,Kaumberg,15.899,48.025,46
55,Falkenstein,15.69,47.458,24
39,Peygarten-Ottenstein,15.333,48.584,24
28,Grötsch,15.445,46.847,20
24,Mantrach,15.409,46.757,20
39,Großsulz,15.486,46.946,20
39,Dörfl,15.797,47.687,24
66,Göllersdorf,16.116,48.493,46
24,Rastenfeld,15.331,48.574,20
112,Ratten,15.728,47.487,46
112,Arnfels,15.403,46.677,66
55,Steinberg,15.559,47.048,20
28,Sankt Margarethen ob Töllerberg,14.572,46.677,24
276,Birkfeld,15.693,47.355,94
33,Moniholz,15.306,48.503,20
33,Rekawinkel,16.025,48.18,24
39,Reichenau an der Rax,15.839,47.697,39
24,Klein-Mariazell,15.975,48.038,20
24,Krottendorf,15.652,47.21,20
39,Sankt Georgen in Obdachegg,14.74,47.08,24
33,Schmida,16.118,48.378,20
79,Artstetten,15.207,48.242,24
46,Allerheiligen bei Wildon,15.552,46.914,24
55,Wilfersdorf,16.101,48.278,24
134,Purgstall an der Erlauf,15.136,48.058,55
28,Wildenstein,14.523,46.546,20
33,Etzersdorf,15.692,47.198,24
39,Edelstauden,15.625,46.981,20
28,Patzmannsdorf,16.28,48.638,20
46,Ungerdorf,15.678,47.087,20
24,Liebnitz,15.451,48.852,20
28,Laubegg,15.599,46.825,20
33,Reichendorf,15.749,47.189,24
33,Merkenbrechts,15.398,48.71,20
24,Urscha,15.711,47.089,20
66,Sankt Marein bei Graz,15.688,47.019,28
28,Heimbautal,16.148,48.172,20
28,Breitenfurt-West,16.138,48.142,20
94,Weikertschlag an der Thaya,15.477,48.913,24
24,Obervogau,15.583,46.744,20
24,Großreinprechts,15.31,48.478,24
94,Pockau,15.099,47.938,46
33,Seiterndorf,15.234,48.278,20
24,Landfriedstetten,15.188,48.156,20
46,Diex,14.618,46.744,39
39,Purk,15.302,48.443,24
28,Pöchlarn,15.215,48.213,20
33,Elsenreith,15.284,48.387,20
33,Marbach im Felde,15.348,48.545,20
79,Sankt Kanzian am Klopeiner See,14.574,46.615,39
46,Großlobming,14.81,47.186,20
24,Raßnitz,14.832,47.238,20
331,Knittelfeld,14.824,47.213,134
94,Reichenfels,14.74,47.007,33
28,Münichreith,15.297,48.4,20
39,Sankt Primus,14.563,46.577,33
46,Kottes,15.305,48.416,28
55,Raxendorf,15.277,48.343,39
28,Kammern im Liesingtal,14.901,47.395,28
39,Mannersdorf,15.271,48.323,20
28,Saffen,15.154,48.022,20
46,Präbichl,14.955,47.522,24
112,Sankt Martin,14.618,46.697,112
28,Voitsau,15.315,48.429,20
79,Kobenz,14.847,47.249,28
28,Rückersdorf,14.567,46.564,20
28,Niedergrünbach,15.358,48.531,20
46,Weiten,15.267,48.292,39
46,Franzen,15.395,48.619,24
24,Blumau an der Wild,15.452,48.761,20
94,Scheibbs,15.167,48.008,39
33,Neustift,15.162,47.993,20
39,Lindau,15.488,48.827,20
28,Maierhöfen,15.113,47.86,20
24,Grafenbach,14.662,46.747,20
39,Trandorf,15.312,48.361,20
28,Modsiedl,15.507,48.861,20
28,Mannersdorf,15.241,48.169,20
39,Lehen,15.265,48.229,20
39,Großau,15.519,48.884,28
28,Mökriach,14.603,46.59,20
39,Rechberg,14.578,46.527,20
33,Kleinfeistritz,14.829,47.134,20
79,Völkermarkt,14.634,46.661,28
39,Sankt Marxen,14.623,46.631,24
28,Leiben,15.275,48.243,28
94,Wölfnitz,14.69,46.784,79
55,Albrechtsberg an der Großen Krems,15.365,48.463,28
46,Feistritz bei Knittelfeld,14.892,47.268,24
28,Zelking,15.258,48.184,20
24,Kuffarn,15.298,48.283,20
134,Kleinlobming,14.847,47.151,28
39,Drösiedl,15.494,48.788,20
55,Langau,15.129,47.845,55
134,Bad Vellach,14.55,46.426,46
33,Schardorf,14.959,47.419,28
55,Ludweis,15.492,48.77,39
39,Radl,15.506,48.807,20
24,Oberndorf an der Melk,15.219,48.065,24
28,Fahnsdorf,15.3,48.269,20
28,Neupölla,15.446,48.643,24
94,Vordernberg,14.992,47.491,55
55,Matzleinsdorf,15.275,48.202,28
55,Sittersdorf,14.606,46.546,24
66,Lichtenau,15.391,48.497,46
28,Haimburg,14.669,46.696,28
28,Wisperndorf,14.786,46.977,20
33,Waiden,15.466,48.687,20
24,Grottendorf,15.41,48.54,24
46,Mühldorf,15.35,48.378,33
24,Gimplach,14.976,47.429,20
55,Greutschach,14.7,46.75,28
55,Preims,14.762,46.898,20
79,Loitzendorf,15.323,48.293,28
230,Bad Sankt Leonhard im Lavanttal,14.792,46.963,94
33,Gösselsdorf,14.633,46.575,20
46,Eberndorf,14.64,46.59,39
24,Fachelberg,15.273,48.153,20
55,Timmersdorf,14.966,47.377,24
33,Zabernreith,15.55,48.862,20
46,Sankt Georgen an der Leys,15.228,48.031,28
94,Krumau am Kamp,15.448,48.592,39
39,Diesendorf,15.254,48.091,24
46,Oberndorf,15.35,48.337,20
55,Winkl,15.479,48.669,20
55,Aichberg,14.746,46.823,28
55,Ötscherwiese,15.171,47.873,24
55,Sankt Anton an der Jeßnitz,15.207,47.961,39
94,Hafning,14.999,47.44,20
33,Vießling,15.364,48.357,20
33,Großweichselbach,15.293,48.173,20
28,Luden,15.574,48.895,20
28,Wiesenau,14.803,46.947,20
39,Altpölla,15.471,48.623,20
55,Rachau,14.914,47.216,39
66,Bad Weißenbach,14.777,46.873,20
79,Sankt Leonhard am Forst,15.287,48.141,55
24,Schweinburg,15.545,48.806,20
24,Altendorf,14.644,46.548,20
39,Emmersdorf an der Donau,15.332,48.245,20
33,Sankt Peter am Wallersberg,14.69,46.654,33
94,Ramsau,15.488,48.642,33
24,Felling,15.423,48.472,20
28,Pribelsdorf,14.68,46.622,20
39,Kaisersberg,14.974,47.334,20
112,Melk,15.33,48.227,79
160,Niederdorf,14.967,47.308,33
28,Loiwein,15.437,48.492,24
39,Glein,14.94,47.233,20
24,Gossam,15.349,48.257,20
46,Messern,15.528,48.72,20
28,Pustritz,14.745,46.747,24
28,Pöverding,15.334,48.206,20
28,Röhrenbach,15.51,48.656,20
55,Griffen,14.731,46.703,24
24,Stadlhof,15.004,47.368,20
94,Japons,15.569,48.793,39
55,Weinzierl am Walde,15.433,48.433,24
46,Nestelberg-Lackenhof,15.225,47.9,24
66,Neuhaus-Langau,15.181,47.789,46
55,Oberort,15.078,47.532,20
28,Sankt Margarethen im Lavanttal,14.804,46.855,24
39,Sankt Peter-Freienstein,15.027,47.398,20
24,Schwallenbach,15.402,48.341,20
24,Feinfeld,15.528,48.667,20
39,Schiefling,14.843,46.942,28
55,Liesingtal,15.01,47.35,46
46,Pichl-Großdorf,15.073,47.507,46
24,Wappoltenreith,15.563,48.752,20
55,Irnfritz,15.56,48.739,55
46,Trabenreith,15.57,48.762,20
33,Neumittlern,14.711,46.606,33
28,Jaidhof,15.483,48.531,20
33,Oberarnsdorf,15.415,48.352,20
24,Willendorf in der Wachau,15.404,48.323,20
24,Anzendorf,15.353,48.192,20
94,Twimberg,14.844,46.914,24
33,Pielach,15.372,48.227,20
46,Globasnitz,14.7,46.557,20
39,Elsern,15.616,48.85,20
24,Sankt Michael in Obersteiermark,15.022,47.338,20
28,Drosendorf Stadt,15.623,48.865,24
39,Unter-Meisling,15.475,48.477,20
160,Gföhl,15.492,48.517,79
55,Kirnberg an der Mank,15.324,48.072,33
24,Fuglau,15.547,48.646,20
33,Unterthumeritz,15.608,48.803,20
39,Pirk,14.807,46.786,20
55,Mank,15.341,48.111,33
55,Traundorf,14.723,46.578,24
33,Weichselboden,15.172,47.67,20
28,Wösendorf in der Wachau,15.452,48.382,20
66,Sooß,15.369,48.167,28
24,Ostra,15.478,48.442,24
66,Texing,15.324,48.048,20
24,Pingendorf,15.624,48.817,20
28,Aggsbach-Dorf,15.424,48.296,24
79,Lind,14.772,46.676,46
24,Albrechtsberg an der Pielach,15.391,48.212,20
39,Hinterlobming,15.025,47.29,33
33,Weißenkirchen in der Wachau,15.467,48.401,28
24,Ruden,14.769,46.655,20
476,Wolfsberg,14.845,46.84,276
33,Groß Burgstall,15.576,48.674,24
28,Sankt Leonhard am Hornerwald,15.547,48.597,28
55,Puchenstuben,15.286,47.928,39
28,Sankt Gotthard,15.331,48.034,20
134,Erlaufboden,15.269,47.877,46
28,Pernarotte,15.305,47.961,20
160,Sankt Andrä,14.822,46.766,66
46,Rinkenberg,14.765,46.625,28
24,Hinterberg,15.071,47.363,20
33,Staningersdorf,15.607,48.723,20
28,Oberschmidbach,15.376,48.123,20
55,Salla,14.972,47.109,33
28,Frantschach,14.874,46.865,20
112,Wolfsbach,15.662,48.85,112
134,Frankenfels,15.326,47.983,66
46,Greith,15.219,47.709,33
28,Moos,14.769,46.598,20
571,Leoben,15.092,47.374,230
55,Altenburg,15.594,48.646,28
28,Raisdorf,15.634,48.748,20
24,Paildorf,14.864,46.808,24
24,Sankt Ilgen,15.167,47.544,20
24,Sankt Nikolai,14.803,46.652,20
39,Hürm,15.411,48.156,24
39,Preitenegg,14.923,46.939,33
66,Hirschegg,14.958,47.022,55
55,Schenkenbrunn,15.486,48.344,24
28,Gansbach,15.473,48.307,20
28,Kottaun,15.675,48.824,20
24,Harth,15.655,48.763,20
28,Einersdorf,14.796,46.603,20
134,Geras,15.674,48.797,28
66,Etmißl,15.173,47.515,33
33,Seeben,15.435,48.172,20
66,Mitterbach am Erlaufsee,15.296,47.817,33
160,Oed,15.481,48.285,46
39,Wienerbruck,15.311,47.855,33
55,Bleiburg,14.799,46.59,55
79,Kilb,15.409,48.1,39
46,Eis,14.83,46.664,20
39,Reideben,14.887,46.797,20
55,Kamp,14.922,46.883,24
33,Sankt Katharein an der Laming,15.162,47.472,33
39,Wolfenreith,15.501,48.326,20
24,Posselsdorf,15.662,48.734,20
24,Hundsdorf,14.857,46.712,20
46,Mödring,15.647,48.693,20
24,Korning,15.469,48.23,24
28,Goggitsch,15.68,48.774,20
24,Etzmannsdorf am Kamp,15.622,48.617,20
28,Oberradl,15.444,48.158,20
79,Graden,15.035,47.131,39
39,Eitweg,14.89,46.778,20
66,Hötzelsdorf,15.674,48.746,39
160,Sankt Martin,14.854,46.686,66
33,Dobersnigg,15.393,48.013,20
160,Loibach,14.806,46.556,20
28,Oberbergern,15.532,48.364,20
28,Schwabegg,14.848,46.651,20
28,Tautendorf,15.619,48.579,20
28,Rosenburg,15.639,48.629,24
33,Maria Rojach,14.884,46.736,20
24,Droß,15.575,48.464,20
46,Pack,14.983,46.977,33
39,Niklasdorf,15.155,47.397,28
28,Sankt Paul im Lavanttal,14.87,46.699,20
39,Lauterbach,15.499,48.26,20
28,Egelsee,15.561,48.419,20
33,Unterbergern,15.55,48.376,20
28,Schwarzenbach an der Pielach,15.383,47.947,28
46,Gemmersdorf,14.903,46.757,33
33,Loich,15.402,47.995,28
46,Gößnitz,15.024,47.05,20
33,Haindorf,15.476,48.177,20
160,Mariazell,15.317,47.772,134
33,Dallein,15.702,48.76,20
24,Doberndorf,15.683,48.708,20
66,Gußwerk,15.31,47.741,24
66,Lengenfeld,15.598,48.472,33
28,Äußere Schmelz,15.36,47.865,28
55,Kirchberg an der Pielach,15.428,48.027,55
46,Schiltern,15.624,48.517,39
28,Bischofstetten,15.471,48.123,28
46,Seewiesen,15.272,47.619,28
39,Palbersdorf,15.236,47.525,20
28,Weyersdorf,15.534,48.274,20
55,Mautern an der Donau,15.581,48.392,20
112,Gars am Kamp,15.661,48.597,55
33,Breiteneich,15.693,48.674,24
39,Oberhöflein,15.742,48.801,24
66,Sankt Georgen im Lavanttal,14.916,46.717,24
33,Windschnur,15.521,48.225,20
46,Kainach bei Voitsberg,15.091,47.142,33
46,Neuhaus,14.887,46.642,24
55,Prinzersdorf,15.517,48.202,39
33,Sankt Dionysen,15.206,47.415,33
46,Rabenstein an der Pielach,15.467,48.064,33
79,Edelschrott,15.051,47.023,33
24,Zaingrub,15.688,48.626,20
112,Gollrad,15.306,47.651,55
46,Kainreith,15.723,48.712,20
24,Gneixendorf,15.62,48.439,20
46,Poppendorf,15.52,48.179,20
55,Mold,15.7,48.641,24
230,Krems an der Donau,15.614,48.415,160
33,Oberaich,15.215,47.397,20
46,Köflach,15.083,47.065,28
24,Rassingdorf,15.763,48.777,20
39,Starrein,15.759,48.763,24
39,Arndorf,15.238,47.433,20
24,Grünau,15.503,48.101,20
79,Plank am Kamp,15.682,48.557,33
33,Furth bei Göttweig,15.613,48.375,20
66,Oberwölbling,15.593,48.319,46
33,Piber,15.1,47.081,20
24,Röhrawiesen,15.751,48.725,20
39,Flinsbach,15.563,48.238,20
24,Schwarzenbach,14.94,46.683,20
24,Heinrichsdorf,15.762,48.745,20
24,Baumgarten,15.529,48.139,20
66,Modriach,15.06,46.958,46
24,Mörtersdorf,15.719,48.618,20
28,Winkl,15.261,47.451,20
33,Stiefern,15.688,48.534,20
94,Paudorf,15.619,48.355,20
28,Stockern,15.735,48.652,20
55,Neuhof,15.172,47.224,33
55,Sigmundsherberg,15.75,48.686,39
55,Ettendorf,14.948,46.672,24
24,Au bei Turnau,15.315,47.571,20
79,Ober-Grafendorf,15.546,48.15,33
55,Weinburg,15.533,48.114,20
79,Lavamünd,14.941,46.642,46
24,Fronsburg,15.805,48.803,20
33,Klein-Meiseldorf,15.753,48.664,20
112,Schönberg am Kamp,15.698,48.518,39
33,Parschlug,15.292,47.483,20
24,Diemlach,15.273,47.435,20
79,Greith,15.344,47.611,28
28,Sankt Martin am Wöllmißberg,15.104,47.01,28
39,Großrust,15.613,48.275,24
160,Bruck an der Mur,15.272,47.412,94
24,Harmannsdorf,15.74,48.602,20
66,Theras,15.791,48.73,39
55,Zöbing,15.7,48.493,20
24,Witzendorf,15.589,48.206,20
39,Kapfenberg,15.291,47.446,20
46,Turnau,15.336,47.558,46
24,Höbenbach,15.649,48.348,20
46,Hochtregist,15.146,47.081,20
94,Türnitz,15.492,47.93,55
46,Obermixnitz,15.813,48.752,20
24,Reinprechtspölla,15.76,48.613,20
28,Statzendorf,15.642,48.306,20
24,Krustetten,15.663,48.361,20
33,Nadelbach,15.596,48.188,20
46,Hardegg,15.859,48.852,20
33,Pleissing,15.84,48.802,20
33,Sankt Pankrazen,15.186,47.137,28
39,Brunn im Felde,15.699,48.43,24
33,Weitern,15.623,48.233,24
79,Glashütten,15.06,46.824,28
28,Södingberg,15.174,47.102,20
24,Kühnring,15.781,48.634,20
28,Rottersdorf,15.649,48.288,20
33,Theiß,15.692,48.399,24
33,Sankt Vinzenz,15.013,46.696,33
24,Zagging,15.646,48.268,20
112,Deuchendorf,15.329,47.466,46
24,Dickenau,15.522,47.949,20
55,Markt-Übelbach,15.235,47.227,46
46,Niederalpl,15.418,47.681,39
28,Reikersdorf,15.767,48.571,20
39,Sankt Oswald in Freiland,15.1,46.89,39
28,Kattau,15.81,48.677,20
28,Eschenau,15.567,48.048,24
39,Inzersdorf ob der Traisen,15.677,48.318,20
55,Großstübing,15.235,47.193,28
28,Göblasbruck,15.59,48.082,20
28,Grunddorf,15.722,48.411,20
28,Oberfladnitz,15.864,48.778,20
28,Elsarn im Straßertal,15.756,48.497,28
192,Wilhelmsburg,15.604,48.106,79
55,Schröckenhof,15.396,47.577,33
39,Rotheau,15.593,48.068,20
39,Reichersdorf,15.698,48.336,20
192,Eggenburg,15.817,48.643,94
33,Eggendorf,15.62,48.134,20
94,Zlatten,15.315,47.365,33
33,Etsdorf am Kamp,15.742,48.445,20
33,Frauenberg,15.342,47.427,28
33,Schrambach,15.572,47.999,20
24,Zogelsdorf,15.814,48.619,20
39,Sankt Lorenzen im Mürztal,15.37,47.482,20
33,Leodagger,15.858,48.721,20
79,Stiwoll,15.22,47.102,39
33,Ratzersdorf an der Traisen,15.666,48.223,20
39,Harland,15.642,48.159,33
46,Burgschleinitz,15.815,48.606,28
55,Unterradlberg,15.68,48.257,20
46,Niederfladnitz,15.895,48.797,33
79,Pulkau,15.86,48.705,46
55,Frein an der Mürz,15.485,47.742,24
39,Zemling,15.793,48.529,20
24,Roggendorf,15.847,48.668,20
24,Rothleiten,15.302,47.282,20
24,Marktl,15.6,48.024,20
66,Lilienfeld,15.598,48.013,20
46,Traisen,15.609,48.039,33
33,Laufnitzdorf,15.318,47.295,20
28,Waldstein,15.289,47.223,28
55,Stallhofen,15.22,47.049,20
24,Pernegg,15.348,47.36,20
33,Sankt Andrä an der Traisen,15.719,48.297,20
33,Pottenbrunn,15.696,48.237,33
28,Oberzwischenbrunn,15.686,48.209,20
28,Freiland bei Deutschlandsberg,15.141,46.848,20
79,Maissau,15.83,48.572,55
66,Ligist Markt,15.207,46.994,20
24,Meierhof,15.256,47.112,20
28,Frohnleiten,15.32,47.27,28
24,Krottendorf bei Ligist,15.216,47.011,24
33,Stoitzendorf,15.867,48.648,20
79,Kernhof,15.544,47.817,33
24,Mautstatt,15.357,47.343,20
112,Sankt Aegyd am Neuwalde,15.564,47.854,112
66,Grafenwörth,15.782,48.409,24
46,Trahütten,15.151,46.824,28
24,Straning,15.864,48.612,20
55,Heuberg,15.688,48.155,24
55,Röschitz,15.887,48.667,28
39,Hohenwarth,15.826,48.506,24
33,Gösing am Wagram,15.813,48.47,24
39,Schrauding,15.328,47.241,20
55,Schwarzenbach an der Gölsen,15.656,48.066,20
33,Schrattenthal,15.909,48.717,24
55,Gressenberg,15.145,46.79,33
66,Mixnitz,15.367,47.332,28
24,Wartberg,15.883,48.636,20
39,Ravelsbach,15.851,48.552,20
33,Sankt Katharina in der Wiel,15.124,46.725,33
28,Jasnitz,15.426,47.466,28
28,Auern,15.695,48.14,20
33,Röthelstein,15.366,47.31,20
46,Thorhof,15.598,47.886,20
28,Furthof,15.615,47.923,20
94,Kindberg,15.449,47.504,66
24,Maria Jeutendorf,15.743,48.244,20
28,Schirning,15.29,47.104,20
66,Fels am Wagram,15.819,48.438,66
55,Wald,15.699,48.127,20
33,Etzersdorf,15.753,48.266,24
33,Unterdürnbach,15.874,48.579,20
28,Reiteregg,15.273,47.055,20
33,Hohenfeld,15.207,46.883,20
33,Gundersdorf,15.233,46.948,20
134,Sankt Veit an der Gölsen,15.671,48.041,46
28,Obermitterbach,15.603,47.865,20
134,Deutschfeistritz,15.337,47.198,46
24,Niederschleinz,15.89,48.595,24
66,Dorf-Veitsch,15.494,47.58,39
192,Schrems,15.374,47.28,94
230,Retz,15.954,48.758,94
24,Nützling,15.72,48.149,20
24,Sankt Anna ob Schwanberg,15.159,46.748,24
28,Wipfing,15.299,47.089,20
55,Friesach,15.335,47.172,20
39,Unternalb,15.954,48.74,20
55,Berndorf,15.276,47.02,55
33,Mitterretzbach,15.975,48.784,20
39,Eggenfeld,15.334,47.152,20
46,Gemeinlebarn,15.805,48.339,20
24,Großmeiseldorf,15.88,48.53,20
39,Roseldorf,15.927,48.645,24
55,Großriedenthal,15.868,48.484,39
46,Wartberg im Mürztal,15.492,47.524,24
134,Zellerndorf,15.955,48.696,46
33,Mooskirchen,15.28,46.986,20
46,Böheimkirchen,15.763,48.198,20
39,Hitzendorf,15.301,47.037,20
28,Tyrnau,15.413,47.312,24
33,Straßengel,15.335,47.112,20
66,Furth,15.756,48.166,24
55,Steinberg,15.319,47.069,28
24,Großsöding,15.291,46.999,20
112,Deutschlandsberg,15.218,46.817,46
24,Kollersdorf,15.852,48.407,20
24,Reidling,15.82,48.32,20
39,Neudorf,15.394,47.236,20
79,Wiesen,15.786,48.219,55
33,Schwanberg,15.201,46.758,28
134,Neudörfl,15.572,47.671,66
46,Platt,15.963,48.672,20
66,Sankt Lorenzen,15.165,46.661,33
66,Stanz im Mürztal,15.494,47.469,28
39,Thalheim,15.798,48.239,20
46,Gettsdorf,15.92,48.552,20
112,Stainz,15.263,46.894,55
46,Unterretzbach,16.004,48.767,24
46,Nechnitz,15.429,47.299,20
28,Mayersdorf,15.316,47.019,20
33,Sitzendorf an der Schmida,15.941,48.599,33
28,Rechbergdorf,15.416,47.262,20
28,Pirkhof,15.288,46.942,20
24,Pichling bei Stainz,15.274,46.905,20
33,Kleinhöflein,16.004,48.751,20
46,Frauendorf an der Schmida,15.937,48.574,20
46,Semriach,15.403,47.217,33
39,Schamberg,15.253,46.843,20
33,Ottenthal,15.899,48.466,20
79,Michelbach Markt,15.757,48.099,39
24,Kasten bei Böheimkirchen,15.779,48.154,20
24,Frauental an der Laßnitz,15.255,46.827,20
94,Ziersdorf,15.932,48.53,46
55,Hohlbach,15.24,46.786,24
39,Attendorf,15.33,47.006,20
24,Totzenbach,15.81,48.205,20
28,Hötschdorf,15.316,46.962,20
39,Neustift im Felde,15.891,48.407,20
24,Rannach,15.392,47.147,20
39,Kirchberg am Wagram,15.901,48.431,39
28,Großnondorf,15.982,48.634,20
46,Tautendorf,15.851,48.284,24
28,Ettendorf bei Stainz,15.298,46.888,20
33,Mantscha,15.356,47.031,24
55,Krieglach,15.564,47.544,33
24,Steyeregg,15.237,46.735,20
39,Glaubendorf,15.944,48.51,20
79,Lieboch,15.336,46.975,33
39,Anger,15.441,47.234,20
46,Tulwitz,15.459,47.272,28
55,Vordersdorf,15.233,46.716,24
276,Sankt Peter im Sulmtal,15.251,46.758,230
39,Schreinhof,15.737,47.961,20
33,Karlsdorf,16.026,48.705,28
28,Feistritz,15.582,47.563,20
24,Aibl,15.226,46.682,20
94,Würmla,15.86,48.255,39
24,Obergrabern,15.996,48.608,20
24,Ruppersthal,15.944,48.468,24
33,Sankt Veit,15.411,47.116,20
66,Buch,15.432,47.16,20
28,Dürnrohr,15.896,48.331,20
24,Baumgarten am Wagram,15.957,48.483,20
46,Kapellen,15.631,47.647,33
39,Ollersbach,15.844,48.187,33
55,Altenberg an der Rax,15.644,47.676,24
24,Tobelbad,15.366,46.982,20
28,Kleinhaugsdorf,16.063,48.75,28
79,Rohr im Gebirge,15.733,47.896,66
112,Eibiswald,15.248,46.687,55
46,Zwentendorf an der Donau,15.91,48.343,33
28,Wölling,15.48,47.253,20
24,Heiligeneich,15.894,48.3,24
28,Mittergrabern,16.017,48.618,24
79,Schwarzau im Gebirge,15.704,47.81,33
39,Pernesreith,15.504,47.301,20
28,Hart,15.496,47.268,20
79,Breitenau,15.481,47.23,55
24,Plenzengreith,15.477,47.218,20
33,Umsee,15.871,48.202,20
24,Gstettl,15.806,48.034,20
134,Seiersberg,15.398,47.011,55
79,Guntersdorf,16.047,48.649,39
24,Oberfellabrunn,16.016,48.56,24
66,Reithof,15.708,47.767,66
46,Raipoltenbach,15.885,48.219,20
112,Passail,15.515,47.281,46
134,Großweikersdorf,15.985,48.471,79
55,Utzenlaa,15.948,48.371,20
33,Hautzendorf,15.399,46.984,20
28,Pitschgau,15.286,46.703,20
33,Oberthern,16.008,48.514,20
28,Großwiesendorf,15.984,48.447,20
55,Otternitz,15.323,46.78,20
94,Sommeralm,15.553,47.346,39
24,Gutenbrunn,15.647,47.578,20
39,Arzberg,15.516,47.248,20
39,Sankt Radegund bei Graz,15.489,47.181,24
33,Oberschöckl,15.478,47.152,24
46,Pölfing,15.31,46.733,20
28,Sankt Christophen,15.888,48.175,20
28,Grund,16.063,48.63,20
134,Absdorf,15.979,48.401,20
39,Michelhausen,15.938,48.29,39
55,Asperhofen,15.924,48.246,33
55,Dietersdorf,15.399,46.922,20
79,Schöngrabern,16.064,48.602,39
94,Alpl,15.637,47.507,39
24,Feldkirchen bei Graz,15.442,47.014,24
28,Sankt Ulrich in Greith,15.321,46.715,28
24,Breitenfeld,15.522,47.21,20
33,Neusiedl,15.965,48.323,24
46,Laaben,15.882,48.11,20
24,Grabensee,15.932,48.234,20
39,Plankenberg,15.948,48.265,20
24,Meierhöfen,15.524,47.191,20
39,Garrach,15.537,47.22,20
66,Puch,16.04,48.497,28
24,Lebern,15.449,47.003,20
55,Wettmannstätten,15.384,46.832,24
66,Mariatrost,15.498,47.112,33
55,Dietersdorf,16.058,48.529,20
28,Zettling,15.435,46.952,20
39,Sankt Kathrein am Offenegg,15.577,47.3,33
55,Ries,15.494,47.088,20
39,Wullersdorf,16.101,48.628,24
24,Stetteldorf am Wagram,16.017,48.409,20
46,Oberhaag,15.332,46.687,24
28,Sankt Andrä im Sausal,15.377,46.792,28
46,Innermanzing,15.913,48.132,20
79,Preding,15.405,46.86,55
39,Pretul,15.686,47.555,24
39,Hadres,16.136,48.709,33
33,Brandlucken,15.6,47.336,28
28,Oberrußbach,16.05,48.475,20
39,Gleinstätten,15.368,46.755,39
79,Kumberg,15.533,47.16,39
28,Aspersdorf,16.097,48.587,20
24,Haselbach bei Weiz,15.566,47.234,20
39,Fischbach,15.65,47.441,20
79,Altlengbach,15.931,48.153,24
28,Wimmersdorf,15.967,48.231,20
46,Immendorf,16.128,48.645,20
24,Wundschuh,15.45,46.927,20
79,Neuaigen,16.024,48.363,28
55,Raaba,15.496,47.028,28
28,Asparn,16.01,48.319,20
24,Ponigl,15.454,46.914,20
33,Kainbach,15.527,47.093,20
28,Oberprellerberg,15.543,47.128,20
79,Kalsdorf bei Graz,15.478,46.965,46
46,Langenrohr,16.01,48.306,24
33,Leska,15.582,47.222,24
33,Prein an der Rax,15.765,47.673,20
66,Naas,15.596,47.25,20
28,Grambach,15.502,47.014,20
24,Furth,16.091,48.504,20
66,Kaiserbrunn,15.793,47.734,28
28,Gschwendt,15.571,47.179,20
55,Sankt Corona am Schöpfl,15.924,48.066,33
24,Maria Roggendorf,16.139,48.618,20
33,Hengsberg,15.45,46.869,24
28,Hinterleiten,15.966,48.164,20
28,Pachern,15.522,47.046,20
39,Reith,15.672,47.415,20
24,Hart bei Eggersdorf,15.565,47.147,20
24,Waldschach,15.434,46.823,24
28,Henzing,16.013,48.269,20
24,Oberparschenbrunn,16.093,48.474,20
66,Großkadolz,16.185,48.713,24
55,Hausmannstätten,15.507,46.991,24
24,Zöfing,16.021,48.281,20
33,Hutten,15.983,48.182,33
66,Sieghartskirchen,16.014,48.255,55
28,Radiga,15.404,46.722,20
79,Werndorf,15.489,46.925,28
55,Sankt Johann im Saggautal,15.401,46.702,20
66,Mailberg,16.182,48.675,28
24,Hönigtal,15.562,47.094,20
39,Waisenegg,15.684,47.395,20
39,Sallegg,15.661,47.338,20
24,Neudorf ob Wildon,15.486,46.901,20
28,Perzendorf,16.07,48.371,20
28,Unterparschenbrunn,16.103,48.456,28
46,Rappoltenkirchen,16.018,48.233,20
94,Tulln an der Donau,16.06,48.326,79
33,Hochstraß,15.988,48.139,33
33,Freundorf,16.048,48.285,20
28,Landscha bei Weiz,15.633,47.229,20
39,Heritzberg,15.472,46.831,20
39,Kitzeck im Sausal,15.453,46.781,33
33,Fresing,15.445,46.76,20
24,Dexenberg,15.483,46.848,20
33,Rossegg,15.67,47.31,20
39,Nappersdorf,16.187,48.629,28
66,Steinhaus am Semmering,15.797,47.618,66
66,Hausleiten,16.101,48.395,55
33,Pacher,15.727,47.441,20
66,Großklein,15.442,46.737,24
66,Laßnitzhöhe,15.581,47.077,46
39,Eggersdorf bei Graz,15.601,47.123,39
94,Premstätten,15.563,47.021,66
39,Haslach,16.19,48.608,20
39,Strallegg,15.724,47.411,33
24,Breitenstein,15.822,47.658,20
55,Vorderbruck,15.908,47.876,28
28,Porrau,16.163,48.532,20
39,Frauenhofen,16.077,48.307,20
33,Preding,15.645,47.2,20
55,Thenneberg,15.97,48.018,39
28,Pichl an der Raab,15.636,47.17,20
46,Bergau,16.165,48.514,24
79,Rettenegg,15.781,47.526,33
33,Zwingendorf,16.24,48.704,28
39,Semmering-Kurort,15.826,47.638,20
24,Ried am Riederberg,16.069,48.254,20
28,Liebensdorf,15.565,46.982,20
24,Muggendorf,15.937,47.911,20
33,Hütteregg,15.613,47.091,20
28,Anger,15.688,47.274,20
24,Jöß,15.517,46.84,20
94,Klausen-Leopoldsdorf,16.016,48.09,66
55,Brand,15.7,47.289,24
24,Zissersdorf,16.138,48.401,20
28,Stocking,15.538,46.886,20
28,Nestelbach bei Graz,15.609,47.061,20
39,Heimschuh,15.488,46.761,20
24,Furth an der Triesting,15.974,47.973,24
28,Unterfladnitz,15.665,47.181,20
55,Tillmitsch,15.514,46.81,20
33,Großharras,16.247,48.663,28
66,Lebring,15.536,46.852,24
28,Füllersdorf,16.198,48.526,20
112,Puchberg am Schneeberg,15.913,47.786,66
24,Kammersdorf,16.241,48.629,20
55,Sankt Ruprecht an der Raab,15.662,47.155,33
55,Sankt Jakob im Walde,15.788,47.466,33
28,Fünfing,15.658,47.14,20
24,Fresen,15.711,47.272,20
28,Unterfahrenbach,15.499,46.747,20
79,Sierndorf,16.167,48.43,28
230,Pernitz,15.961,47.898,66
33,Pfalzau,16.064,48.161,20
28,Rohrbach im Graben,15.905,47.755,24
94,Oberfeistritz,15.708,47.259,39
46,Heiligenkreuz am Waasen,15.585,46.956,46
39,Empersdorf,15.604,47.001,20
39,Oberolberndorf,16.161,48.41,20
39,Großfelgitsch,15.578,46.933,20
39,Höbersdorf,16.179,48.449,20
28,Küb,15.88,47.681,20
55,Schloßberg,15.47,46.662,39
46,Schottwien,15.873,47.656,33
24,Tulbing,16.122,48.291,20
192,Pressbaum,16.079,48.18,112
24,Miesenbach bei Birkfeld,15.76,47.37,24
24,Seggauberg,15.521,46.772,20
66,Enzersdorf im Thale,16.241,48.587,33
160,Wenigzell,15.787,47.426,66
33,Nöstach,16.026,48.025,28
24,Neutillmitsch,15.545,46.819,20
55,Irenental,16.1,48.206,20
28,Wilfersdorf,15.665,47.107,24
39,Krumegg,15.632,47.021,33
39,Sankt Georgen an der Stiefing,15.576,46.876,20
33,Wulzeshofen,16.304,48.718,33
94,Leibnitz,15.54,46.783,94
39,Königstetten,16.147,48.302,24
66,Puch bei Weiz,15.726,47.226,24
24,Waidmannsfeld,15.983,47.869,20
24,Rollsdorf,15.709,47.182,20
33,Groisbach,16.054,48.043,20
28,Auf der Wiese,15.92,47.697,20
66,Großmugl,16.231,48.497,39
46,Feistritzwald,15.855,47.529,39
24,Allhang,16.135,48.241,20
39,Breitenbrunn,15.838,47.483,28
55,Miesenbach,15.982,47.843,33
28,Tulbingerkogel,16.152,48.274,20
46,Weissenbach an der Triesting,16.039,47.982,33
79,Großhöniggraben,16.097,48.128,24
46,Herzogbirbaum,16.248,48.519,20
33,Neuhaus,16.047,47.997,20
33,Trattenbach,15.893,47.604,24
94,Stronsdorf,16.301,48.65,66
28,Elz,15.736,47.204,20
46,Wagna,15.556,46.761,20
24,Gruberau,16.1,48.117,20
28,Waldbach,15.837,47.449,24
46,Ragnitz,15.591,46.838,24
39,Roseldorf,16.241,48.478,20
24,Gasteil,15.941,47.707,20
33,Mittergoggitsch,15.675,47.038,20
24,Wolfpassing,16.179,48.313,20
28,Schwarzensee,16.062,48.01,20
55,Alland,16.081,48.059,39
39,Wolfsgraben,16.122,48.159,24
331,Stockerau,16.212,48.389,134
24,Ottendorf,16.257,48.506,20
112,Gamlitz,15.552,46.72,33
39,Vornholz,15.826,47.396,20
33,Grünbach am Schneeberg,15.987,47.798,33
24,Frannach,15.632,46.911,20
66,Prätis,15.81,47.349,20
28,Neu-Purkersdorf,16.144,48.195,24
33,Obersaifen,15.8,47.323,33
46,Oed,16.023,47.879,33
24,Gabersdorf,15.587,46.782,20
134,Mauerbach,16.168,48.244,55
39,Neudorf an der Mur,15.593,46.793,28
39,Mitterlabill,15.634,46.891,20
24,Mayerling,16.097,48.045,20
79,Sieding,15.977,47.738,28
33,Grub,16.113,48.08,20
24,Unterkirchbach,16.194,48.29,20
39,Leitzersdorf,16.245,48.419,20
28,Breitenbuch,15.671,46.963,24
39,Kirchbach in Steiermark,15.661,46.932,28
28,Neudorf,15.754,47.16,20
66,Schachen bei Vorau,15.842,47.378,39
39,Unterstinkenbrunn,16.346,48.665,24
94,Dienersdorf,15.9,47.24,28
46,Nitscha,15.749,47.128,20
39,Pyhra,16.38,48.59,20
46,Sulz im Wienerwald,16.137,48.102,33
33,Otterthal,15.942,47.623,28
24,Wollmannsberg,16.265,48.429,20
276,Laa an der Thaya,16.385,48.723,112
33,Petersdorf II,15.692,46.994,20
46,Hanfthal,16.363,48.703,20
55,Eichenbrunn,16.356,48.62,33
28,Laab im Walde,16.177,48.154,20
33,Festenburg,15.913,47.46,24
33,Merkersdorf,16.3,48.535,20
46,Purkersdorf,16.175,48.21,20
55,Oberhausen,16.584,48.178,33
28,Molzegg,15.971,47.585,20
39,Draßburg,16.488,47.746,28
66,Kirchberg am Wechsel,15.991,47.61,46
46,Hernstein,16.106,47.895,20
112,Sankt Stefan im Rosental,15.711,46.904,55
28,Sierndorf an der March,16.887,48.512,20
24,Horitschon,16.55,47.588,20
160,Lassee,16.824,48.226,79
39,Ratsch an der Weinstraße,15.571,46.689,20
28,Kaltenleutgeben,16.2,48.117,28
55,Mörbisch am See,16.667,47.753,39
134,Ernstbrunn,16.361,48.529,94
39,Egelsdorf,15.811,47.122,20
55,Penk,16.03,47.663,28
28,Oberrettenbach,15.831,47.139,20
46,Sankt Corona am Wechsel,16.009,47.586,20
28,Wetzelsdorf bei Jagerberg,15.725,46.87,20
94,Gols,16.907,47.899,39
66,Gaaden,16.199,48.054,28
33,Aschau am Ottersbach,15.741,46.885,20
46,Halt,15.82,47.295,20
28,Stubenberg am See,15.8,47.243,20
79,Nickelsdorf,17.07,47.94,39
24,Hintersdorf,16.217,48.303,20
33,Waldegg,16.051,47.87,20
28,Stambach,15.95,47.346,24
33,Wiesen,16.258,48.403,24
24,Feistritz am Wechsel,16.055,47.602,24
24,Hinterbrühl,16.247,48.087,20
24,Weixelberg,15.904,47.204,20
79,Perchtoldsdorf,16.269,48.124,33
28,Hainsdorf im Schwarzautal,15.638,46.835,20
33,Bad Vöslau,16.216,47.966,20
28,Grafensulz,16.444,48.553,20
33,Glatzau,15.671,46.913,20
28,Reibersdorf,15.982,47.357,20
28,Sankt Peter am Ottersbach,15.759,46.799,28
39,Stetten,16.383,48.366,24
24,Dörfl,15.84,47.331,20
33,Zeil bei Stubenberg,15.811,47.256,33
46,Grafendorf bei Hartberg,15.991,47.34,33
46,Bierbaum am Auersbach,15.793,46.83,28
33,Heiligenkreuz,16.129,48.057,24
28,Asparn an der Zaya,16.497,48.587,28
24,Ebersdorf,15.958,47.2,20
24,Manhartsbrunn,16.427,48.388,20
39,Krennach,15.892,47.025,20
39,Oberlungitz,16.024,47.315,20
24,Vogau,15.603,46.731,20
39,Theresienfeld,16.249,47.862,20
476,Feldbach,15.889,46.953,276
33,Sankt Johann in der Haide,16.026,47.279,20
33,Sebersdorf,15.993,47.186,20
46,Schäffern,16.11,47.478,28
28,Pottenstein,16.096,47.959,20
24,Zweiersdorf,16.037,47.807,20
28,Münichsthal,16.472,48.386,20
46,Zöbern,16.132,47.512,33
33,Spillern,16.26,48.378,20
39,Bad Waltersdorf,16.01,47.169,39
24,Bromberg,16.214,47.667,20
28,Ewitsch,15.598,46.707,20
33,Sparberegg,16.122,47.425,20
33,Katzelsdorf,16.27,47.782,20
55,Drasenhofen,16.647,48.756,46
24,Rams,15.972,47.633,20
33,Klingfurth,16.25,47.688,20
39,Wiesfleck,16.146,47.384,20
46,Neusiedl,16.088,47.919,24
24,Flatz,16.02,47.744,20
33,Prebensdorf,15.781,47.142,28
66,Herrnbaumgarten,16.682,48.697,24
33,Ebersdorf,16.031,47.013,20
94,Sankt Margarethen an der Raab,15.744,47.045,46
55,Kettlasbrunn,16.657,48.561,20
79,Kemeten,16.15,47.251,33
55,Niederhollabrunn,16.3,48.451,39
28,Hadersfeld,16.257,48.337,20
39,Sankt Veit am Vogau,15.626,46.746,20
33,Straßenberg,15.769,47.098,24
24,Nexing,16.654,48.493,20
79,Deutsch Kaltenbrunn,16.107,47.089,33
39,Sankt Johann bei Herberstein,15.816,47.214,20
24,Groß-Schweinbarth,16.634,48.415,24
79,Pöllauberg,15.858,47.316,66
55,Stein,16.085,46.999,24
55,Sigleß,16.394,47.777,24
79,Riegersbach,15.898,47.415,33
33,Maria Gugging,16.251,48.312,24
24,Altenmarkt,16.389,48.674,20
28,Glojach,15.681,46.874,24
94,Pischelsdorf in der Steiermark,15.804,47.175,55
28,Goritz bei Radkersburg,15.994,46.716,24
28,Puchegg,15.89,47.388,24
46,Reithberg,15.72,46.963,20
33,Bocksdorf,16.178,47.142,20
46,Sankt Nikolai ob Draßling,15.661,46.816,33
39,Sittendorf,16.163,48.074,20
24,Grieselstein,16.12,46.95,20
24,Rotenturm an der Pinka,16.243,47.253,24
55,Matzen,16.694,48.402,28
79,Rutzendorf,16.626,48.208,24
24,Loretto,16.515,47.915,20
33,Altlichtenwarth,16.798,48.645,20
192,Jennersdorf,16.143,46.937,79
24,Willendorf,16.055,47.791,20
33,Simonsfeld,16.334,48.507,20
28,Bubendorf im Burgenland,16.345,47.427,20
