rs,name,lon,lat,r1
134,Lümanda,22.025,58.288,66
112,Kihelkonna,22.044,58.363,94
331,Mustjala,22.239,58.46,94
192,Kärla,22.255,58.331,112
230,Salme,22.25,58.163,94
112,Kõrgessaare,22.467,58.981,112
79,Nasva,22.387,58.229,39
134,Aste,22.448,58.345,66
276,Emmaste,22.597,58.705,94
986,Kuressaare,22.493,58.258,822
230,Hullo,23.242,58.993,112
134,Pürksi,23.521,59.007,55
571,Kärdla,22.745,58.995,331
276,Leisi,22.683,58.571,112
331,Käina,22.776,58.828,134
112,Kõljala,22.685,58.369,39
331,Valjala,22.795,58.41,134
134,Suuremõisa,22.952,58.873,66
112,Laimjala,23.003,58.427,79
397,Orissaare,23.082,58.559,276
134,Liiva,23.231,58.605,55
822,Ruhnu,23.243,57.804,331
986,Haapsalu,23.543,58.941,397
230,Virtsu,23.524,58.578,112
230,Panga,23.583,58.829,79
46,Herjava,23.629,58.953,33
79,Jõõdre,23.623,58.866,55
192,Paldiski,24.058,59.352,160
94,Risti,24.057,58.998,66
94,Klooga,24.224,59.321,79
79,Linnamäe,23.715,58.996,28
28,Laitse,24.331,59.207,20
112,Kõmsi,23.633,58.626,46
33,Vääna,24.405,59.389,20
33,Tuula,24.457,59.276,20
39,Valingu,24.472,59.302,20
79,Saue,24.556,59.32,28
134,Laagri,24.61,59.352,66
46,Papsaare,24.416,58.403,24
28,Tänassilma,24.635,59.335,20
28,Üksnurme,24.645,59.29,20
192,Pärnu-Jaagupi,24.503,58.611,160
94,Taebla,23.74,58.956,79
79,Metsanurme,24.663,59.264,28
1702,Pärnu,24.523,58.38,822
160,Kabli,24.442,58.004,66
66,Tuudi,23.731,58.662,39
134,Vatla,23.725,58.561,79
192,Palivere,23.894,58.966,66
476,Lihula,23.835,58.686,192
79,Harju-Risti,24.015,59.226,79
112,Kirbla,23.95,58.726,39
39,Padise,24.139,59.228,24
134,Kullamaa,24.076,58.88,79
39,Koluvere,24.102,58.905,20
112,Laulasmaa,24.225,59.387,28
192,Rummu,24.199,59.231,79
276,Tõstamaa,23.994,58.335,134
94,Laukna,24.166,58.917,39
33,Ämari,24.242,59.247,20
571,Lemsi,24.007,58.13,160
66,Tuulna,24.29,59.347,24
28,Keila-Joa,24.303,59.397,20
55,Türisalu,24.307,59.412,24
397,Turba,24.236,59.08,134
66,Vasalemma,24.288,59.238,33
160,Koonga,24.153,58.582,94
55,Lehola,24.325,59.292,33
55,Vääna-Jõesuu,24.368,59.434,24
94,Riisipere,24.309,59.117,33
24,Suurupi,24.39,59.462,20
112,Kaasiku,24.334,59.193,33
276,Vana-Vigala,24.247,58.78,112
94,Ahaste,24.185,58.475,55
55,Karjaküla,24.391,59.339,20
94,Sipa,24.301,58.918,55
79,Muraste,24.428,59.456,55
276,Keila,24.415,59.31,112
55,Liikva,24.436,59.402,33
33,Sõrve,24.445,59.43,20
33,Kumna,24.452,59.324,20
79,Kõima,24.254,58.366,28
79,Kiia,24.489,59.362,20
134,Lindi,24.256,58.329,79
79,Kivi-Vigala,24.366,58.713,55
79,Haiba,24.469,59.128,66
55,Jõgisoo,24.503,59.275,20
276,Märjamaa,24.42,58.9,134
28,Vatsla,24.535,59.396,20
160,Varbola,24.456,59.044,66
94,Jõõpre,24.325,58.473,39
112,Ääsmäe,24.506,59.247,46
79,Tabasalu,24.551,59.426,55
24,Hüüru,24.542,59.381,20
46,Orgita,24.453,58.92,20
55,Vahenurme,24.391,58.621,39
230,Lavassaare,24.368,58.514,55
66,Harku,24.577,59.386,24
24,Alliku,24.573,59.355,20
134,Audru,24.357,58.41,79
33,Harkujärve,24.605,59.413,24
46,Lemmetsa,24.383,58.432,20
55,Maidla,24.579,59.212,33
94,Libatse,24.479,58.66,39
66,Kasti,24.527,58.869,33
24,Eametsa,24.46,58.44,20
94,Saku,24.662,59.302,33
100000,Tallinn,24.693,59.42,100000
24,Männiku,24.685,59.342,20
66,Hageri,24.65,59.16,39
79,Aespa,24.663,59.21,46
94,Ikla,24.362,57.877,39
24,Roobuka,24.677,59.228,20
46,Kiisa,24.681,59.239,20
94,Sauga,24.496,58.426,28
134,Valgu,24.591,58.819,79
331,Treimani,24.388,57.921,66
331,Võiste,24.48,58.216,55
79,Kodila,24.677,59.043,39
94,Are,24.559,58.524,55
112,Kabala,24.655,58.924,66
55,Püünsi,24.796,59.544,20
39,Rohuneeme,24.801,59.562,20
46,Vilivere,24.725,59.208,24
55,Tagadi,24.752,59.228,20
79,Haabneeme,24.816,59.516,66
24,Viimsi,24.838,59.501,20
134,Habaja,25.167,59.107,55
79,Valkla,25.333,59.479,28
66,Kilksama,24.562,58.452,24
24,Prillimäe,24.793,59.177,20
79,Silla,24.62,58.342,24
94,Suigu,24.705,58.528,46
39,Kangru,24.774,59.351,20
55,Luige,24.774,59.332,33
134,Kehtna,24.874,58.926,55
94,Vaida,24.976,59.286,46
66,Ingliste,24.943,59.015,39
134,Oru,24.989,59.189,46
276,Kohila,24.751,59.171,94
66,Eidapere,24.942,58.755,55
230,Häädemeeste,24.5,58.081,192
24,Kelvingi,24.841,59.549,20
79,Peetri,24.813,59.394,55
55,Uulu,24.578,58.28,24
33,Vaela,24.821,59.328,20
134,Ardu,25.363,59.102,94
28,Assaku,24.84,59.373,20
55,Raikküla,24.747,58.937,33
55,Leppneeme,24.883,59.545,28
39,Türi-Alliku,25.446,58.823,20
46,Alu,24.768,59.024,20
39,Paikuse,24.619,58.375,20
134,Reiu,24.609,58.306,55
28,Tammneeme,24.889,59.531,20
112,Vastemõisa,25.44,58.443,39
160,Kiili,24.841,59.306,39
571,Loksa,25.719,59.582,230
134,Oisu,25.563,58.758,66
94,Sürgavere,25.517,58.486,39
276,Võhma,25.558,58.632,134
28,Metsakasti,24.891,59.492,20
66,Ahula,25.726,59.111,28
28,Mõisaküla,24.858,59.32,20
24,Lähtse,24.856,59.292,20
46,Randvere,24.905,59.505,24
28,Sindi,24.655,58.404,20
94,Hagudi,24.817,59.066,39
571,Rapla,24.804,58.999,230
55,Rae,24.89,59.38,20
28,Seljametsa,24.66,58.358,20
33,Iru,24.912,59.461,20
28,Uusküla,24.813,59.012,20
66,Jüri,24.903,59.353,46
160,Kergu,24.756,58.669,66
79,Loo,24.942,59.436,33
160,Maardu,24.953,59.474,94
66,Lagedi,24.938,59.404,24
33,Valtu,24.846,58.979,20
66,Kaerepere,24.842,58.961,24
55,Metsaääre,24.687,58.266,20
192,Järvakandi,24.81,58.774,112
46,Patika,24.933,59.313,24
33,Vaskjala,24.948,59.362,20
112,Tootsi,24.787,58.583,94
112,Surju,24.709,58.238,55
94,Taali,24.777,58.446,33
33,Keava,24.899,58.944,20
66,Selja,24.821,58.52,28
192,Tori,24.814,58.486,79
160,Juuru,24.96,59.059,66
160,Aruküla,25.074,59.366,66
134,Tali,24.786,58.062,79
112,Kostivere,25.099,59.426,39
66,Pärnjõe,24.927,58.633,39
66,Jõesuu,24.902,58.494,33
33,Kalesi,25.108,59.345,20
94,Lelle,25.006,58.863,66
230,Neeme,25.158,59.53,46
46,Jõelähtme,25.147,59.442,20
79,Kaiu,25.056,59.013,46
33,Kose-Uuemõisa,25.104,59.205,28
55,Peningi,25.154,59.336,20
55,Raasiku,25.174,59.367,39
476,Vändra,25.033,58.653,160
112,Kuimetsa,25.122,59.042,28
134,Vihtra,25.021,58.586,55
331,Kose,25.163,59.183,134
397,Kilingi-Nõmme,24.952,58.151,160
33,Vardja,25.211,59.169,20
46,Ravila,25.221,59.185,24
192,Käru,25.141,58.833,112
55,Suurejõe,25.103,58.618,33
33,Tihemetsa,25.04,58.146,33
397,Kehra,25.333,59.332,160
28,Ülejõe,25.342,59.345,20
160,Alavere,25.328,59.246,66
39,Kiiu,25.385,59.447,20
230,Kuusalu,25.433,59.444,94
94,Mõisaküla,25.184,58.09,66
230,Kõpu,25.307,58.327,79
39,Särevere,25.429,58.785,20
66,Väätsa,25.453,58.889,46
134,Kolga,25.615,59.491,66
192,Aegviidu,25.61,59.287,112
66,Puiatu,25.404,58.36,33
79,Abja-Paluoja,25.351,58.126,79
230,Suure-Jaani,25.468,58.537,79
28,Lõhavere,25.483,58.549,20
94,Tarbja,25.585,58.929,39
66,Albu,25.661,59.154,33
94,Halliste,25.44,58.164,39
66,Jäneda,25.688,59.246,39
79,Päri,25.5,58.34,39
24,Heimtali,25.5,58.321,20
24,Vardi,25.503,58.303,20
55,Olustvere,25.563,58.556,33
55,Vihasoo,25.793,59.561,33
55,Ramsi,25.54,58.308,24
112,Kabala,25.63,58.693,46
66,Roosna-Alliku,25.708,59.027,66
46,Sangaste,26.327,57.925,28
112,Ambla,25.839,59.192,46
192,Aravete,25.752,59.143,79
39,Käravete,25.764,59.189,28
39,Jämejala,25.585,58.39,20
94,Õisu,25.547,58.198,39
134,Vajangu,26.01,59.109,55
134,Kärstna,25.804,58.143,79
230,Mustla,25.863,58.235,112
160,Kolga-Jaani,25.944,58.534,94
33,Karula,25.606,58.403,20
33,Polli,25.542,58.123,20
571,Viljandi,25.604,58.37,476
192,Karksi-Nuia,25.55,58.104,192
46,Lepna,26.292,59.331,28
79,Vardja,25.61,58.331,24
94,Vägari,26.226,58.731,39
79,Lehtse,25.823,59.253,55
33,Triigi,26.33,59.115,33
55,Sooru,26.117,57.855,33
33,Karksi,25.583,58.117,20
160,Koigi,25.749,58.838,79
24,Viiratsi,25.643,58.361,20
79,Palupera,26.34,58.117,46
160,Paistu,25.629,58.271,46
94,Kuremaa,26.537,58.736,33
39,Vana-Võidu,25.66,58.391,24
46,Meeri,26.47,58.291,24
24,Tõravere,26.472,58.265,20
331,Otepää,26.492,58.06,134
94,Kõo,25.727,58.632,55
66,Saarepeedi,25.684,58.431,33
79,Imavere,25.767,58.734,55
160,Võsu,25.966,59.578,94
112,Peetri,25.842,58.942,55
397,Järva-Jaani,25.884,59.039,112
79,Uusna,25.744,58.39,33
276,Tapa,25.961,59.262,160
160,Ala,25.694,58.012,55
46,Moe,26.017,59.254,24
94,Adavere,25.896,58.709,46
66,Esku,25.89,58.641,33
66,Vao,25.976,58.938,24
46,Pisisaare,25.963,58.725,24
112,Koeru,26.024,58.963,66
79,Aaspere,26.135,59.441,55
276,Põltsamaa,25.979,58.656,160
134,Kadrina,26.135,59.344,79
46,Väike-Kamari,25.981,58.633,20
66,Linna,25.846,58.033,39
160,Tamsalu,26.108,59.163,79
46,Ervita,26.071,58.935,24
24,Sääse,26.147,59.161,20
55,Soe,25.936,58.213,33
46,Hulja,26.215,59.352,33
397,Tõrva,25.922,58.002,160
28,Kiltsi,26.176,59.09,20
55,Lustivere,26.087,58.663,46
160,Haljala,26.264,59.433,55
94,Suislepa,25.975,58.149,46
66,Vao,26.195,59.101,28
66,Veltsi,26.275,59.398,24
94,Väike-Maarja,26.248,59.13,66
160,Rakke,26.251,58.986,94
55,Essu,26.367,59.435,28
476,Rakvere,26.364,59.345,331
94,Hummuli,26.054,57.906,66
33,Piira,26.39,59.325,20
24,Näpi,26.405,59.365,20
112,Vaimastvere,26.287,58.814,55
1183,Valga,26.049,57.782,397
94,Ubja,26.43,59.414,39
24,Pajusti,26.412,59.283,20
55,Sõmeru,26.433,59.362,24
94,Vinni,26.428,59.292,33
230,Simuna,26.393,59.044,55
39,Kurista,26.334,58.762,24
134,Rannu,26.221,58.24,79
160,Puurmani,26.299,58.574,134
55,Siimusti,26.342,58.728,20
79,Aakre,26.199,58.097,28
331,Kunda,26.517,59.501,134
79,Viru-Jaagupi,26.473,59.246,33
192,Rõngu,26.248,58.143,79
28,Jõgeva,26.395,58.762,20
192,Puka,26.234,58.055,66
160,Tsirguliina,26.195,57.864,79
192,Puhja,26.307,58.336,79
94,Kaagjärve,26.18,57.769,55
66,Annikoru,26.305,58.267,28
160,Uhtna,26.563,59.395,46
160,Laeva,26.381,58.486,66
230,Keeni,26.273,57.955,55
33,Rämsi,26.382,58.36,20
94,Laiuse,26.494,58.787,33
94,Laekvere,26.559,59.068,66
276,Roela,26.592,59.167,94
112,Ulvi,26.636,59.327,46
94,Ulila,26.428,58.366,46
33,Käärdi,26.4,58.212,20
55,Hellenurme,26.384,58.138,20
46,Kaarepere,26.511,58.661,24
397,Elva,26.415,58.227,160
79,Viru-Nigula,26.69,59.445,55
112,Muuga,26.628,59.11,39
55,Vissi,26.436,58.249,20
94,Sadala,26.605,58.863,66
112,Sihva,26.428,58.011,46
94,Palamuse,26.585,58.685,94
192,Lüllemäe,26.375,57.751,79
55,Luua,26.605,58.655,24
112,Nõo,26.522,58.271,46
24,Ilmatsalu,26.559,58.388,20
331,Tabivere,26.599,58.548,94
39,Nõgiaru,26.546,58.313,24
66,Luke,26.535,58.238,24
160,Nõuni,26.523,58.131,55
192,Varstu,26.66,57.643,94
24,Lüganuse,27.043,59.375,20
94,Sonda,26.832,59.35,55
33,Haage,26.62,58.357,20
46,Kärkna,26.652,58.461,28
39,Kobela,26.472,57.841,28
55,Räni,26.673,58.351,24
112,Maarja-Magdaleena,26.738,58.61,66
1702,Tartu,26.72,58.374,986
46,Rahinge,26.606,58.38,28
28,Roiu,26.866,58.3,24
134,Külitse,26.613,58.324,28
160,Aseri,26.865,59.451,66
94,Sõmerpalu,26.827,57.852,66
112,Pala,27.018,58.673,66
66,Põlgaste,26.881,57.979,55
66,Aarna,26.962,58.064,46
112,Kiikla,27.236,59.284,39
46,Äksi,26.672,58.522,20
134,Torma,26.741,58.821,79
94,Lähte,26.675,58.496,39
24,Vorbuse,26.659,58.422,20
33,Lemmatsi,26.648,58.335,20
331,Antsla,26.531,57.829,192
33,Erala,26.683,58.476,20
134,Kuremäe,27.535,59.2,94
55,Voka,27.584,59.404,33
230,Voore,26.747,58.716,66
33,Õssu,26.67,58.367,20
276,Misso,27.228,57.601,112
192,Tudu,26.854,59.179,112
276,Mehikoorma,27.469,58.236,94
33,Vahi,26.696,58.421,20
46,Vasula,26.729,58.471,28
55,Saru,26.54,57.606,28
276,Avinurme,26.863,58.985,94
33,Soinaste,26.717,58.335,20
66,Raadi,26.735,58.408,28
230,Kambja,26.7,58.234,66
66,Uhti,26.713,58.286,24
55,Ülenurme,26.721,58.317,46
79,Vedu,26.776,58.495,24
160,Kiviõli,26.971,59.356,112
39,Kõrveküla,26.764,58.424,20
79,Kääpa,26.848,58.698,46
112,Purtse,27.011,59.421,33
46,Lohkva,26.787,58.375,28
79,Mõniste,26.611,57.612,28
66,Veibri,26.793,58.351,20
134,Tsooru,26.655,57.743,66
66,Saverna,26.732,58.067,39
66,Vana-Kuuste,26.783,58.255,28
46,Püssi,27.049,59.362,28
94,Haaslava,26.819,58.317,24
986,Mustvee,26.941,58.848,192
55,Raja,26.944,58.822,20
192,Kanepi,26.757,57.987,112
134,Vara,26.888,58.511,79
55,Luunja,26.879,58.357,33
28,Erastvere,26.792,57.976,20
134,Krootuse,26.837,58.074,79
94,Tammistu,26.934,58.445,46
112,Lohusuu,27.048,58.948,79
160,Tudulinna,27.082,59.036,79
55,Osula,26.828,57.881,24
94,Kohtla-Nõmme,27.192,59.354,46
94,Vastse-Kuuste,26.937,58.17,46
79,Melliste,26.979,58.33,39
192,Kavastu,27.045,58.384,46
276,Koosa,27.079,58.526,112
685,Järve,27.28,59.403,397
230,Rõuge,26.917,57.73,79
66,Navi,26.953,57.88,24
276,Võnnu,27.051,58.283,79
112,Alatskivi,27.133,58.6,55
66,Parksepa,26.985,57.908,55
160,Tilsi,27,57.969,46
331,Kallaste,27.162,58.662,134
230,Mäetaguse,27.294,59.225,94
134,Ahja,27.074,58.208,55
685,Võru,27.013,57.838,397
28,Rosma,27.071,58.043,20
66,Himmaste,27.082,58.086,24
571,Iisaku,27.311,59.1,192
24,Võrumõisa,27.031,57.847,20
39,Kose,27.041,57.814,20
79,Peri,27.088,58.017,20
33,Tammiku,27.385,59.334,20
79,Kolkja,27.217,58.55,46
33,Kasepää,27.231,58.532,20
28,Jõhvi,27.418,59.36,20
55,Kääpa,27.115,57.868,28
112,Mooste,27.189,58.159,55
160,Toila,27.509,59.421,55
112,Kauksi,27.228,58.091,46
134,Lasva,27.181,57.86,55
160,Leevi,27.213,57.947,55
66,Ruusa,27.292,58.047,33
192,Veriora,27.346,58.004,79
276,Vastseliina,27.283,57.732,134
94,Linte,27.445,58.149,39
276,Räpina,27.463,58.097,160
192,Orava,27.458,57.887,79
55,Võõpsu,27.538,58.081,33
66,Mikitamäe,27.543,58.004,46
33,Olgina,28.132,59.395,24
66,Sinimäe,27.875,59.375,46
230,Värska,27.634,57.958,94
112,Narva-Jõesuu,28.047,59.456,66
2042,Narva,28.181,59.379,986
112,Jõhvi,27.417,59.346,66
230,Sillamäe,27.766,59.397,134
39,Maardu,25.018,59.485,24
822,Paide,25.561,58.885,397
79,Sindi,24.636,58.392,46
476,Põlva,27.069,58.057,192
192,Türi,25.422,58.805,79
331,Jõgeva,26.392,58.749,276
