rs,name,lon,lat,r1
24,Verrand,6.977,45.782,20
24,Plan d'Introd,7.185,45.691,20
28,Allein,7.271,45.809,24
112,Colle Sestriere,6.877,44.958,55
24,Foresto,7.118,45.141,20
112,Quart,7.423,45.749,66
39,Massello,7.065,44.956,28
66,Chez Croiset,7.496,45.734,20
230,Courmayeur,6.968,45.794,192
160,La Thuile,6.951,45.714,55
24,Pallusieux,6.984,45.771,20
571,Bardonecchia,6.703,45.078,192
79,Morgex,7.038,45.76,39
28,La Salle,7.071,45.746,20
28,Beaulard,6.76,45.045,20
55,Derby-Villaret,7.088,45.728,20
160,Valgrisenche,7.062,45.628,55
28,Savoulx,6.796,45.044,20
28,Claviere,6.752,44.939,24
24,Avise,7.139,45.709,20
94,Oulx,6.831,45.036,66
39,Cesana Torinese,6.791,44.952,39
79,Arvier,7.163,45.702,46
28,Saint-Nicolas,7.182,45.716,20
66,Etroubles,7.231,45.821,46
55,Coveyrand-Vieu,7.154,45.652,28
39,Rhemes-Notre-Dame,7.12,45.573,39
28,Sauze d'Oulx,6.857,45.025,20
66,Salbertrand,6.883,45.072,33
28,Moncenisio,6.981,45.206,20
46,Exilles,6.929,45.098,28
33,Sauze di Cesana,6.859,44.941,20
55,Ollomont,7.309,45.85,20
79,Aymavilles,7.245,45.7,24
112,Novalesa,7.015,45.192,28
79,Valsavarenche,7.21,45.592,66
46,Chiomonte,6.986,45.12,33
192,Valpelline,7.324,45.824,33
46,Venaus,7.009,45.158,28
94,Pragelato-Ruà,6.942,45.014,46
79,La Cretaz-Roisan,7.312,45.784,28
33,Gressan,7.287,45.72,20
24,Variney-Chez Roncon,7.311,45.767,20
28,Soucheres-Basses,6.964,45.034,20
1419,Aosta,7.317,45.737,397
24,Porossan,7.327,45.756,20
33,Pila-Ciel Blu,7.298,45.691,24
46,Oyace,7.381,45.851,24
39,Chef-Lieu,7.357,45.748,24
28,Usseaux,7.026,45.049,20
28,Meana di Susa,7.064,45.122,20
94,Bionaz,7.422,45.875,55
39,Pollein,7.354,45.729,20
46,Epinel,7.325,45.629,20
39,Ceresole Reale,7.239,45.434,39
55,Fenestrelle,7.049,45.036,46
33,Grand Brissogne,7.394,45.725,20
28,Mattie,7.115,45.118,20
160,Balme,7.215,45.303,55
276,Cogne,7.361,45.608,79
28,Bussoleno,7.146,45.14,24
79,Groscavallo,7.256,45.369,46
24,Salza di Pinerolo,7.053,44.941,24
134,Noasca,7.313,45.455,66
55,Usseglio,7.216,45.233,46
94,Ghigo,7.051,44.889,39
33,Villaretto,7.118,45.016,20
39,Nus,7.467,45.74,24
230,Roure,7.129,45.001,39
24,Breno,7.318,45.368,20
94,Perrero,7.113,44.939,39
28,Roreto,7.143,44.989,20
39,Borgo Revel,8.023,45.191,24
46,Ala di Stura,7.303,45.315,46
112,Villa,7.155,44.7,66
39,Valchiusa,7.777,45.495,20
79,Scalenghe,7.492,44.892,20
134,Santena,7.77,44.947,33
28,Rivalba,7.888,45.118,20
24,Berzano di San Pietro,7.953,45.094,20
112,Cossato,8.182,45.574,66
55,San Lorenzo,7.733,44.601,20
33,Crava,7.746,44.431,20
24,Valpone,8.021,44.805,20
66,Casteldelfino,7.069,44.59,66
39,San Germano Chisone,7.239,44.898,20
39,Antagnod,7.689,45.815,20
55,Chialamberto,7.343,45.363,24
79,Almese,7.394,45.119,33
94,Lanzo Torinese,7.484,45.279,66
24,Pietraporzio,7.032,44.344,24
66,Stroppo,7.126,44.51,39
66,Verrayes,7.538,45.764,20
39,Monasterolo,7.507,45.235,20
33,Olmetto,7.298,44.78,20
112,Paesana,7.275,44.687,33
46,Rocca Canavese,7.578,45.31,20
39,Gressoney-La-Trinitè,7.824,45.829,39
33,Caselette,7.483,45.105,24
28,Remondato,7.581,45.297,20
79,Lemie,7.29,45.229,46
33,Bruino,7.483,45.018,20
24,San Martino,7.347,44.73,20
28,Baratte,7.238,45.113,20
24,Barbania,7.63,45.291,20
230,Staffa,7.966,45.97,79
39,Bivio Occa,7.371,44.7,20
112,Breuil-Cervinia,7.631,45.935,46
28,Chambave,7.543,45.745,24
24,Carema,7.807,45.586,20
46,Volvera,7.512,44.954,20
28,Settimo Vittone,7.831,45.549,20
28,Bairo,7.756,45.386,20
28,Ozegna,7.746,45.349,20
66,Agliè,7.765,45.363,24
24,Lesna,7.62,45.056,20
33,Rima San Giuseppe,8.014,45.876,28
46,Castagnole Piemonte,7.567,44.898,24
39,Tedeschi,7.72,45.203,20
79,Piedicavallo,7.955,45.69,39
28,Lombardore,7.742,45.233,24
160,Bosconero,7.764,45.267,33
39,Pavone Canavese,7.852,45.438,20
24,Trasquera,8.213,46.213,20
55,Campertogno,8.032,45.799,24
28,Piasco,7.456,44.567,20
39,Valgrana,7.38,44.411,33
24,Maen,7.615,45.868,20
192,Varzo,8.246,46.21,46
28,Peretti,7.64,44.913,20
46,Piode,8.05,45.772,24
46,Campiglia Cervo,7.999,45.663,24
39,Rittana,7.377,44.355,20
55,Antey-Saint-Andrè,7.588,45.807,46
66,Costigliole Saluzzo,7.485,44.565,24
39,Ceretto,7.481,44.546,20
192,Paquier,7.624,45.88,112
230,Busca,7.473,44.514,94
33,Favaro,8.007,45.597,20
28,Candia Canavese,7.883,45.326,20
28,Bauducchi,7.713,44.964,20
66,Montanaro,7.854,45.234,33
79,Crodo,8.323,46.219,46
55,Perosa Argentina,7.191,44.957,20
94,Entracque,7.397,44.239,55
66,Maddalena,7.029,44.622,28
39,Cavallotta,7.581,44.608,20
55,Baldissero Torinese,7.811,45.068,24
33,Boschetto,7.905,45.235,28
79,Cravagliana,8.201,45.849,33
66,Ponderano,8.057,45.538,20
28,Martinetto del Rame,7.51,44.348,20
55,Levaldigi,7.622,44.557,24
33,Casetti-Rosone,7.427,45.433,20
39,Cerrione,8.068,45.468,20
66,Genola,7.661,44.589,33
24,Gabrielassi,7.76,44.794,20
33,Sant'Antonino di Susa,7.273,45.107,33
79,Chamois,7.621,45.838,24
33,Coimo,8.399,46.132,20
160,Cantoira,7.386,45.339,33
79,Borgo d'Ale,8.051,45.351,33
94,Saluggia,8.011,45.238,39
39,Bellino,7.022,44.579,28
28,Sant'Antonino,8.047,45.252,20
39,Trucchi,7.642,44.392,24
160,Argentera,6.936,44.397,55
24,Quarna Sotto,8.362,45.869,20
66,Sant'Albano Stura,7.724,44.508,33
39,Stazione,7.949,44.963,20
24,Serra,7.975,45.008,20
24,Arola,8.358,45.808,20
28,Galli,8.068,45.189,20
33,Valduggia,8.33,45.728,28
28,Combe,7.682,44.356,20
94,Cocconato,8.037,45.088,46
24,Fiorio-Bernardo,8.247,45.508,20
46,Valfenera,7.962,44.899,33
28,Lassolaz,7.588,45.739,24
33,Re,8.549,46.132,28
39,San Giovanni-Perucca,7.77,44.48,20
24,Carbignano,8.1,45.165,20
39,Ceres,7.39,45.314,20
134,Buronzo,8.269,45.481,66
33,Isola,7.805,44.501,20
39,Montà,7.957,44.814,20
112,Narzole,7.87,44.596,39
24,Miazzina,8.522,45.976,20
66,Prato Sesia,8.373,45.65,20
33,Santa Vittoria d'Alba,7.928,44.695,33
94,Gozzano,8.437,45.747,39
46,Villar Pellice,7.152,44.808,46
46,Valle Cannobina,8.59,46.073,46
46,Acceglio,6.99,44.475,39
33,Lequio Tanaro,7.883,44.56,24
39,Villamiroglio,8.167,45.135,24
46,La Morra,7.933,44.638,28
28,Cinaglio,8.1,44.975,20
55,Vezza d'Alba,8.008,44.762,28
192,Borgomanero,8.458,45.701,192
24,Palazzolo Vercellese,8.232,45.186,24
66,Prato Nevoso,7.788,44.256,24
24,Cantavenna,8.223,45.159,20
24,Guarene,8.03,44.738,20
39,Bastia Mondovì,7.895,44.442,28
39,Pozzengo,8.237,45.135,20
24,Trarego,8.672,46.035,20
66,Mezzenile,7.396,45.295,39
28,Govone,8.1,44.804,20
24,Sessant,8.16,44.928,20
28,Guazzolo,8.228,45.066,20
24,Pramollo,7.208,44.901,20
24,Barbaresco,8.081,44.724,20
55,Angera,8.59,45.777,20
46,Desana,8.36,45.27,28
160,Locana,7.46,45.417,46
112,Suno,8.541,45.633,46
66,Porto Valtravaglia,8.694,45.961,33
33,Lesegno,7.966,44.402,20
46,Costanzana,8.368,45.238,24
46,Albaretto della Torre,8.063,44.597,20
192,Viù,7.376,45.239,46
28,Villar Perosa,7.249,44.919,20
39,Ribordone,7.5,45.433,24
33,Rorà,7.199,44.792,28
55,Angrogna,7.224,44.844,24
55,Valprato Soana,7.554,45.527,24
39,La Villa,7.431,45.268,24
160,Prazzo,7.054,44.484,79
160,Ronco Canavese,7.545,45.498,66
39,Valgioie,7.345,45.073,20
66,Elva,7.088,44.542,28
39,Sant'Ambrogio di Torino,7.362,45.099,20
39,Rubiana,7.382,45.137,20
79,Champorcher,7.615,45.622,39
24,Porte,7.27,44.887,20
24,Prarostino,7.264,44.866,20
55,Champdepraz,7.655,45.686,20
66,Extrepieraz,7.7,45.78,20
192,Giaveno,7.349,45.041,66
94,Champoluc-Champlan,7.726,45.833,55
33,San Pietro,7.478,45.303,20
24,Bertassi,7.376,45.088,20
134,Airali,7.247,44.818,55
33,Ostana,7.191,44.693,20
39,Berriaz,7.676,45.707,20
28,Ciausi,7.356,45.027,20
24,Lusernetta,7.249,44.803,20
39,Emarèse,7.689,45.726,20
28,Germagnano,7.471,45.264,20
46,Oncino,7.189,44.678,20
46,Sparone,7.544,45.414,28
66,Canosio,7.082,44.455,24
66,Ingria,7.57,45.467,24
28,Cantalupa,7.331,44.946,20
28,San Pietro Val Lemina,7.312,44.906,20
79,Avigliana,7.398,45.077,28
33,San Secondo di Pinerolo,7.298,44.866,20
39,Brusson,7.729,45.758,39
33,Montelera,7.446,45.155,28
331,Verrès,7.688,45.662,55
28,Villa-Nabian,7.706,45.69,20
24,Milanere,7.431,45.105,20
66,Corio,7.532,45.314,28
28,Alpette,7.578,45.409,20
39,Frossasco,7.351,44.933,39
28,Varisella,7.484,45.208,20
46,Bibiana,7.287,44.795,24
94,Cumiana,7.377,44.979,46
397,Pinerolo,7.333,44.884,134
55,Bricherasio,7.305,44.823,33
24,Ferriera,7.431,45.084,20
79,Pont-Canavese,7.596,45.423,33
230,Sampeyre,7.19,44.578,79
55,Quincod,7.735,45.714,20
79,Sambuco,7.074,44.339,55
39,Pontboset,7.686,45.608,28
28,Tavernette,7.374,44.953,20
28,Macra,7.15,44.491,20
28,Frassinetto,7.607,45.437,20
24,Allivellatori,7.397,44.992,20
28,Reano,7.427,45.053,20
55,Trana,7.422,45.039,20
33,Arnad,7.716,45.647,20
33,Benne,7.551,45.29,20
39,Brione,7.482,45.136,20
134,Givoletto,7.493,45.156,46
39,Fiano,7.523,45.217,24
28,Campiglione Fenile,7.323,44.801,20
28,Truc di Miola,7.513,45.195,20
55,Mathi,7.542,45.255,33
66,Forno Canavese,7.591,45.345,39
33,Bagnolo Piemonte,7.314,44.76,20
24,Madonna della Neve-Tetti Moretta,7.41,44.958,20
39,La Cassa,7.517,45.18,20
28,Rore,7.227,44.577,20
39,Celle di Macra,7.18,44.481,33
39,Riva,7.384,44.893,24
24,Macchia,7.595,45.333,20
28,Sangano,7.449,45.026,20
24,Merlino,7.446,45.015,20
28,Prascorsano,7.616,45.368,20
55,Hone,7.738,45.614,28
28,Villarbasse,7.47,45.045,20
33,Grange,7.555,45.22,20
24,Cotonificio,7.551,45.209,20
33,Villaggio Nuovo,7.439,44.975,20
33,Barge,7.321,44.728,20
28,Garzigliana,7.375,44.837,20
33,Mondarello,7.315,44.712,20
79,Gressoney-Saint-Jean,7.827,45.775,55
46,Piscina,7.427,44.918,33
33,Priacco,7.661,45.407,20
24,San Gillio,7.537,45.141,24
28,Generala,7.51,45.084,20
24,Pertusio,7.641,45.356,20
46,Macello,7.4,44.851,20
55,Buriasco,7.411,44.874,20
28,Rivara,7.631,45.332,24
46,Piossasco,7.469,44.99,39
39,Robassomero,7.569,45.197,28
46,Colleretto Castelnuovo,7.68,45.422,28
55,Alpignano,7.529,45.102,24
94,Cavour,7.378,44.789,33
33,Frassino,7.277,44.573,24
39,Valperga,7.66,45.368,20
46,Vauda Canavese Superiore,7.619,45.279,33
24,Castelnuovo Nigra,7.695,45.438,20
33,Viotto,7.439,44.903,20
331,Ciriè,7.599,45.235,94
55,Sanfront,7.321,44.647,33
39,Rivoli,7.527,45.071,24
24,Busano,7.658,45.332,20
192,Castelmagno,7.212,44.409,66
55,San Damiano Macra,7.254,44.489,55
55,Rivalta di Torino,7.518,45.034,24
24,Gerbole,7.505,44.999,20
28,Traversella,7.748,45.509,20
28,Stella,7.437,44.852,20
28,Appendini,7.451,44.878,20
46,Druento,7.576,45.135,28
94,Vinadio,7.175,44.308,66
28,Salassa,7.689,45.355,20
28,Tetti Neirotti,7.544,45.051,20
46,Airasca,7.483,44.917,28
55,Envie,7.371,44.682,24
55,Issime,7.854,45.687,20
46,San Maurizio,7.632,45.212,20
24,Oglianico,7.694,45.343,20
46,La Crocera,7.409,44.748,33
94,Melle,7.319,44.562,28
55,Collegno,7.569,45.078,46
24,Favria,7.69,45.331,20
39,Gerbole-Zucche,7.525,44.981,20
571,Alagna Valsesia,7.938,45.851,66
24,Paschero-Ponte,7.286,44.478,20
79,Quincinetto,7.807,45.562,28
28,Issiglio,7.753,45.446,20
66,Lillianes,7.841,45.63,28
46,Martiniana Po,7.362,44.627,20
94,Gaby,7.882,45.714,46
33,San Francesco al Campo,7.654,45.229,20
28,Grugliasco,7.578,45.065,20
33,Fontainemore,7.859,45.647,20
24,Vidracco,7.757,45.431,20
39,Aisone,7.22,44.313,28
33,Caselle Torinese,7.643,45.178,33
79,Revello,7.391,44.655,55
112,Rivarolo Canavese,7.717,45.331,46
33,Val di Chy,7.779,45.461,20
39,Riva Valdobbia,7.957,45.831,20
28,Grange,7.691,45.265,20
46,Pradleves,7.283,44.418,24
33,Cercenasco,7.5,44.862,20
28,Santa Lucia,7.663,45.2,20
33,Basse Dora,7.613,45.091,20
94,None,7.539,44.933,46
39,Tetti,7.314,44.466,24
24,Brossasco,7.366,44.569,20
66,Venaria Reale,7.635,45.124,39
46,Valmala,7.342,44.514,28
55,Isasca,7.383,44.589,20
55,Borgaro Torinese,7.656,45.151,20
24,Calea,7.822,45.495,20
24,Baio Dora,7.828,45.507,20
39,Lessolo,7.815,45.478,28
28,Parella,7.792,45.43,20
39,San Giovanni,7.787,45.41,20
24,Gerbido,7.615,45.045,20
33,Rivarossa,7.717,45.251,20
28,Borgaretto,7.601,45.005,24
33,Loranzè,7.81,45.444,20
55,Feletto,7.745,45.304,24
55,Cardè,7.478,44.744,28
55,Silva,7.789,45.392,20
33,Villafranca Piemonte,7.5,44.779,20
94,Ceppo Morelli,8.069,45.971,55
24,Monterosso Grana,7.325,44.409,24
55,Borgofranco d'Ivrea,7.859,45.519,24
66,Venasca,7.403,44.565,28
33,Pagno,7.426,44.612,33
28,Lusigliè,7.766,45.318,20
79,Antronapiana,8.115,46.061,79
55,Mottura,7.524,44.805,20
79,Carcoforo,8.048,45.91,39
28,Brasse,7.506,44.762,20
24,Candiolo,7.602,44.959,20
28,Villaretto,7.685,45.132,20
39,Leini,7.714,45.183,33
55,Garino,7.616,44.975,20
66,Montalto Dora,7.863,45.491,28
192,Demonte,7.297,44.315,79
33,Villar San Costanzo,7.382,44.482,20
66,Virle Piemonte,7.57,44.864,24
24,Mappano,7.706,45.148,24
33,San Giorgio Canavese,7.797,45.334,20
28,Torino,7.676,45.078,20
33,Cortereggio,7.785,45.299,20
39,Piobesi Torinese,7.61,44.929,20
33,Mollia,8.03,45.816,20
55,Cuceglio,7.817,45.359,20
39,Rassa,8.011,45.769,20
28,Nichelino,7.646,44.995,24
112,Moretta,7.536,44.763,66
79,Bognanco,8.178,46.123,46
39,Cervignasco,7.502,44.691,33
39,Rossana,7.433,44.545,20
28,Rosazza,7.974,45.677,20
230,Ivrea,7.872,45.458,112
55,Rimasco,8.061,45.859,28
33,Torre San Giorgio,7.528,44.735,24
24,Madonna Orti,7.557,44.792,20
134,Saluzzo,7.488,44.646,94
39,San Giusto Canavese,7.81,45.316,39
112,Vinovo,7.634,44.948,39
24,Fornacino,7.735,45.151,20
79,Pancalieri,7.587,44.833,46
24,Chiaverano,7.906,45.499,20
33,Olimpia,7.731,45.125,20
46,Manta,7.487,44.616,20
28,San Benigno Canavese,7.784,45.228,24
46,Tagliaferro,7.665,44.978,20
24,Dossi San Bernardo,7.88,45.426,20
24,Cascinette d'Ivrea,7.906,45.48,20
112,Verzuolo,7.484,44.594,39
39,Campiglie,7.948,45.562,20
79,Volpiano,7.777,45.198,46
134,Moncalieri,7.686,45.008,46
39,Bannio,8.146,45.984,39
33,Paschera San Carlo (Soprana),7.413,44.439,20
39,Festiona,7.346,44.3,24
28,La Loggia,7.668,44.958,20
24,Brassi,7.658,44.936,20
39,Foglizzo,7.819,45.272,33
39,Netro,7.948,45.54,33
33,Villa,7.372,44.338,20
66,Polonghera,7.599,44.802,20
24,Le Villette,7.769,45.154,20
160,Settimo Torinese,7.768,45.142,55
24,Castelletto Busca,7.447,44.478,24
66,San Mauro Torinese,7.755,45.105,28
24,Falicetto,7.514,44.599,20
79,Molini,8.184,46.01,20
46,Mercenasco,7.881,45.357,24
33,Lombriasco,7.635,44.841,20
28,Casalgrasso,7.625,44.82,20
39,Sala Biellese,7.959,45.509,24
79,Caraglio,7.435,44.415,46
39,Ceretto,7.653,44.865,20
28,Moiola,7.389,44.321,20
55,Boccioleto,8.111,45.831,33
79,Carignano,7.675,44.907,33
46,Mongreno,7.751,45.064,20
55,Murello,7.601,44.752,39
66,Scarnafigi,7.567,44.681,46
134,Scopello,8.093,45.773,66
112,Baceno,8.319,46.261,33
46,Pollone,8.004,45.58,20
39,Gorra,7.696,44.929,20
66,Gaiola,7.407,44.335,39
39,Cravegna,8.311,46.239,20
24,Occhieppo Superiore,8.001,45.565,24
66,Bernezzo,7.436,44.385,24
112,Fobello,8.155,45.891,33
55,Lagnasco,7.554,44.625,39
28,Castiglione,8.217,46.023,20
28,Tina,7.933,45.41,20
24,San Barnaba,7.498,44.502,20
33,San Michele,7.988,45.524,20
39,Scopa,8.114,45.793,20
28,Rodallo,7.876,45.281,20
33,Pecetto Torinese,7.752,45.019,20
24,Mezzi Po,7.816,45.15,20
39,Rivodora,7.787,45.088,20
55,Ruffia,7.604,44.706,20
66,Albiano d'Ivrea,7.951,45.433,39
33,Sagliano Micca,8.043,45.626,20
79,Valdieri,7.397,44.278,33
24,Balmuccia,8.136,45.819,20
24,Caluso,7.895,45.305,20
24,Motta,7.671,44.835,20
28,Vallo,7.879,45.268,20
55,Trofarello,7.746,44.984,33
33,Rimella,8.182,45.909,20
24,San Chiaffredo,7.502,44.48,24
33,Brandizzo,7.84,45.178,28
55,Pino Torinese,7.777,45.04,24
28,Monsola,7.557,44.581,20
39,Villafalletto,7.541,44.548,33
79,Crevoladossola,8.299,46.15,33
39,Palazzo Canavese,7.979,45.459,20
79,Villadossola,8.267,46.073,33
28,San Rocco,7.472,44.396,20
28,Gassino Torinese,7.828,45.132,28
79,Andorno Cacciorna,8.055,45.609,28
33,San Pietro,7.768,45.003,20
33,Pallanzeno,8.259,46.042,20
986,Domodossola,8.291,46.112,160
33,Andonno,7.428,44.295,20
33,Monasterolo di Savigliano,7.62,44.686,28
55,Caravino,7.96,45.398,28
28,Cervasca,7.471,44.381,20
28,Montegiove,7.87,45.207,20
28,Vestignè,7.955,45.386,20
39,San Bernardo,7.489,44.415,20
46,Carolina,7.895,45.255,20
33,Tollegno,8.052,45.588,20
33,Piana San Raffaele,7.846,45.147,20
33,Montecrestese,8.324,46.166,20
24,Cimena,7.858,45.167,20
39,Piedimulera,8.262,46.025,20
24,Tetti Barbasso,7.807,45.056,20
24,Beguda,7.459,44.335,20
46,Vignolo,7.473,44.362,20
24,Passatore,7.508,44.433,20
571,Ponte,8.426,46.377,94
46,Villastellone,7.748,44.924,20
160,Racconigi,7.674,44.767,66
476,Biella,8.058,45.573,192
33,Cambiano,7.772,44.968,20
46,Cavallerleone,7.663,44.739,20
94,Vische,7.948,45.335,28
28,Tarantasca,7.544,44.493,24
46,Camandona,8.094,45.644,28
24,Vottignasco,7.579,44.564,24
24,Gerbola,7.566,44.536,20
160,Carmagnola,7.718,44.847,112
66,Oia,7.699,44.806,24
33,Mazzè,7.936,45.302,20
28,Piverone,8.006,45.446,28
79,Pieve Vergonte,8.268,46.007,55
66,Roata Rossi,7.527,44.444,39
33,Vermogno,8.025,45.482,20
24,Callabiana,8.096,45.632,20
55,Vallongo,7.751,44.902,20
33,San Benigno,7.537,44.459,20
39,Borriana,8.038,45.506,24
94,Chivasso,7.891,45.193,66
24,Settimo Rottaro,7.994,45.408,20
33,Vocca,8.194,45.833,20
39,Tonengo-Casale,7.939,45.287,24
24,Santa Croce,7.504,44.377,20
134,Borgo San Dalmazzo,7.485,44.333,39
28,Betlemme,7.911,45.214,20
24,Cossano Canavese,7.993,45.387,20
46,Roaschia,7.456,44.27,20
24,Castagneto Po,7.888,45.159,24
39,Roccavione,7.482,44.315,20
39,Borgomasino,7.988,45.363,24
94,Chieri,7.822,45.014,79
39,San Genesio,7.898,45.171,20
33,Mellea,7.594,44.534,20
28,Rumianca,8.288,45.994,20
33,Ronco Biellese,8.098,45.581,20
24,Tagliata,7.707,44.758,20
24,Zimone,8.038,45.451,20
33,Cavalleri-Fumeri,7.744,44.832,20
134,Savigliano,7.657,44.65,79
79,Cavallermaggiore,7.686,44.708,46
28,Villareggia,7.977,45.31,20
94,Centallo,7.588,44.499,66
33,Sandigliano,8.077,45.522,20
39,Sciolze,7.879,45.094,20
24,Valmaggia,8.225,45.824,20
1183,Cuneo,7.545,44.397,397
24,Favari-Avatanei,7.796,44.913,20
24,Boscazzo,8.08,45.51,20
33,Tuninetti,7.769,44.854,28
33,Vigliano Biellese,8.106,45.561,28
39,Moncrivello,7.998,45.331,20
46,Caramagna Piemonte,7.74,44.782,28
192,Valdilana,8.161,45.664,66
39,Marocchi,7.819,44.94,20
28,Candelo,8.107,45.547,20
28,Rondissone,7.964,45.245,24
55,Forno,8.288,45.936,33
28,Maglione,8.014,45.347,20
39,Viverone,8.053,45.427,24
39,Valle Mosso,8.149,45.63,28
24,Viera,8.181,45.698,20
28,Marentino,7.877,45.055,20
39,Roata Chiusani,7.592,44.462,28
46,Andezeno,7.871,45.038,28
46,Casanova,7.792,44.873,20
134,Vergnasco,8.085,45.487,28
79,Robilante,7.512,44.293,20
28,Premosello-Chiovenda,8.329,46.004,28
39,Pessione,7.841,44.965,20
46,Coggiola,8.183,45.686,20
39,Maniga,7.737,44.744,20
39,Ronchi,7.588,44.434,24
33,San Biagio,7.611,44.482,20
24,Verrone,8.113,45.512,20
46,Torrazza Piemonte,7.976,45.215,20
39,Bombonina Soprana,7.589,44.411,20
55,Cigliano,8.021,45.308,33
28,Boves,7.551,44.332,28
134,Varallo,8.259,45.814,79
55,Verolengo,7.968,45.19,20
28,Fontanella-Ozino,8.17,45.617,20
66,Riva presso Chieri,7.872,44.984,28
66,Casalborgone,7.942,45.131,28
39,Anzola d'Ossola,8.344,45.989,20
55,Cinzano,7.926,45.095,46
46,Maddalene,7.647,44.511,24
66,Poirino,7.846,44.922,46
24,Arignano,7.903,45.039,20
33,San Giovanni,7.891,45.008,20
28,Ailoche,8.219,45.699,20
46,Postua,8.229,45.712,20
28,Madonna del Pilone,7.749,44.697,24
28,Vigellio,8.114,45.46,20
39,Alice Castello,8.072,45.37,20
33,Dorzano,8.098,45.425,20
28,Lanvario,8.199,45.639,20
55,Marene,7.737,44.662,39
46,Moncucco Torinese,7.932,45.068,20
94,Cavaglià,8.093,45.407,46
192,Vernante,7.534,44.246,39
24,Murazzo,7.651,44.483,20
79,Salussola,8.112,45.447,33
24,Rivoira,7.572,44.321,20
55,Druogno,8.434,46.135,39
46,Roccapietra,8.276,45.793,20
33,Cussanio,7.698,44.568,20
33,San Lorenzo,7.593,44.351,20
46,Castelletto Stura,7.639,44.442,33
28,Colombero,7.608,44.378,20
112,Quarona,8.269,45.763,39
28,Civiasco,8.292,45.808,20
46,Castellar,7.573,44.298,20
33,Lessona,8.191,45.589,20
79,Luzzogno,8.344,45.915,33
33,Ceresole Alba,7.822,44.8,33
39,Lauriano,7.996,45.161,24
39,Crevacuore,8.247,45.687,24
28,Piazzo,7.991,45.141,20
39,Montanera,7.666,44.461,20
24,Nibbio,8.396,45.996,20
33,Massazza,8.165,45.493,20
230,Fossano,7.721,44.55,112
33,Cappellazzo,7.771,44.65,20
94,Borgosesia,8.277,45.716,94
94,Livorno Ferraris,8.075,45.284,66
39,Curino,8.241,45.635,20
46,Buttigliera d'Asti,7.95,45.018,20
28,Arro,8.152,45.445,20
28,Rozzo,8.286,45.73,20
55,Peveragno,7.62,44.331,28
112,Castelnuovo Don Bosco,7.964,45.04,55
28,Grinzano,7.763,44.621,20
33,Veglia,7.79,44.673,20
46,Ceriolo,7.7,44.485,20
39,Belmonte,7.743,44.574,20
66,Beinette,7.645,44.365,55
55,Bandito,7.821,44.724,20
33,Isolabella,7.909,44.907,28
28,Canton Colombo-Gerbo,8.2,45.52,20
28,Albo I,8.416,45.982,20
24,Pino d'Asti,7.985,45.057,20
24,Crivelle,7.958,44.996,20
94,Ornavasso,8.416,45.968,33
79,Sostegno,8.27,45.653,24
33,Riva,7.813,44.688,20
94,Limone Piemonte,7.577,44.201,39
134,Villanova d'Asti,7.938,44.942,55
24,Villanova Biellese,8.194,45.482,20
33,Baroli,7.861,44.779,20
55,Cervere,7.791,44.635,24
24,Terzoglio,8.219,45.532,20
55,Mottalciata,8.208,45.505,33
112,Pralormo,7.902,44.86,33
28,Moransengo,8.024,45.115,20
24,Germagno,8.388,45.892,20
55,Brusnengo,8.251,45.593,39
28,Savi,7.961,44.978,20
134,Zornasco,8.5,46.127,112
39,Margarita,7.685,44.404,20
46,San Giacomo del Bosco,8.241,45.563,24
46,Cesara,8.367,45.834,24
134,Pomaretto,8.049,45.152,33
46,Bianzè,8.124,45.309,28
24,Nonio,8.378,45.846,20
39,San Lorenzo,7.896,44.82,33
24,Brolo,8.385,45.858,20
66,Lamporo,8.093,45.23,24
66,Serravalle Sesia,8.31,45.686,24
94,Morozzo,7.709,44.422,39
39,Roreto,7.829,44.665,20
28,Gabbio-Cereda-Ramate,8.421,45.91,20
134,Omegna,8.408,45.88,79
55,Gravellona Toce,8.431,45.93,39
24,Gifflenga,8.23,45.494,20
55,Salmour,7.792,44.576,28
24,Bracchio,8.452,45.968,20
230,Bra,7.855,44.698,94
192,Santhià,8.173,45.367,134
39,Chiusa di Pesio,7.675,44.326,33
33,Rastiglione,8.353,45.746,20
24,San Maurizio,8.287,45.605,20
24,Marcorengo,8.07,45.14,20
24,Dusino,7.97,44.926,20
79,Carisio,8.199,45.409,33
66,Brozolo,8.064,45.121,24
28,Pella,8.384,45.797,20
33,Cellarengo,7.945,44.864,24
55,Tronzano Vercellese,8.172,45.342,20
33,San Michele,7.972,44.914,20
55,Pianfei,7.711,44.372,33
33,Vigna,7.667,44.281,20
46,Finero,8.533,46.105,20
66,San Bartolomeo,7.663,44.265,46
39,Pocapaglia,7.883,44.716,20
28,Valentino,8.093,45.154,24
46,Agrano,8.417,45.843,20
24,Fornace Crocicchio,8.232,45.444,24
39,Villa,7.901,44.746,28
24,Pettenasco,8.408,45.819,20
24,Piovà Massaia,8.05,45.055,24
28,Baldissero d'Alba,7.911,44.761,20
112,Cherasco,7.858,44.646,39
24,Vintebbio,8.34,45.657,20
33,Lozzolo,8.323,45.62,20
24,Dissimo,8.565,46.14,20
33,San Maurizio d'Opaglio,8.396,45.772,24
28,Tuffo,8.079,45.088,20
46,Orta San Giulio,8.412,45.798,20
24,Macellai,7.897,44.704,20
39,San Genuario,8.142,45.215,24
24,Rolandi,7.958,44.824,20
28,Lurisia,7.711,44.306,20
66,Bene Vagienna,7.828,44.543,55
28,Boetti San Grato,7.753,44.387,20
39,Viale,8.05,45,20
39,Robella,8.1,45.102,20
46,Ferrere,7.993,44.878,20
28,San Silvestro,8.144,45.192,20
24,Crova,8.211,45.331,20
66,Gherba,7.982,44.85,20
134,Armeno,8.443,45.821,39
24,Cossogno,8.51,45.964,20
33,Piea,8.07,45.024,20
46,Maretto,8.033,44.945,28
24,Vacciago,8.429,45.786,20
24,Gurro,8.568,46.085,20
28,Olivetta,7.516,43.879,24
39,Magliano Alpi,7.802,44.46,39
46,Rovasenda,8.317,45.539,39
55,Balocco,8.279,45.456,20
39,Tre Rivi,7.958,44.776,20
33,Montiglio,8.097,45.065,24
33,Madonna del Pasco,7.761,44.365,20
28,Bieno,8.515,45.951,20
46,Baveno,8.498,45.909,20
24,Cortazzone,8.062,44.979,20
24,Costangaresca,7.883,44.607,20
33,Roccaforte Mondovì,7.745,44.318,24
66,Villafranca d'Asti,8.033,44.912,55
24,Goria,8.044,44.935,20
28,Cortandone,8.057,44.96,20
112,Gattinara,8.367,45.618,66
46,Cunico,8.097,45.04,20
24,Sant'Anna Avagnina,7.792,44.405,20
28,San Germano Vercellese,8.247,45.353,28
94,Villanova Mondovì,7.767,44.348,39
24,Cavallirio,8.395,45.663,20
28,Cisterna d'Asti,8,44.826,24
66,Corneliano d'Alba,7.957,44.736,33
39,Prea,7.737,44.279,24
24,Moncestino,8.16,45.155,20
28,Sovazza,8.473,45.82,20
112,Formigliana,8.291,45.429,39
192,Canale,7.992,44.794,79
46,Borgo,7.954,44.715,20
24,Romagnano Sesia,8.388,45.631,20
39,Verduno,7.931,44.666,24
46,Cambiasca,8.544,45.962,24
28,Camerano,8.091,44.992,20
66,Murisengo,8.135,45.082,46
24,Gosi - Planaval,7.777,44.337,20
28,San Giovanni Govoni,7.823,44.428,20
28,Gorzano,8.027,44.848,20
24,Maggiora,8.424,45.689,20
28,Caprezzo,8.56,45.981,20
66,Airole,7.555,43.871,39
46,Casanova Elvo,8.294,45.401,24
46,Gignese,8.509,45.861,20
28,Intragna,8.572,45.994,20
28,Castellero,8.072,44.926,24
79,Montechiaro d'Asti,8.111,45.007,79
134,Breo,7.817,44.395,134
28,Briga Novarese,8.454,45.733,20
39,Salasco,8.264,45.326,24
39,San Marco,8.331,45.459,20
24,Santa Maria,7.947,44.65,20
24,Torri,7.552,43.84,20
28,Cicengo,8.164,45.096,20
94,Stresa,8.533,45.883,39
79,Gabiano,8.195,45.157,20
230,Verbania-Pallanza-Intra,8.557,45.93,160
46,Lenta,8.384,45.557,20
33,Novello,7.927,44.588,24
24,Calvo,7.555,43.829,20
94,Carrù,7.877,44.481,39
33,Roddi,7.973,44.679,20
24,Grimaldi,7.538,43.786,20
24,Chiazze,7.801,44.318,20
66,Barolo,7.943,44.611,20
28,Villarboit,8.337,45.437,24
55,San Giulio,8.064,44.858,20
79,Settime,8.114,44.962,39
39,Invorio,8.488,45.757,28
24,Cascine Enea,8.446,45.665,20
28,Frabosa Sottana,7.798,44.302,20
24,Arizzano,8.583,45.957,20
28,Pisano,8.508,45.792,20
55,Zanco,8.162,45.055,20
28,Brovello,8.532,45.843,20
24,Castellinaldo d'Alba,8.03,44.775,20
24,Vasco,7.826,44.353,20
24,Olcenengo,8.309,45.361,24
28,Cossombrato,8.136,44.993,20
39,Premeno,8.597,45.979,20
39,Ghemme,8.422,45.599,28
24,Rocchetta Nervina,7.6,43.89,24
24,Roapiana,7.822,44.34,20
46,Cureggio,8.459,45.678,20
24,San Carlo,8.089,44.891,20
79,San Damiano d'Asti,8.063,44.834,39
24,Nebbiuno,8.524,45.809,20
66,Gallo,7.983,44.661,24
24,Pratomorone,8.084,44.871,20
39,Farigliano,7.913,44.513,20
112,Frabosa Soprana,7.806,44.289,33
46,Bevera,7.578,43.824,24
28,Naviante,7.91,44.498,20
33,Ripalda,8.06,44.809,20
39,Magognino,8.557,45.865,20
79,Arborio,8.387,45.495,28
66,Valle Cerrina,8.21,45.117,46
33,Latte,7.569,43.795,20
24,Collobiano,8.345,45.398,20
28,Castiglione Falletto,7.977,44.624,20
28,Valleandona,8.116,44.912,20
134,Ronsecco,8.278,45.252,28
33,Clavesana,7.912,44.483,20
33,Mussotto,8.023,44.712,20
79,Sizzano,8.435,45.578,20
24,Paruzzaro,8.517,45.75,20
39,Vicoforte,7.859,44.364,24
55,Meina,8.537,45.791,24
55,Priocca,8.067,44.792,33
134,Carpignano Sesia,8.419,45.534,55
39,La Serra,7.879,44.399,20
55,Ghiffa,8.617,45.958,33
46,Monforte d'Alba,7.97,44.582,39
24,Frinco,8.172,45.004,20
33,Serravalle,8.145,44.947,20
55,Greggio,8.384,45.451,28
66,Lesa,8.556,45.821,33
39,Barrera,8.164,44.981,20
397,Alba,8.025,44.691,160
192,Dogliani,7.948,44.531,112
28,Vaccheria,8.043,44.726,20
230,Pigna,7.657,43.932,66
39,Belgirate,8.571,45.838,20
33,Tonco,8.19,45.024,33
24,Fontaneto d'Agogna,8.481,45.644,24
55,Albano Vercellese,8.381,45.426,20
46,San Bartolomeo,8.692,46.096,24
24,Cerro,8.6,45.894,20
28,Quinto Vercellese,8.361,45.38,20
39,Sali Vercellese,8.329,45.31,20
39,Vaglierano Basso,8.126,44.879,20
94,Dolceacqua,7.624,43.847,28
28,Isolabona,7.641,43.88,20
28,Alfiano Natta,8.208,45.049,20
33,Sant'Antonio,8.07,44.759,28
66,Gonte,8.652,45.995,24
28,Serralunga d'Alba,8,44.61,20
39,Gattico-Veruno,8.521,45.709,33
28,Landiona,8.422,45.496,20
94,Ventimiglia,7.603,43.793,94
39,Oldenico,8.381,45.403,20
55,Castelletto Merli,8.231,45.079,24
55,Briga Alta,7.751,44.083,46
55,Montaldo di Mondovì,7.868,44.322,20
28,Brusaschetto,8.277,45.173,20
28,Diano d'Alba,8.027,44.65,20
28,Sillavengo,8.441,45.521,20
55,Laveno,8.62,45.905,33
39,Cavaglio d'Agogna,8.487,45.614,28
46,Palucco,8.15,44.898,33
33,Fara Novarese,8.458,45.552,24
230,Cannobio,8.696,46.064,55
28,Casalino,8.249,45.103,20
33,Canove,8.093,44.776,20
39,Ranco,8.576,45.798,20
55,Ricca,8.041,44.664,24
94,Arona,8.556,45.75,55
39,Cannero Riviera,8.682,46.023,33
134,Trino,8.296,45.192,94
28,Arbora,8.524,45.677,20
33,Camporosso,7.628,43.811,20
46,Veruno,8.531,45.691,20
24,Antignano,8.134,44.845,20
33,Lignana,8.344,45.286,20
39,Leggiuno,8.616,45.865,24
46,San Michele Mondovì,7.912,44.377,33
28,Piano,7.9,44.351,20
33,Tricerro,8.326,45.236,24
39,Camino,8.291,45.16,24
33,San Giacomo,7.876,44.294,33
33,Solonghello,8.28,45.131,24
39,Perinaldo,7.668,43.867,28
94,Borgo,7.932,44.406,24
24,Recetto,8.436,45.46,20
24,Cavaglietto,8.502,45.602,20
55,Castell'Alfero,8.21,44.981,55
24,Carmine,8.706,46.041,20
39,Caresanablot,8.39,45.359,24
28,Madonna di Viatosto,8.187,44.925,20
33,Tre Stelle,8.083,44.706,20
24,Bogogno,8.535,45.663,20
24,Roddino,8.019,44.574,20
39,Soldano,7.655,43.828,20
33,Dormelletto,8.571,45.735,20
24,Pino Lago Maggiore,8.74,46.102,24
28,Roburent,7.893,44.307,20
46,Revigliasco d'Asti,8.159,44.858,20
24,Monvalle,8.629,45.853,20
39,Somano,8.008,44.536,24
33,Robella,8.33,45.205,20
112,Rodello,8.057,44.628,20
39,Penango,8.251,45.032,20
192,Ispra,8.621,45.82,24
24,Treiso,8.088,44.689,20
55,Motta,8.147,44.811,20
24,Vicolungo,8.463,45.478,20
24,Cissone,8.03,44.563,20
33,Cittiglio,8.66,45.897,24
160,Moncalvo,8.264,45.05,112
28,Agrate Conturbia,8.56,45.675,24
24,Vallebona,7.666,43.813,24
39,Marsaglia,7.981,44.454,20
33,Barengo,8.514,45.574,24
39,Castellazzo Novarese,8.488,45.514,20
33,Bordighera,7.658,43.784,33
66,Villata,8.432,45.388,24
112,Biandrate,8.463,45.453,55
55,Neive - Borgonovo,8.117,44.722,24
46,Maccagno,8.737,46.044,24
46,Castellino Tanaro,7.977,44.428,20
46,Bajardo,7.72,43.904,28
46,Bonvicino,8.015,44.505,20
112,Triora,7.766,43.993,66
55,Calliano Monferrato,8.257,45.006,28
24,Taino,8.616,45.766,20
476,Asti,8.209,44.901,230
24,Cordona,8.565,45.655,20
33,Madonnina,8.308,45.104,20
24,Trezzo Tinella,8.106,44.678,24
28,Piano-Molini d'Isola,8.18,44.833,28
79,Momo,8.555,45.575,55
28,Casalbeltrame,8.467,45.438,20
24,Montagna,8.368,44.281,20
28,Vaprio d'Agogna,8.554,45.604,24
33,Bedero,8.718,45.979,20
192,Cortemilia,8.193,44.578,94
28,Brebbia,8.65,45.83,20
24,Colmegna,8.755,46.026,20
28,Repergo,8.191,44.819,20
55,Pamparato,7.913,44.277,20
46,Vasia,7.954,43.932,20
79,Casaleggio Novara,8.492,45.489,28
230,Vercelli,8.415,45.323,112
79,Gemonio,8.675,45.88,20
24,Neviglie,8.117,44.692,20
33,Lisio,7.978,44.307,20
24,Treville,8.361,45.098,20
39,Sormano,9.248,45.878,24
24,Bovisio-Masciago,9.156,45.61,20
28,Castiglione Tinella,8.191,44.726,20
79,Pontestura,8.333,45.142,20
33,Seborga,7.698,43.828,20
94,Valenzani,8.3,44.919,33
39,Pianezzo,9.395,45.71,20
66,Stroppiana,8.453,45.23,24
55,Cremenaga,8.807,45.989,24
33,Serravalle Langhe,8.057,44.56,24
79,Vedeseta,9.543,45.89,33
24,Rocchetta Belbo,8.176,44.637,20
28,Calosso,8.227,44.74,28
28,Roccaforte Ligure,9.027,44.679,24
24,Magherno,9.329,45.223,20
66,Castagnole delle Lanze,8.15,44.751,46
28,Pezzana,8.482,45.262,28
28,Botta,9.614,45.768,20
39,Besozzo,8.666,45.846,28
24,Montalto Ligure,7.844,43.928,20
160,Sant'Angelo Lodigiano,9.411,45.237,66
33,Castino,8.181,44.618,20
160,Pieve di Teco,7.914,44.048,79
24,Mombasiglio,7.967,44.367,24
24,Luvinate,8.772,45.839,20
46,Palestro,8.533,45.301,33
55,Confienza,8.556,45.332,24
112,Murazzano,8.022,44.475,46
55,Granozzo,8.573,45.36,24
28,Franchini,8.387,44.965,24
24,Cessole,8.244,44.648,20
46,Rocchetta Tanaro,8.346,44.857,20
28,Loazzolo,8.257,44.67,20
28,Piepasso,8.384,44.924,24
28,Casalvolone,8.465,45.401,20
28,Due Sture,8.37,45.198,20
33,Aronco,8.608,45.704,20
79,Bossolasco,8.05,44.526,39
28,Besnate,8.764,45.697,20
46,Induno Olona,8.837,45.841,20
33,Borgo Ticino,8.602,45.689,20
28,Aquila d'Arroscia,8.005,44.086,20
39,Cereseto,8.32,45.088,28
66,Cosio d'Arroscia,7.832,44.077,46
55,Cassinasco,8.302,44.689,20
55,Portacomaro,8.258,44.957,28
24,Igliano,8.012,44.443,20
24,Oca,8.623,45.732,20
33,Cardano al Campo,8.77,45.649,20
24,San Marzanotto,8.215,44.862,20
55,San Romolo,7.726,43.856,28
24,Besano,8.89,45.891,20
66,Porto Ceresio,8.897,45.904,24
134,Luino,8.749,46.001,112
79,Calizzano,8.12,44.236,55
24,San Desiderio,8.279,44.991,20
39,Carnago,8.836,45.722,24
33,Cocquio,8.688,45.863,20
66,Costigliole d'Asti,8.181,44.784,24
24,Montegrazie,7.985,43.919,20
55,Malnate,8.878,45.79,28
66,Asigliano Vercellese,8.408,45.261,46
24,Terdobbiate,8.696,45.377,20
46,Campione,8.972,45.969,46
33,Morano sul Po,8.366,45.167,20
28,Sozzago,8.724,45.399,28
39,Solbiate con Cagno,8.916,45.81,20
24,Mongardino,8.215,44.847,20
66,Molino-Pera,8.309,44.49,39
24,Torrazzo,8.232,44.877,20
28,Castiglione,8.258,44.933,20
33,Grazzano Badoglio,8.31,45.04,20
39,Terzo,8.427,44.669,20
66,Cisano,8.148,44.086,24
55,Cerano,8.781,45.408,24
28,Azzio,8.708,45.887,20
33,Quarti,8.353,45.127,20
94,Valle Lomellina,8.668,45.153,46
39,Casate,8.829,45.493,20
46,Pallare,8.28,44.329,24
39,Gravellona,8.765,45.327,20
33,Sartirana Lomellina,8.666,45.114,33
55,Pareto,8.382,44.516,24
28,San Michele,8.58,44.926,24
66,Borgo Vercelli,8.464,45.357,28
46,Osteno-Claino,9.085,46.005,20
79,Veddasca,8.795,46.069,33
79,Cassine,8.528,44.753,55
24,Montano,9.019,45.795,20
28,Ospedaletti,7.718,43.804,24
24,Velezzo Lomellina,8.736,45.164,20
33,Rescaldina,8.953,45.617,28
24,Bregano,8.687,45.826,20
24,Fenegrò,8.998,45.701,20
46,Cerretto Langhe,8.097,44.575,39
28,Travedona-Monate,8.676,45.801,20
24,Pecetto di Valenza,8.671,44.99,20
112,Mango,8.151,44.686,28
24,Coniolo Bricco,8.372,45.148,20
66,Parabiago,8.946,45.555,39
33,Argegno,9.126,45.943,20
28,Rivalta Bormida,8.554,44.709,20
28,San Benedetto Belbo,8.059,44.491,20
28,Pietra Ligure,8.291,44.159,24
24,Mosezzo,8.523,45.465,20
46,Fino Mornasco,9.047,45.743,24
55,Roviasca,8.366,44.293,24
24,Brienno,9.129,45.909,20
24,Torresina,8.033,44.433,20
24,Carate Urio,9.122,45.872,20
33,Viola,7.965,44.292,20
24,Pertengo,8.418,45.235,20
24,Scagnello,7.986,44.332,20
24,Mantegazza,8.972,45.51,20
28,Roascio,8.027,44.416,24
28,Rovello Porro,9.041,45.654,24
55,Cuveglio,8.732,45.907,33
24,Cucciago,9.096,45.74,24
33,Cremolino,8.586,44.637,20
55,Capiago-Intimiano-Olmeda,9.12,45.769,20
55,Calozzo,9.276,46.102,20
55,Caronno Pertusella,9.048,45.597,20
46,Gordona,9.366,46.292,20
28,Lazzate,9.085,45.672,20
46,Galliavola,8.818,45.097,20
79,Spotorno,8.414,44.229,28
46,Borgomale,8.131,44.621,33
28,Morimondo,8.956,45.354,20
28,Ottiglio,8.339,45.054,20
39,Dumenza,8.788,46.019,24
28,Niella Belbo,8.079,44.513,20
66,Cornaredo,9.027,45.497,28
24,Bestazzo,9.004,45.432,20
79,San Pietro,9.383,46.258,20
24,Mezzomerico,8.605,45.618,20
33,Gittana,9.291,46.026,20
66,Ceriana,7.773,43.882,46
134,Sale,8.81,44.981,39
39,Pratalborato,8.685,44.707,20
66,Silvano d'Orba,8.676,44.687,39
28,Monzoro,9.042,45.46,20
55,Basaluzzo,8.718,44.769,39
39,Rive,8.418,45.214,20
79,Balzola,8.404,45.184,39
28,Magreglio,9.263,45.921,20
46,Gerbidi,8.823,44.959,20
33,Alzate,8.581,45.558,20
24,Somaggia,9.423,46.252,20
55,Mercallo,8.669,45.747,20
46,Ozzano Monferrato,8.371,45.108,46
28,Valdivilla,8.18,44.709,20
24,Cabiate,9.174,45.674,20
39,Varallo Pombia,8.632,45.665,39
39,Sologno,8.573,45.537,20
112,Dorno,8.95,45.155,33
33,Montegrosso,8.236,44.821,33
39,Montemarzo,8.258,44.866,24
476,Ceva,8.026,44.383,112
24,Sant' Agata,9.42,46.148,20
79,Gavirate,8.716,45.84,66
33,Paderno Dugnano,9.164,45.573,24
28,Casorzo Monferrato,8.334,45.023,28
33,Feisoglio,8.105,44.544,24
28,Castagnole Monferrato,8.304,44.959,20
46,Torrione,8.478,45.325,24
24,Coarezza,8.646,45.683,20
28,Nibbia,8.556,45.49,24
94,Ormea,7.919,44.155,55
55,Biandronno,8.708,45.815,20
46,Delebio,9.461,46.137,28
24,Fornaci,8.608,45.594,20
55,Civate,9.336,45.826,24
33,Mantello,9.488,46.152,20
192,Bosio,8.793,44.65,28
1183,Sanremo,7.757,43.819,397
33,San Pietro Mosezzo,8.545,45.455,28
66,Primaluna,9.431,45.986,55
28,Quarto,8.287,44.906,20
66,Montemagno,8.324,44.983,55
28,Valle,8.983,44.968,20
33,Sardigliano,8.896,44.754,20
28,Vaiano Valle,9.215,45.429,28
33,Bosia,8.146,44.603,20
55,Marano Ticino,8.632,45.63,24
66,Pieve Emanuele,9.194,45.341,33
28,Novedo,9.164,45.267,20
39,Cava Manara,9.107,45.14,20
28,Sacco,9.555,46.116,20
28,Golasecca,8.665,45.696,20
39,Battifollo,8.011,44.32,20
46,Camo,8.193,44.695,20
24,Avolasca,8.964,44.804,20
134,Gerola Alta,9.551,46.061,33
24,Campovico,9.59,46.145,20
39,Montemarzino,8.991,44.849,24
28,Salice Terme,9.026,44.912,20
33,Santa Caterina,8.27,44.85,20
28,Osnago,9.389,45.676,20
39,Airuno,9.428,45.754,20
94,Cataeggio,9.638,46.215,33
33,Varano Borghi,8.704,45.774,24
66,Isoverde,8.868,44.529,20
79,Bressana,9.132,45.079,46
39,Paroldo,8.071,44.433,28
46,Caltignaga,8.587,45.518,39
24,Desco,9.626,46.147,20
28,Argine,9.134,45.065,20
66,Ardenno,9.645,46.164,46
55,Rezzo,7.872,44.021,24
55,Landriano,9.261,45.312,33
39,Prarolo,8.478,45.281,20
24,Cascina Longora,9.275,45.33,20
24,Olivola,8.365,45.038,20
28,Casello,9.692,46.164,20
24,Riozzo,9.322,45.345,20
28,Agliano,8.25,44.791,24
94,Cameriano,8.538,45.397,28
24,Premenugo,9.385,45.468,20
33,Peghera,9.571,45.872,20
39,Gerosa,9.571,45.85,24
39,Armo,7.912,44.088,33
33,Suisio,9.502,45.657,20
55,Bagnaria,9.124,44.826,20
39,Cassino d'Alberi,9.39,45.393,20
24,Pozzuolo Martesana,9.451,45.515,20
28,Casalino,8.524,45.358,20
66,Strozza,9.576,45.775,24
46,Cossano Belbo,8.197,44.667,24
33,Piazzatorre,9.687,45.991,33
39,Inzago,9.483,45.54,20
66,Cabella Ligure,9.095,44.676,66
28,Fabbrica Curone,9.147,44.785,24
24,Calvenzano,9.381,45.27,20
66,Albignano,9.494,45.501,20
39,Sant'Albano,9.202,44.872,39
94,Stradella,9.299,45.078,79
24,Ghiaie,9.58,45.682,20
33,San Donato,7.8,43.845,24
66,Aggio,9.011,44.466,24
134,Oleggio,8.643,45.601,66
33,Dani,8.256,44.775,20
112,Branzi,9.76,46.003,46
28,Torre Bormida,8.155,44.564,20
39,Roncobello,9.752,45.956,39
46,Pietragavina,9.238,44.84,24
33,San Martino,9.224,44.807,20
33,Monfallito,8.32,44.903,20
94,Zavattarello,9.266,44.867,46
24,Vinzaglio,8.521,45.324,20
39,Agnadello,9.558,45.445,24
24,Zorzone,9.767,45.902,20
66,Stezzano,9.654,45.652,33
39,Gorzegno,8.135,44.512,20
66,Carpasio,7.867,43.961,24
28,Santo Stefano Belbo,8.23,44.708,28
46,Oltre il Colle,9.771,45.89,24
39,Sale delle Langhe,8.08,44.395,20
33,Refrancore,8.342,44.937,24
55,Castello di Annone,8.314,44.88,46
112,Badalucco,7.847,43.917,66
24,Maddalena,8.684,45.662,20
66,Monesiglio,8.118,44.466,28
39,Cimbro,8.719,45.737,20
24,Casa Serena,7.809,43.834,20
33,Levice,8.155,44.539,24
39,Nucetto,8.06,44.34,28
33,Pievetta,8.022,44.259,20
33,Cavagliano,8.63,45.534,24
55,Bellinzago Novarese,8.646,45.568,28
33,Altavilla Monferrato,8.377,44.993,20
160,Bagnasco,8.045,44.302,55
33,Caprauna,7.955,44.117,28
24,Calcinate del Pesce,8.763,45.816,20
28,Bodio,8.751,45.788,20
94,Mombercelli,8.296,44.818,39
33,Frazione Trappa,7.992,44.186,20
24,Castelnovate,8.681,45.631,24
79,Priola,8.021,44.243,33
33,Castelnuovo Calcea,8.285,44.788,20
39,San Martino,8.419,45.063,20
46,Somma Lombardo,8.709,45.683,46
33,Prunetto,8.144,44.488,20
24,Casciago,8.777,45.827,24
24,Marchirolo,8.833,45.948,20
55,Vignale Monferrato,8.396,45.011,39
66,Ghirla,8.823,45.925,20
66,Villanova Monferrato,8.479,45.182,39
39,Priero,8.094,44.376,39
331,Casale Monferrato,8.458,45.133,160
24,Lumellogno,8.59,45.405,20
33,Caresana,8.504,45.221,28
112,Vesime,8.227,44.636,24
28,Rasa di Velate,8.806,45.865,20
331,Garessio,8.018,44.203,112
24,Mornago,8.751,45.746,20
46,Perletto,8.211,44.6,20
46,Ganna,8.826,45.902,20
46,Terruggia,8.444,45.082,33
476,Novara,8.614,45.441,160
24,Crugnola,8.75,45.73,20
66,Daverio,8.771,45.774,24
24,Perlo,8.088,44.33,20
79,Pezzolo Valle Uzzone,8.192,44.54,33
79,Taggia,7.852,43.842,55
33,San Marzano Oliveto,8.297,44.753,24
66,Lavena Ponte Tresa,8.865,45.959,66
55,Serra,8.375,44.909,20
33,Monticello,8.596,45.376,20
24,Castellaro,7.869,43.864,20
46,Torrion Quartara,8.616,45.418,20
24,Vessalico,7.959,44.045,20
46,Camerana,8.149,44.434,20
28,Centenate,8.754,45.71,20
112,Canelli,8.292,44.721,39
24,San Giorgio Scarampi,8.24,44.612,20
46,Cameri,8.663,45.503,20
33,Gottasecca,8.168,44.461,20
46,Castelletto Uzzone,8.187,44.494,39
24,Motta de' Conti,8.521,45.194,24
94,Alto,8.002,44.11,33
39,Tavole,7.915,43.929,20
33,Borghetto d'Arroscia,7.98,44.058,33
94,Sumirago,8.781,45.74,33
28,Tornavento,8.711,45.583,24
24,Capolago,8.81,45.794,20
24,Cantone Rossi,8.49,45.108,20
79,Tetti,8.14,44.375,28
79,Borgomaro,7.945,43.975,39
39,Pietrabruna,7.903,43.89,20
230,Varese,8.824,45.819,134
24,Riva Ligure,7.88,43.839,20
24,Santa Maria del Tempio,8.5,45.12,20
24,San Maurizio,8.468,45.052,24
39,Cortiglione,8.359,44.822,20
39,Terranova,8.522,45.164,24
33,Pompeiana,7.89,43.854,20
39,Caravonica,7.959,43.993,20
28,Scaletta Uzzone,8.197,44.481,20
134,Fubine,8.43,44.963,33
28,Brusimpiano,8.889,45.945,20
79,Saliceto,8.169,44.413,28
28,Cesio,7.975,44.008,20
55,Bubbio,8.295,44.663,20
134,Robbio,8.595,45.29,79
66,Rosasco,8.578,45.251,33
24,Albizzate,8.802,45.729,20
33,Pernate,8.675,45.458,20
66,Langosco,8.563,45.215,24
112,Bisuschio,8.87,45.872,20
39,Calamandrana,8.337,44.737,24
33,Ghiare-Madonna,8.371,44.806,28
55,Roccaverano,8.27,44.593,46
24,Castronno,8.814,45.745,20
39,Nosate,8.727,45.551,20
28,Masio,8.408,44.87,24
79,Galliate,8.697,45.482,39
28,Serole,8.258,44.555,28
33,Frassineto Po,8.534,45.133,33
24,Lonate Pozzolo,8.752,45.596,20
28,Morazzone,8.83,45.764,20
24,Caverzasio,8.862,45.828,20
55,Dolcedo,7.948,43.909,39
28,Cavaria con Premezzo,8.801,45.693,24
55,Garbagna Novarese,8.661,45.389,24
66,Occimiano,8.507,45.061,20
39,Nibbiola,8.656,45.371,20
28,Chiusavecchia,7.984,43.968,24
33,Mentasti,8.861,45.81,20
28,Lu e Cuccaro Monferrato,8.484,45.002,28
134,Felizzano,8.436,44.9,79
46,Turbigo,8.737,45.532,24
66,Castelbianco,8.062,44.116,28
79,Samarate,8.783,45.625,33
94,Piano,8.164,44.317,39
28,Sessame,8.336,44.671,20
24,Monastero Bormida,8.326,44.648,24
24,Abazia,8.433,44.866,20
46,Romentino,8.717,45.461,20
79,Vespolate,8.668,45.351,24
28,Viggiù,8.91,45.872,24
28,Millesimo,8.202,44.367,20
28,Testico,8.026,44.005,20
46,Mirabello Monferrato,8.523,45.035,28
79,Ticineto,8.552,45.096,28
46,Candia Lomellina,8.594,45.178,39
66,Vendone,8.069,44.079,20
39,San Lorenzo al Mare,7.962,43.86,33
55,Quargnento,8.488,44.945,20
28,Cantello,8.899,45.824,20
24,Casanova Lerrone,8.049,44.031,20
28,Rovate,8.848,45.709,20
46,Erli,8.103,44.138,20
24,Cascina Tangit I,8.814,45.631,20
24,Robecchetto con Induno,8.767,45.531,20
39,Gaggiolo,8.91,45.839,20
55,Castano Primo,8.778,45.553,20
28,Cozzo,8.61,45.192,20
46,Pogli,8.065,44.055,20
55,Castiglione Olona,8.874,45.754,28
94,Bardineto,8.134,44.191,39
28,Vedano Olona,8.888,45.777,20
24,Sant'Angelo Lomellina,8.642,45.245,24
55,Merana,8.297,44.517,20
55,Pontedassio,8.015,43.938,39
66,Bistagno,8.37,44.662,46
55,Montabone,8.389,44.699,24
112,Trecate,8.738,45.436,66
33,Nicorvo,8.668,45.284,20
24,Valmacca,8.583,45.1,20
33,Borgo Sant'Agata,8.008,43.908,24
66,Bergamasco,8.455,44.828,28
55,Mombaldone,8.332,44.569,20
39,Giarole,8.567,45.061,24
39,Fontanile,8.421,44.753,20
39,Bruno,8.441,44.793,20
66,Ponti,8.364,44.629,20
94,Rossi,8.059,44,28
28,Osiglia,8.198,44.282,20
33,Zuccarello,8.116,44.111,20
55,Solero,8.508,44.918,39
24,Cairate,8.87,45.689,20
24,Diano Arentino,8.042,43.949,20
28,Plodio,8.242,44.358,20
24,Borgolavezzaro,8.701,45.319,24
33,Chiesa,8.108,44.078,20
55,Spigno Monferrato,8.334,44.543,39
79,Oviglio,8.487,44.861,33
39,Tornaco,8.721,45.355,24
28,Ortovero,8.098,44.055,20
230,Imperia,8.013,43.88,160
39,Venegono Inferiore,8.899,45.736,20
33,Rivalba,8.599,45.089,20
39,Mombaruzzo,8.449,44.772,39
28,Piazzolo,8.567,45.013,20
28,Busto Arsizio,8.848,45.613,28
192,Cairo Montenotte,8.277,44.402,112
55,Breme,8.626,45.128,24
28,Alta Valle Intelvi,9.022,45.98,28
33,Albonese,8.706,45.292,24
24,Villafranca,8.103,44.034,20
39,San Salvatore Monferrato,8.566,44.994,39
24,Piano,8.31,44.456,20
112,Montechiaro d'Acqui,8.377,44.595,46
24,Castelletto d'Erro,8.393,44.626,20
33,Rocchetta Cairo,8.299,44.428,20
33,Bozzole,8.605,45.069,24
94,Dego,8.309,44.444,33
94,Cuggiono,8.815,45.511,33
39,Zeme,8.669,45.198,28
46,Uggiate-Trevano,8.962,45.829,28
33,Castello d'Agogna,8.687,45.234,28
94,Tradate,8.908,45.709,66
79,Bormida,8.231,44.279,39
24,Dasio,9.06,46.037,20
46,San Martino,8.791,45.447,24
39,Riva Faraldi,8.085,43.965,20
46,San Mamete,9.062,46.026,39
33,Diano San Pietro,8.072,43.929,20
33,Madonna del Campo,8.715,45.267,20
33,Olgiate Olona,8.886,45.632,20
24,Balestrino,8.17,44.124,20
94,Carcare,8.284,44.357,39
24,Maranzana,8.479,44.76,20
28,Arconate,8.849,45.542,20
39,Ricaldone,8.468,44.733,33
24,Melazzo,8.426,44.644,20
28,Conna,8.105,43.98,20
28,San Bartolomeo,8.113,43.996,24
33,Villanova d'Albenga,8.137,44.045,28
39,Bragno,8.299,44.375,20
79,Cilavegna,8.745,45.31,39
24,Bernate Ticino,8.824,45.477,24
33,San Rocco,8.504,44.793,24
28,Olgiate Comasco,8.969,45.784,24
66,Diano Marina,8.08,43.912,39
28,Pairola,8.097,43.942,20
33,Casalbagliano,8.558,44.895,24
28,Buggiolo,9.11,46.073,20
24,Castellanza,8.902,45.612,20
79,Olevano di Lomellina,8.717,45.214,20
192,Acqui Terme,8.463,44.677,192
39,Cantalupo,8.554,44.865,20
33,Parona,8.752,45.283,20
134,Mortara,8.738,45.252,66
24,Laino,9.077,45.984,20
33,Barbavara,8.782,45.344,20
24,Oltrona di San Mamette,8.975,45.758,20
39,Valmadonna,8.61,44.976,24
33,Malvicino,8.412,44.56,28
28,Ferrania,8.316,44.357,20
24,Bastia,8.171,44.058,20
33,Toirano,8.207,44.129,24
66,Cavatore,8.452,44.632,24
33,Busto Garolfo,8.886,45.548,33
46,Gamalero,8.542,44.809,20
46,Rialto,8.262,44.227,20
28,Bagni,8.473,44.664,20
33,Magliolo,8.246,44.191,20
134,Valenza,8.642,45.014,79
33,Appiano Gentile,8.98,45.736,28
55,Mallare,8.297,44.289,39
79,Cassolnovo,8.808,45.362,39
24,Cabanette,8.583,44.885,20
24,Viagerosa,8.526,44.763,20
33,Campochiesa,8.195,44.074,20
94,Alassio,8.164,44.008,33
28,Gavonata,8.536,44.776,20
66,Verzi,8.236,44.154,20
24,Casone,8.877,45.501,20
28,Torre Beretti,8.671,45.06,20
28,Marcallo,8.871,45.483,20
66,Mozzate,8.959,45.672,20
33,San Bartolomeo Val Cavargna,9.148,46.082,33
39,Laigueglia,8.157,43.978,20
66,Castellazzo Bormida,8.576,44.845,55
46,Altare,8.333,44.337,28
160,Marina di Andora,8.149,43.955,39
66,Mioglia,8.41,44.488,33
33,Ponzone,8.459,44.588,33
66,Giusvalla,8.393,44.449,46
66,Casorezzo,8.902,45.523,20
33,Limido Comasco,8.98,45.689,20
66,Ceriale,8.22,44.089,24
66,Frascarolo,8.682,45.047,28
476,Alessandria,8.619,44.913,331
33,Visone,8.501,44.662,20
66,Valle San Bartolomeo,8.641,44.954,20
24,Cislago,8.972,45.659,20
33,Tovo San Giacomo,8.271,44.176,20
39,Strevi,8.523,44.698,33
33,Semiana,8.732,45.137,33
28,Grognardo,8.491,44.63,20
28,Loano,8.252,44.133,20
46,Occagno,9.099,45.926,33
28,Ranzi,8.263,44.154,20
331,Albenga,8.215,44.053,134
24,Castelnuovo Bormida,8.549,44.742,20
66,Sezzadio,8.573,44.787,28
33,Castelspina,8.583,44.806,20
24,Cerro Maggiore,8.953,45.595,20
66,Calice Ligure,8.294,44.205,24
79,Cernobbio,9.068,45.841,28
46,Morsella,8.81,45.284,28
24,Pellizzari,8.677,45,20
33,Cergnago,8.772,45.198,20
33,Garbana,8.802,45.256,20
66,Robecco sul Naviglio,8.887,45.437,24
112,Mede,8.735,45.098,66
39,Remondò,8.805,45.241,28
28,Pietra Marazzi,8.664,44.942,20
24,Luisago,9.046,45.76,20
28,Boiga-Mordeglia,8.305,44.19,20
39,Cadibona,8.376,44.334,24
66,Madesimo,9.357,46.437,28
39,Moltrasio,9.099,45.86,20
28,Cadorago-Caslino al Piano,9.036,45.722,20
24,Feglino,8.325,44.217,20
28,Pontinvrea,8.436,44.443,24
24,Casal Cermelli,8.625,44.835,24
55,Morbello,8.519,44.607,33
46,San Giorgio di Lomellina,8.789,45.175,46
192,Campodolcino,9.353,46.402,55
33,Morsasco,8.551,44.665,20
28,Arluno,8.947,45.506,20
33,Brunate,9.094,45.821,20
276,Como,9.087,45.806,160
24,Blevio,9.102,45.838,20
276,Vigevano,8.861,45.314,134
28,Prestone,9.353,46.389,20
55,Prasco,8.549,44.65,28
24,Naggio,9.201,46.041,20
28,Portanuova,8.632,44.81,20
24,Nerviano,8.979,45.549,20
28,Soriano,8.938,45.459,20
24,Garzeno,9.25,46.134,20
33,Rivarone,8.716,44.977,20
39,Suardi,8.742,45.032,24
55,Manera,9.041,45.672,20
24,Laglio,9.139,45.883,20
134,Abbiategrasso,8.919,45.401,55
112,Nesso,9.157,45.913,24
46,Castelceriolo,8.694,44.916,28
46,Bassignana,8.734,45.001,39
28,Dosso del Liro,9.274,46.164,24
24,Careno,9.153,45.899,20
33,Sedriano,8.969,45.494,20
66,Lomello,8.796,45.121,33
160,Sassello,8.492,44.48,66
33,Montemoro,8.417,44.325,20
46,Segno,8.385,44.257,24
39,Albairate,8.938,45.419,20
24,Origgio,9.021,45.595,20
112,Finale Ligure,8.346,44.173,55
24,Navedano,9.096,45.755,20
55,Osteria dei Cacciatori-Stella,8.472,44.43,20
24,Plesio,9.228,46.044,20
39,Vanzago,8.991,45.525,20
28,Trisobbio,8.586,44.661,20
55,Lezzeno,9.186,45.945,20
28,Quiliano,8.41,44.293,20
39,Mantovana,8.622,44.731,20
55,Sforzesca,8.887,45.29,20
66,Ozzero,8.924,45.367,28
28,Lobbi,8.72,44.93,20
33,Cassinelle-Concentrico,8.563,44.602,20
79,Santuario,8.442,44.347,28
24,Madonna della Villa,8.611,44.696,20
39,Piovera,8.736,44.958,33
39,Frugarolo,8.681,44.841,33
24,Musso,9.272,46.114,20
94,Dongo,9.281,46.131,55
46,Ottobiano,8.83,45.154,24
24,Veleso,9.18,45.909,20
24,Tosse,8.388,44.227,20
33,Menaggio,9.234,46.026,33
46,Carpeneto,8.606,44.678,28
28,Santa Giustina,8.481,44.417,20
24,Palanzo,9.162,45.865,20
33,Bosco Marengo,8.677,44.824,20
55,Lainate,9.025,45.565,28
28,Tremezzo,9.219,45.983,20
33,San Siro,9.258,46.068,24
24,Acquaseria,9.258,46.057,20
24,Cascina Colombara,9.054,45.612,20
28,Vignola,9.274,46.089,20
33,Ellera,8.466,44.363,20
46,Grava,8.761,44.981,20
39,Tromello,8.87,45.21,28
55,Predosa,8.655,44.751,39
39,Bareggio,8.997,45.477,20
24,Griante,9.236,45.995,20
39,Cisliano,8.985,45.444,28
28,Valleggia,8.434,44.281,20
39,Belcreda,8.902,45.262,20
28,Caselle,8.954,45.371,20
28,Marmorassi,8.462,44.334,20
39,Molare,8.6,44.619,28
79,Pieve del Cairo,8.804,45.047,39
94,Vado Centro,8.431,44.266,33
28,Filippona,8.75,44.927,20
28,Varigotti,8.395,44.182,20
28,Fresonara,8.687,44.783,20
24,Palo-Patarè,8.547,44.491,24
134,Rho,9.04,45.531,79
46,Noli,8.414,44.206,20
24,Alluvioni Cambiò,8.795,45.001,20
39,Domaso,9.329,46.153,24
33,Olgiasca,9.316,46.116,20
39,Figino Serenza,9.13,45.707,20
39,Lentate sul Seveso,9.117,45.679,24
160,Cantù,9.14,45.729,66
39,Bergeggi,8.441,44.247,20
55,Borgo San Siro,8.913,45.236,24
33,Garbagnate Milanese,9.073,45.576,28
28,Rocca Grimalda,8.649,44.672,20
66,Dervio,9.304,46.076,28
33,San Cassiano,9.397,46.277,20
39,San Giuliano Nuovo,8.764,44.908,20
33,Prosto,9.421,46.33,20
33,Dorio,9.319,46.101,20
33,Alagna,8.89,45.169,24
24,Ferrera Erbognone,8.865,45.114,24
39,Mandrogne,8.747,44.861,28
28,San Giuliano,8.764,44.891,24
24,Fallavecchia,8.968,45.324,20
112,Ovada,8.645,44.638,94
33,Varenna,9.285,46.009,28
24,San Vito,9.013,45.417,20
39,Arese,9.077,45.552,20
46,Capriata d'Orba,8.691,44.728,20
39,Alpicella,8.536,44.404,20
24,Mezzana Bigli,8.848,45.06,24
33,Era,9.394,46.243,20
24,Besate,8.97,45.313,20
55,Bellano,9.305,46.043,55
28,Limonta,9.269,45.957,20
39,Gera Lario,9.37,46.171,24
79,Garlasco,8.922,45.197,79
46,Albisola Superiore,8.514,44.337,24
24,Sueglio,9.334,46.085,20
55,San Pietro d'Olba,8.589,44.487,33
39,Settimo Milanese,9.057,45.478,20
28,Madonna delle Bozzole,8.935,45.214,20
55,Cusago,9.042,45.445,24
39,Sanda,8.529,44.36,20
24,Caslino d'Erba,9.227,45.839,24
24,Seveso,9.137,45.642,20
39,Civenna,9.272,45.936,20
66,Guazzora,8.844,45.013,24
24,Tagliolo Monferrato,8.668,44.64,20
28,Brenna,9.187,45.744,20
24,Limbiate,9.124,45.604,20
55,Pero,8.552,44.386,20
33,Pero,9.084,45.511,20
46,Casavecchia,8.622,44.528,28
28,Figino,9.077,45.493,20
55,Gaggiano,9.037,45.406,33
33,Cesano Maderno,9.143,45.631,33
276,Colico Piano,9.373,46.133,112
24,Scaldasole,8.91,45.126,20
46,Meda,9.16,45.658,20
28,Cascina Traversagna,9.115,45.559,20
160,Erba,9.23,45.81,66
66,Rosate,9.017,45.349,28
134,Sannazzaro de' Burgondi,8.905,45.102,79
55,Motta Visconti,8.995,45.289,20
24,Bubbiano,9.013,45.327,20
28,Lierna,9.306,45.955,28
55,Bollate,9.118,45.544,28
24,Crebini,8.72,44.693,20
28,Carugo,9.197,45.709,20
33,Baranzate,9.114,45.527,20
33,Villa,9.481,46.331,33
33,Dascio,9.416,46.186,20
46,Tremenico,9.366,46.076,24
28,Pasturana,8.751,44.75,20
33,Parasacco,8.979,45.231,20
46,Esino Lario,9.334,45.994,28
46,Inverigo,9.217,45.737,33
94,Varazze,8.571,44.36,55
24,Onno,9.297,45.907,20
55,Rossiglione,8.669,44.564,24
79,Canzo,9.271,45.849,33
24,Zelata,9.002,45.264,20
39,Vara Superiore,8.626,44.469,20
39,Merone,9.245,45.786,20
55,Pozzolo Formigaro,8.783,44.794,28
33,Molino dei Torti,8.894,45.024,20
28,Noviglio,9.051,45.359,20
33,Cesano Boscone,9.094,45.447,20
39,Rivalta Nuova,8.811,44.842,24
192,Novate Mezzola,9.449,46.22,39
39,Montaldeo,8.73,44.668,20
79,Giussano,9.211,45.694,33
79,Dubino,9.43,46.171,33
46,Castelnuovo Scrivia,8.882,44.981,46
55,Cornale,8.913,45.044,28
28,Taceno,9.365,46.022,20
112,Mandello del Lario,9.319,45.919,55
55,Osigo,9.3,45.877,20
28,San Cristoforo,8.749,44.692,28
39,Tassarolo,8.773,44.731,20
46,Verceia,9.453,46.199,20
28,Sciarborasca,8.617,44.403,20
230,Seregno,9.206,45.652,55
24,Pusiano,9.281,45.814,20
33,Casargo,9.385,46.037,20
55,Bereguardo,9.027,45.257,28
79,Corsico,9.108,45.432,39
331,Novi Ligure,8.793,44.76,134
24,Pieve Albignola,8.961,45.113,24
46,Gropello Cairoli,8.992,45.178,24
28,Papiago,9.052,45.3,20
160,Tortona,8.865,44.892,79
46,Zerbolò,9.014,45.207,24
79,Campo Ligure,8.698,44.537,28
28,Bosisio Parini,9.291,45.802,24
39,Abbadia Lariana,9.335,45.898,20
66,Desio,9.209,45.62,24
33,San Pietro,9.098,45.38,20
46,Ghiaie,8.952,45.066,20
55,Costa Masnaga,9.278,45.765,20
39,Carate Brianza,9.235,45.671,20
79,Casei,8.927,45.008,28
33,Cortenova,9.388,46.002,24
33,Nova Milanese,9.2,45.591,20
33,Mornese,8.756,44.639,20
28,Silvano Pietra,8.947,45.04,20
24,Santa Corinna,9.088,45.339,20
94,Premana,9.42,46.053,66
55,Assago,9.126,45.407,20
28,Cogoleto,8.645,44.39,20
28,Cadepiaggio,8.781,44.673,20
24,Molteno,9.303,45.778,20
24,Villa Raverio,9.265,45.693,20
39,Villalvernia,8.857,44.815,39
28,Vho,8.889,44.879,20
39,Barbellotta,8.826,44.739,20
24,Spineto Scrivia,8.874,44.837,20
160,Masone,8.716,44.502,79
33,Cinisello Balsamo,9.214,45.558,20
66,Gavi,8.806,44.688,33
46,Pontecurone,8.935,44.96,28
134,Milano,9.175,45.473,55
33,Rognano,9.09,45.288,20
94,Arenzano,8.673,44.404,66
39,Sovico,9.26,45.649,20
33,Marcignago,9.078,45.255,28
79,Villaromagnano,8.888,44.849,28
39,Lissone,9.247,45.616,20
39,Fiorino,8.707,44.463,24
28,Cantalupa,9.158,45.419,20
24,Badile,9.126,45.351,20
24,Alice,8.803,44.661,20
55,Besana in Brianza,9.292,45.704,24
46,Viguzzolo,8.921,44.905,33
66,Torre d'Isola,9.075,45.218,33
39,Cassano Spinola,8.863,44.768,39
134,Rozzano,9.151,45.381,79
28,Tregasio,9.29,45.679,20
28,Piagno,9.499,46.137,20
28,Biassono,9.268,45.63,20
39,Sarezzano,8.914,44.868,20
66,Oggiono,9.347,45.791,39
39,Baselica Bologna,9.124,45.304,20
24,Bevera di Sirtori,9.332,45.75,20
24,Lacchiarella,9.137,45.322,20
66,Sairano,9.051,45.137,33
39,Basiglio,9.156,45.359,20
46,Sesto San Giovanni,9.237,45.534,33
46,Mezzana Rabattone,9.033,45.095,20
24,Giovenzano,9.116,45.273,20
39,Viganò,9.325,45.723,20
46,Cervesina,9.017,45.06,39
79,Serravalle Scrivia,8.859,44.722,39
39,Carrosio,8.832,44.658,24
28,Sirtori,9.337,45.737,20
24,Introbio,9.449,45.974,20
33,Galbiate,9.379,45.818,20
33,Traona,9.53,46.148,20
28,Massaua,9.099,45.205,20
79,Monza,9.274,45.583,55
230,Voghera,9.001,44.991,160
66,Lesmo,9.308,45.649,20
55,Oriolo,9.021,45.032,20
39,Giussago,9.141,45.284,28
24,Berzano di Tortona,8.95,44.878,20
46,Ballabio,9.423,45.898,33
33,Pescate,9.394,45.833,20
24,Nava,9.362,45.763,20
55,Pasturo,9.448,45.948,20
79,Mele,8.747,44.445,46
66,Torre del Mangano,9.129,45.252,55
66,Costa Vescovato,8.926,44.816,28
28,Pancarana,9.051,45.075,20
55,Voltaggio,8.842,44.622,28
33,Sant'Agata Fossili,8.92,44.785,24
33,Villasanta,9.309,45.609,20
66,Arquata Scrivia,8.88,44.692,24
28,Vignole Borbera,8.89,44.707,20
28,Palazzo,8.955,44.837,20
39,Arcore,9.324,45.626,28
24,Pizzale,9.051,45.039,20
46,Maggio,9.462,45.927,20
33,Brugherio,9.295,45.556,20
79,Volpedo,8.985,44.89,24
46,Opera,9.212,45.373,24
33,Rasura,9.553,46.101,20
33,Vimodrone,9.287,45.514,20
46,Pedesina,9.547,46.082,20
134,Rivanazzano,9.014,44.926,55
33,Segrate,9.28,45.494,24
55,Valgreghentino,9.413,45.779,20
24,Velasca,9.349,45.634,20
46,Siziano,9.204,45.318,20
55,San Martino,9.628,46.241,20
33,Locate di Triulzi,9.226,45.357,20
46,Concorezzo,9.333,45.589,20
46,Rigoroso,8.9,44.665,20
46,Retorbido,9.036,44.95,20
46,San Martino Siccomario,9.136,45.161,20
28,Tre Re-Mezzana Corti,9.12,45.126,20
33,Civesio,9.246,45.395,20
55,Novegro-Tregarezzo-San Felice,9.28,45.469,20
66,Lungavilla,9.082,45.041,24
33,San Genesio ed Uniti,9.175,45.235,28
46,Dazio,9.601,46.161,20
24,Calolziocorte,9.437,45.795,20
33,Borghetto di Borbera,8.942,44.73,28
39,Fraconalto,8.877,44.591,24
46,San Donato Milanese,9.266,45.417,20
33,Erve,9.452,45.821,20
24,Gualdrasco,9.205,45.281,20
24,Codevilla,9.057,44.965,20
685,Pavia,9.16,45.184,230
39,Morterone,9.481,45.876,20
46,Cevo,9.621,46.185,20
33,Cravasco,8.865,44.546,20
66,Albaredo,9.589,46.103,24
28,Agrate Brianza,9.35,45.576,20
66,Valtorta,9.535,45.978,39
24,Variana,8.94,44.695,20
46,Carugate,9.342,45.552,20
28,Casasco,9.004,44.828,20
24,Gnignano,9.24,45.329,20
55,Mezzate,9.295,45.443,20
39,Cernusco sul Naviglio,9.333,45.524,24
24,Travacò Siccomario,9.161,45.149,20
134,Pioltello,9.324,45.496,46
46,Pozzol Groppo,9.034,44.868,24
66,Torrazza Coste,9.085,44.977,24
46,Vidigulfo,9.236,45.292,20
24,Due Porte,9.206,45.222,20
24,Rea,9.155,45.113,20
39,Molo di Borbera,8.982,44.746,24
46,Garbagna,8.999,44.781,39
66,Brumano,9.499,45.855,20
55,Godiasco Salice Terme,9.056,44.897,20
112,San Giuliano Milanese,9.29,45.395,66
33,Casatisma,9.129,45.046,24
39,Grondona,8.966,44.696,28
24,Momperone,9.034,44.839,20
24,Bettola-Zeloforomagno,9.313,45.43,24
39,Carpiano,9.273,45.341,24
39,Imbersago,9.445,45.707,20
24,Campomorone,8.885,44.51,20
46,Ceranova,9.243,45.26,24
33,Prado,9.221,45.205,20
55,Verrua Po,9.175,45.107,24
66,Isola del Cantone,8.958,44.646,24
55,Brignano,9.04,44.815,24
33,Pessano con Bornago,9.385,45.55,20
39,Calchera-Frontale,9.514,45.831,20
24,Fossarmato,9.221,45.194,20
39,Borgo Fornari-Pieve,8.937,44.589,20
39,San Marco,9.493,45.779,20
24,Cassignanica,9.346,45.456,20
28,Pinarolo Po,9.167,45.07,20
94,Ronco Scrivia,8.952,44.614,39
24,Costa Valle Imagna,9.506,45.801,20
46,Geo,8.887,44.476,20
28,Villapinta,9.678,46.177,20
28,Fumo,9.151,45.023,20
33,Ornago,9.421,45.598,20
33,Vignate,9.375,45.495,24
33,Mezzanino,9.203,45.124,20
46,Giovi,8.933,44.547,20
79,Cura Carpignano,9.254,45.213,39
24,Gorgonzola,9.404,45.532,24
39,Dernice,9.048,44.767,20
33,Borgo Priolo,9.147,44.967,33
24,Cassiglio,9.611,45.968,20
79,San Sebastiano Curone,9.065,44.787,66
28,Torrevecchia Pia,9.298,45.283,20
33,Ponte Nizza,9.097,44.853,33
66,Colla-Muggiasca,9.621,45.984,28
55,Tartano,9.677,46.107,39
46,Santa Giuletta,9.184,45.034,28
24,Montesegale,9.125,44.907,24
39,Cornate d'Adda,9.468,45.641,28
28,Roncaro,9.276,45.226,20
24,Pontida,9.509,45.73,20
39,Bascapè,9.314,45.306,20
24,Barbianello,9.207,45.075,24
33,Busnago,9.46,45.616,20
33,Calvignano,9.167,44.983,20
28,Manesseno,8.927,44.477,20
28,Settala,9.388,45.456,20
33,Cantalupo Ligure,9.045,44.718,20
28,Roncello,9.457,45.601,20
1419,Genova,8.904,44.421,685
24,Caleppio,9.382,45.436,20
55,Albuzzano,9.273,45.188,20
39,Pratolongo,9.515,45.709,20
55,Begato,8.927,44.449,24
24,Camarza,8.993,44.587,20
66,Melzo,9.423,45.501,24
28,San Bartolomeo,8.978,44.545,20
33,Linarolo,9.27,45.162,20
28,Palazzago,9.544,45.748,20
55,Mezzoldo,9.665,46.012,20
28,Masate,9.461,45.564,20
28,Colorina,9.729,46.154,20
55,Torre d'Arese,9.314,45.244,20
33,Olmo al Brembo,9.648,45.969,20
33,Campospinoso,9.249,45.094,24
55,Albera Ligure,9.066,44.702,20
46,Berbenno di Valtellina,9.745,46.168,46
39,Sant'Olcese,8.969,44.49,39
39,Montacuto,9.104,44.767,24
46,Ca' Bernocchi,9.188,44.944,20
46,Mairano,9.359,45.31,24
24,Pino Soprano,8.963,44.467,20
28,Terno d'Isola,9.534,45.687,28
24,Brembilla,9.596,45.822,24
24,Valera Fratta,9.336,45.257,20
24,Cavaione,9.44,45.476,20
24,Piazzolo,9.671,45.98,20
46,Fortunago,9.183,44.923,46
28,Pietra de' Giorgi,9.23,45.021,28
24,Casa Ponte,9.164,44.877,20
33,Crocefieschi,9.023,44.58,28
24,Laxolo,9.598,45.81,20
66,Casella,9.002,44.532,28
33,Mulazzano,9.398,45.373,33
39,Montalto Pavese,9.215,44.978,39
39,Vobbia,9.039,44.601,20
24,Barzana,9.568,45.735,20
24,San Cipriano Po,9.28,45.11,20
28,Merlino,9.43,45.434,20
46,Caselle Lurani,9.36,45.281,24
39,Lavagna,9.444,45.461,20
33,Copiano,9.323,45.196,24
33,Bettola,9.493,45.563,20
33,Broni,9.265,45.066,20
24,Filighera,9.316,45.175,20
46,Mongiardino Ligure,9.063,44.635,33
28,Sagliano,9.163,44.839,20
112,Piazza Brembana,9.675,45.947,55
46,Camerata Cornello,9.656,45.9,20
28,Zelo Buon Persico,9.433,45.413,28
33,Truccazzano,9.47,45.484,20
28,Brembate di Sopra,9.58,45.718,20
33,Quartiano,9.414,45.357,20
39,Bonate Sotto,9.558,45.668,20
112,San Giovanni Bianco,9.654,45.873,28
24,Casalino,9.023,44.517,20
33,Lirio,9.254,44.995,20
79,Camaldoli,8.984,44.42,33
39,Villanterio,9.362,45.219,28
55,Comazzo,9.465,45.441,24
39,Filago,9.556,45.638,20
24,Sedrina,9.624,45.781,20
24,Genzone,9.348,45.18,20
28,Ponte San Pietro,9.586,45.697,28
24,Gerenzago,9.361,45.206,20
112,Chiesa in Valmalenco,9.848,46.265,79
28,Valleve,9.743,46.029,20
39,Cassano d'Adda,9.513,45.523,39
24,Villa d'Almè,9.618,45.746,20
39,Portalbera,9.319,45.098,20
230,Varzi,9.191,44.824,94
46,Lodi Vecchio,9.416,45.305,46
55,San Pellegrino Terme,9.665,45.838,20
79,Foppolo,9.758,46.042,20
33,Fara Gera d'Adda,9.537,45.556,20
33,Montelungo,9.012,44.436,20
39,Montoggio,9.052,44.518,28
24,Sostegno,9.344,45.133,20
39,Vidardo,9.404,45.257,20
39,Zogno,9.651,45.792,20
66,Valbrevenna,9.081,44.564,39
66,Torre di Santa Maria,9.852,46.233,24
33,Caiolo,9.817,46.153,20
46,Trabuchello,9.748,45.981,20
39,Dalmine,9.598,45.649,24
55,Montù Beccaria,9.315,45.038,24
24,Boltiere,9.579,45.602,20
24,Spriana,9.863,46.221,20
33,Carmine,9.263,44.913,20
55,Santa Maria della Versa,9.299,44.988,55
28,Ranera,9.407,45.218,20
79,Colli Verdi,9.273,44.928,46
33,Spino d'Adda,9.494,45.399,33
28,San Zenone al Po,9.36,45.108,24
39,Treviolo,9.623,45.674,20
55,Sorisole,9.654,45.736,24
39,Carona,9.787,46.022,20
46,Costa de' Nobili,9.379,45.132,20
28,Arena Po,9.362,45.095,20
28,Monteleone,9.41,45.193,20
55,Golferenzo,9.305,44.963,20
55,Arquino,9.872,46.199,24
33,Torchione-Moia,9.853,46.153,20
33,Santa Cristina,9.399,45.158,28
39,Bosnasco,9.357,45.065,28
39,Poscante,9.689,45.784,20
24,Boffalora d'Adda,9.494,45.36,24
33,Bracca,9.708,45.822,20
33,Ciserano,9.6,45.585,20
28,Serina,9.731,45.871,28
39,Verdellino,9.609,45.601,20
39,Gradella,9.532,45.425,20
28,San Damiano al Colle,9.347,45.025,20
24,Muzza Sant'Angelo,9.471,45.283,24
28,Rovescala,9.341,45.002,24
28,Arzago d'Adda,9.563,45.481,20
1183,Sondrio,9.877,46.169,276
46,Davagna,9.092,44.467,20
28,Bergamo,9.668,45.694,20
39,Santa Margherita di Staffora,9.235,44.761,39
192,Treviglio,9.592,45.524,79
66,Bargagli,9.09,44.447,39
24,Ripaldina,9.392,45.084,20
79,Carrega Ligure,9.174,44.62,28
331,Lodi,9.503,45.314,192
24,Bissone,9.424,45.144,20
28,Costa Serina,9.741,45.833,24
28,Graffignana,9.454,45.206,24
55,Pandino,9.553,45.406,39
24,Miradolo Terme,9.448,45.171,24
46,Brignano Gera d'Adda,9.648,45.545,33
39,Scoffera,9.123,44.486,20
33,Ganaghello,9.386,45.041,20
94,Roccabianca,10.22,45.007,39
55,Esenta,10.479,45.416,20
39,Ragoli,10.777,46.054,28
24,Massalengo,9.49,45.265,20
28,Santa Lucia,9.744,45.815,20
28,Toline,10.089,45.788,20
39,Azzanello,9.92,45.313,20
28,Meleti,9.835,45.121,20
39,Castelnuovo Bocca d'Adda,9.865,45.111,39
33,Pieranica,9.61,45.426,20
28,Calvenzano,9.601,45.497,24
39,Temù,10.469,46.251,24
230,Cremona,10.02,45.143,192
28,Flero,10.177,45.484,20
33,Testana,9.145,44.396,20
94,Dovera,9.542,45.365,28
46,Nibbiano,9.329,44.906,33
33,Menconico,9.277,44.797,28
94,Ghiare,9.928,44.552,33
112,Albino,9.797,45.761,66
28,Morengo,9.705,45.531,20
28,Algua,9.745,45.802,20
55,Poggio,10.198,44.659,20
24,Valgoglio,9.914,45.975,20
24,Tirolo,11.155,46.691,20
24,Marzano,9.143,44.506,20
112,Rovegno,9.278,44.578,66
39,Lurano,9.64,45.565,20
24,Mottaziana,9.508,45.016,24
66,Cerignale,9.35,44.678,28
24,Boario,9.952,45.97,20
28,Pianengo,9.695,45.402,20
28,Villa d'Ogna,9.925,45.901,24
33,Torre Boldone,9.71,45.714,20
192,Crema,9.678,45.359,94
112,Romano di Lombardia,9.754,45.52,79
66,Favale di Malvaro,9.259,44.452,33
39,Teglio,10.064,46.173,24
55,Lonno,9.732,45.757,20
33,Cortenuova,9.787,45.539,20
46,Agazzano,9.518,44.945,46
28,Bottaiano,9.742,45.416,24
55,Somaglia,9.633,45.149,20
39,Palosco,9.836,45.589,20
112,Torriglia,9.159,44.519,55
24,Grumello del Monte,9.877,45.637,20
28,Villa,10.134,46.204,20
33,Teriasca,9.099,44.392,20
24,Tuna,9.577,44.981,20
33,Zanica,9.682,45.636,20
94,Perino,9.503,44.819,33
33,Palazzo Pignano,9.569,45.39,20
79,Propata,9.184,44.566,39
28,Pretta,9.584,44.952,20
112,Rezzoaglio,9.386,44.527,94
55,Alzano Lombardo,9.728,45.732,33
46,Pieve Porto Morone,9.441,45.109,33
39,Calcio,9.85,45.506,20
33,Fombio,9.683,45.137,20
55,Guardamiglio,9.681,45.108,20
66,Gallignano,9.836,45.438,24
66,Piangaiano,9.996,45.789,20
46,Cadilana,9.545,45.329,24
33,Capriolo,9.933,45.635,24
55,Selvino,9.757,45.788,24
46,Sovere,10.028,45.815,33
28,Pittolo,9.662,45.014,20
55,San Fiorano,9.723,45.137,20
24,Olmo,9.532,45.292,20
33,Premadio,10.352,46.485,20
33,Santo Stefano Lodigiano,9.735,45.119,20
33,Carmiano,9.618,44.853,20
79,San Martino in Strada,9.526,45.276,33
33,Vidalengo,9.641,45.522,20
24,Roccafranca,9.915,45.464,20
28,Spirano,9.669,45.582,20
192,San Giovanni-San Bernardino,9.606,44.777,79
24,Ziano Piacentino,9.401,45.001,24
33,Vicomarino,9.393,44.982,20
55,Borghetto Lodigiano,9.5,45.211,24
94,Sestri Levante,9.393,44.27,39
46,Pian Camuno,10.138,45.842,33
39,Sant'Antonio,10.416,46.462,24
192,Marone,10.094,45.736,28
33,Cazzago San Martino,10.025,45.582,20
94,Brallo,9.282,44.738,28
55,Statale,9.463,44.352,33
66,Romagnese,9.33,44.839,33
24,Casoni,9.497,45.194,20
55,Tresivio,9.947,46.177,39
66,San Colombano al Lambro,9.492,45.181,46
33,Sori,9.11,44.371,24
112,Castel San Giovanni,9.436,45.059,112
55,Seriate,9.724,45.683,33
39,Lumarzo,9.142,44.434,20
24,Badia Pavese,9.468,45.121,20
46,Carpaneto Piacentino,9.789,44.915,46
55,Caravaggio,9.641,45.495,28
33,Bettolino,10.107,45.582,20
24,Pedrengo,9.735,45.697,20
55,Pievetta-Dogana Po,9.454,45.086,20
46,Grassobbio,9.719,45.659,20
28,Castiglione,9.515,44.276,28
24,Castegnato,10.116,45.564,24
24,Longhena,10.06,45.438,20
33,Barbariga,10.055,45.405,20
39,Urgnano,9.694,45.6,20
192,Capo di Ponte,10.348,46.031,55
33,Fascia,9.22,44.583,20
33,Stravignino,10.237,45.776,20
39,Villa d'Oneta,9.819,45.871,28
134,Varese Ligure,9.594,44.377,33
39,Badetto,10.343,45.997,20
66,Chignolo Po,9.489,45.151,24
112,Tavernole,10.24,45.748,24
39,Mandolossa,10.158,45.558,20
192,Solda,10.593,46.525,55
46,Valcanale,9.858,45.95,33
28,Nembro,9.766,45.746,20
28,Rondanina,9.217,44.564,20
66,Pezzo,10.522,46.288,24
79,Castell'Arquato,9.875,44.855,28
24,Pagazzano,9.671,45.535,20
24,Ossago Lodigiano,9.538,45.243,24
33,Pozzaglio,10.05,45.2,28
28,Bettenesco,10.047,45.18,20
28,Bovezzo,10.243,45.591,20
33,Gotra,9.735,44.471,20
33,Allitz,10.72,46.632,20
79,Pianello Val Tidone,9.403,44.947,55
24,Osteria Nuova,9.921,44.845,20
46,San Felice,10.073,45.144,20
112,Varsi,9.848,44.662,66
276,Borgo Val di Taro,9.77,44.486,192
66,Borgosatollo,10.24,45.481,33
28,Alfianello,10.149,45.266,28
33,Vidalenzo,10.048,45.015,28
55,Capanelle,9.727,45.634,20
46,Stagno Lombardo,10.088,45.073,33
55,Seniga,10.177,45.243,20
24,Masano,9.674,45.514,20
79,Compart,10.118,46.498,28
822,Livigno,10.135,46.535,192
24,Castello,10.338,45.575,20
134,Vestone,10.4,45.709,55
24,Colleri,9.309,44.727,20
39,Capralba,9.643,45.444,20
79,Cologno al Serio,9.706,45.581,46
55,Borgonovo Val Tidone,9.444,45.014,39
46,Pralboino,10.218,45.269,28
79,Uscio,9.161,44.413,33
331,Ghedi,10.279,45.401,94
24,Coldrano,10.825,46.621,20
66,Zerba,9.283,44.668,39
39,Pescarolo,10.188,45.194,20
46,Morter,10.822,46.606,20
55,Serle,10.368,45.57,20
39,Case Nuove,10.397,45.61,28
33,Molinetto,10.359,45.502,24
66,Pecorara,9.384,44.877,33
24,Ponte in Valtellina,9.982,46.178,20
24,Riso,9.84,45.86,20
28,Bagnolo Cremasco,9.612,45.362,28
28,Cappella de' Picenardi,10.231,45.159,20
39,Santa Maria,9.344,44.786,24
24,Fornovo San Giovanni,9.676,45.498,20
28,Basella,9.731,45.615,20
134,Storo,10.576,45.85,112
24,Chiuro,9.982,46.165,20
55,Neirone,9.191,44.455,20
79,San Martino,10.507,45.682,33
46,Castelnuovo,9.443,44.987,20
24,Ciardes,10.941,46.639,20
28,Molino Nuovo,9.158,44.383,20
33,Carzago Riviera,10.46,45.525,20
79,Fontanellato,10.172,44.881,33
24,Albano Sant'Alessandro,9.769,45.686,24
46,Remedello di Sopra,10.371,45.279,28
55,Caderzone Terme,10.757,46.13,20
55,Medesano,10.139,44.757,39
33,Alberone,9.518,45.136,20
28,Brusaporto,9.765,45.669,20
79,San Secondo Parmense,10.23,44.922,79
24,Cassinone,9.757,45.652,20
33,Gattorna,9.187,44.43,20
24,Ozzano Taro,10.142,44.711,20
28,Gardone Riviera,10.563,45.621,24
28,Fabbiano,9.445,44.974,20
24,Livraga,9.547,45.192,20
55,Chieve,9.616,45.341,20
39,Recorfano,10.345,45.104,20
33,Trecasali,10.275,44.938,24
39,Piadena Drizzona,10.365,45.13,20
160,Palmadula,8.189,40.748,112
46,Rablà,11.063,46.672,33
79,Corniglio,10.087,44.476,55
28,Monticelli Pavese,9.514,45.11,28
33,Eia,10.265,44.834,24
66,Marzolara,10.172,44.632,28
55,Centenaro,10.547,45.429,24
46,Bozzana,10.985,46.388,20
24,Basiasco,9.589,45.265,20
33,San Pancrazio,11.086,46.587,33
79,Baganzola,10.307,44.855,28
24,Cavenago d'Adda,9.598,45.283,24
28,Piovere,10.708,45.727,20
33,Calvatone,10.441,45.128,24
46,Casaletto Ceredano,9.616,45.319,20
39,Mozzanica,9.69,45.478,28
39,Bariano,9.706,45.512,28
134,Casalmaggiore,10.419,44.994,55
66,Montebruno,9.248,44.526,39
112,Saltusio,11.199,46.729,20
112,Lana,11.156,46.612,46
28,Brembio,9.572,45.214,28
55,Alberi,10.334,44.748,24
24,Cunevo,11.035,46.286,20
39,Mezzano Superiore,10.425,44.93,20
24,Ranzo,10.943,46.064,20
33,Gorreto,9.29,44.606,24
39,Tesimo,11.17,46.565,20
28,Vall'Alta,9.828,45.762,20
24,Cavernago,9.766,45.625,20
39,Orio Litta,9.554,45.16,28
28,Ghisalba,9.756,45.595,20
66,Bondo,9.865,45.834,20
33,Sant'Anna,10.177,46.526,24
46,Gromo,9.927,45.963,20
46,Secugnago,9.593,45.233,20
24,Gromo San Marino,9.946,46.002,20
24,Capergnanica,9.643,45.337,20
33,Fiumenero,9.957,46.021,20
94,Gandellino,9.946,45.99,20
192,Bobbio,9.383,44.768,112
39,Abbazia,9.843,45.748,24
112,Ardesio,9.931,45.938,39
24,Sola,9.724,45.483,20
39,Sergnano,9.701,45.429,39
94,Vidolasco,9.712,45.451,20
39,Valzella,9.925,45.917,20
28,Martinengo,9.768,45.571,28
33,Turano Lodigiano,9.623,45.249,20
33,San Giacomo,10.037,46.156,20
94,Ottone,9.333,44.624,39
28,Calcinate,9.799,45.621,20
33,Credera,9.654,45.303,24
94,Marsaglia,9.382,44.713,24
24,Casanova,9.308,44.557,20
79,Cicagna,9.237,44.408,46
39,Mezzano Scotti,9.429,44.809,33
39,Fontanigorda,9.306,44.546,24
39,Zorlesco,9.615,45.201,20
39,Rottofreno,9.549,45.056,33
55,Bolgare,9.82,45.635,28
39,Piozzano,9.495,44.926,20
276,Bondione,10.006,46.034,46
79,Rapallo,9.226,44.353,55
46,Coli,9.413,44.745,20
33,Guzzafame,9.594,45.132,24
24,Ripalta Nuova,9.692,45.333,20
79,Portofino,9.209,44.304,33
39,Covo,9.772,45.5,20
39,Lorsica,9.276,44.434,20
24,San Martino Pizzolano,9.622,45.164,20
24,Entratico,9.871,45.706,20
24,Lizzola,10.016,46.023,20
24,Tresenda,10.08,46.16,20
33,Chiuduno,9.85,45.651,20
46,Gragnanino,9.567,45.03,20
55,Calendasco,9.597,45.087,28
24,Pian dei Ratti-Pianezza,9.27,44.393,20
28,Bertonico,9.667,45.233,20
33,Rezzanello,9.518,44.911,20
94,Casazza,9.907,45.749,46
46,Madignano,9.723,45.346,24
46,Bianzano,9.919,45.773,20
66,Offanengo,9.741,45.379,39
55,Bianzone,10.109,46.188,20
28,Antegnate,9.791,45.486,20
33,Gazzola,9.549,44.961,20
33,Berzo San Fermo,9.901,45.719,20
28,Casalpusterlengo,9.652,45.176,28
33,Ranzanico,9.935,45.789,20
33,Cividate al Piano,9.831,45.555,20
33,Zoagli,9.264,44.339,20
28,Casaliggio,9.574,44.994,28
55,Calvari,9.286,44.382,28
33,Montodine,9.711,45.284,28
55,Fontanella,9.802,45.47,28
46,Fornaci,9.678,45.198,20
33,Motta,10.12,46.168,20
24,Foglia,9.864,45.598,20
28,Casaletto di Sopra,9.782,45.418,24
39,Pontoglio,9.853,45.57,20
66,Castiglione d'Adda,9.694,45.219,33
28,Chiesa,9.913,45.696,24
28,Canneto Sopra,9.583,44.966,20
66,Cerete Basso,9.996,45.859,24
24,Valloria,9.651,45.104,20
24,Endine,9.969,45.792,20
24,Pezzolo,10.063,45.998,20
94,Travo,9.543,44.862,46
94,Gombito,9.729,45.262,20
55,Castelli Calepio,9.894,45.62,20
24,Chiesa Nuova,9.312,44.372,20
28,Romanengo,9.785,45.379,24
112,Tirano,10.165,46.216,112
28,Quadrelli,9.54,44.849,20
79,Palazzolo sull'Oglio,9.889,45.593,79
39,Salvirola,9.781,45.355,20
55,Isolaccia,10.294,46.489,39
94,Gossolengo,9.619,45.003,39
33,Fiesco,9.779,45.336,20
33,Le Valli,9.769,45.315,20
160,Aprica,10.152,46.153,39
55,Castelleone,9.762,45.294,55
33,Trebecco,9.926,45.652,20
160,Codogno,9.701,45.162,94
46,Adrara San Martino,9.95,45.702,20
24,Monte Travaso,9.572,44.882,20
24,Retegno,9.698,45.149,20
28,Adrara San Rocco,9.959,45.715,20
28,Camairago,9.726,45.205,20
33,Brizzolara,9.368,44.437,20
46,Fabbiano,9.584,44.893,20
66,Colere,10.083,45.974,46
46,Vilminore,10.095,45.998,20
39,Cornaleto,9.751,45.242,20
28,Santellone,9.895,45.548,20
79,Rivergaro,9.604,44.917,39
66,Castione della Presolana,10.066,45.916,46
33,Viadanica,9.963,45.684,20
24,Isengo,9.842,45.419,20
66,Carasco,9.346,44.349,20
39,Cavacurta,9.742,45.189,20
39,Finiletti,9.872,45.467,20
28,Ticengo,9.828,45.368,20
94,Trigolo,9.813,45.33,28
46,Niviano,9.632,44.94,20
55,San Rocco al Porto,9.698,45.081,28
24,Borgonovo,9.379,44.396,20
134,Borzonasca,9.39,44.42,55
28,Bossico,10.045,45.828,20
28,Quarto,9.663,44.996,24
39,Valle Richetti,10.104,45.955,20
46,Lovero,10.229,46.234,20
160,Ferriere,9.499,44.644,66
33,Formigara,9.771,45.224,24
66,Mezzanego,9.377,44.384,28
33,Settima,9.655,44.972,20
39,Corte Madama,9.795,45.268,20
46,Santo Stefano d'Aveto,9.458,44.547,39
28,Cologne,9.939,45.581,28
28,Torre,9.878,45.446,20
28,San Salvatore,9.355,44.329,20
46,Cumignano sul Naviglio,9.836,45.354,20
55,Fonteno,10.024,45.761,20
66,Chiari,9.924,45.534,46
33,Adro,9.963,45.618,20
28,Riva di Solto,10.037,45.775,24
55,Mazzo di Valtellina,10.254,46.256,28
28,Oga,10.347,46.463,20
33,Perlezzi,9.421,44.444,20
39,Maleo,9.761,45.167,20
24,Villacampagna,9.857,45.373,20
476,Piacenza,9.706,45.045,331
46,Soncino,9.871,45.401,28
39,Clusane,9.997,45.664,20
571,Resia,10.518,46.83,94
24,Gariga,9.684,44.983,20
39,Parzanica,10.035,45.738,20
33,Erbusco,9.972,45.599,20
55,San Bassano,9.809,45.244,33
112,Schilpario,10.162,46.009,46
33,Predore,10.015,45.681,20
24,Albarola,9.648,44.884,20
192,Bormio,10.37,46.469,134
39,Tiolo,10.301,46.313,20
33,Grazzano Visconti,9.672,44.934,20
24,Santa Giulia,9.376,44.304,20
192,Ponte dell'Olio,9.643,44.869,66
134,Farini,9.57,44.713,55
66,Cepina,10.357,46.435,28
94,Podenzano,9.685,44.956,79
39,Villò,9.657,44.895,20
46,Vigolzone,9.669,44.915,33
46,Corteno Golgi,10.243,46.166,46
55,Corte Franca,10.007,45.637,33
33,Piatta,10.374,46.454,20
46,Mucinasso,9.723,45.014,24
94,Tubre,10.463,46.644,46
79,Sondalo,10.326,46.332,33
24,Tavernola Bergamasca,10.047,45.71,24
160,Soresina,9.854,45.289,94
24,Mortizza,9.756,45.077,20
33,Gerbido,9.749,45.055,20
46,Barco,9.899,45.379,20
33,Regona,9.819,45.203,20
55,Genivolta,9.879,45.333,33
39,Ludriano,9.933,45.447,20
46,Curon Venosta,10.543,46.808,20
33,Vello,10.081,45.756,20
46,Cornovecchio,9.798,45.136,20
134,San Valentino alla Muta,10.533,46.765,46
230,Orzinuovi,9.924,45.404,94
24,Cizzago-Comezzano,9.954,45.469,24
33,Frisolino,9.423,44.331,20
33,Anfurro,10.143,45.875,20
33,Groppallo,9.601,44.696,20
33,Rogno,10.137,45.857,20
39,Caselle Landi,9.792,45.102,33
55,Castrezzato,9.981,45.512,33
28,San Bernardo,9.411,44.288,20
39,San Polo,9.742,44.979,20
28,Zanengo,9.852,45.216,20
33,Frontale,10.366,46.349,24
24,Fontane-Zurane-Gresine,10.046,45.634,24
46,Burgusio,10.529,46.711,20
55,Santa Maria del Taro,9.49,44.433,55
39,San Giorgio Piacentino,9.738,44.954,33
24,Montedomenico,9.436,44.311,24
28,Centovera,9.726,44.921,28
24,Ponte Del Nure,9.769,45.011,20
39,Monterotondo,10.046,45.612,20
55,Zone,10.115,45.762,20
24,Bonfadina,10.029,45.571,20
33,Casalmorano,9.9,45.286,24
24,Artogne,10.16,45.856,20
46,Barzaniga,9.89,45.264,20
24,Orzivecchi,9.963,45.421,20
46,Pilzone,10.08,45.674,24
66,Borno,10.204,45.946,24
33,Borghetto,9.783,45.026,20
33,Grumello Cremonese,9.864,45.193,28
55,Roncaglia,9.796,45.043,28
46,Duomo,10.022,45.533,20
46,Villa,10.233,45.995,39
192,Darfo Boario Terme,10.183,45.883,134
134,Malles Venosta,10.543,46.69,55
33,Crotta d'Adda,9.854,45.159,28
33,Lodetto,10.035,45.551,20
24,Maccastorna,9.853,45.147,20
24,Cardini,9.453,44.292,20
55,Monno,10.339,46.213,28
39,Sale Marasino,10.111,45.704,39
55,Pompiano,9.989,45.432,28
66,Trenzano,10.011,45.478,28
24,Passirano,10.067,45.598,20
230,Edolo,10.332,46.178,94
28,Odecla,10.302,46.11,20
28,Macinesso,9.696,44.785,28
28,Valconasso,9.782,44.968,20
33,Casarza Ligure,9.459,44.277,33
39,Coniolo,9.977,45.382,24
46,Paisco,10.293,46.079,33
39,Planol,10.579,46.722,24
28,Acqualunga,9.954,45.327,20
24,Corzano,10.008,45.444,20
39,Piamborno,10.225,45.919,28
33,Berlingo,10.036,45.503,20
46,Borgo San Giacomo,9.968,45.35,28
28,Farfengo,9.978,45.369,20
112,Malonno,10.32,46.123,46
39,Sacca,10.221,45.901,20
55,Gropparello,9.731,44.834,55
55,Bargone,9.481,44.3,20
46,Sariano,9.748,44.857,20
28,Gerolanuova,10.004,45.406,20
33,Paderno Ponchielli,9.928,45.237,20
79,Ospitaletto,10.074,45.555,46
24,Sonico,10.351,46.166,20
46,Stelvio,10.547,46.598,24
28,Ponte Cingoli,10.105,45.599,28
33,Montechiaro,10.568,46.636,20
55,Rino,10.354,46.15,20
66,Ome,10.12,45.625,20
33,Zerbio,9.862,45.064,20
33,Lograto,10.056,45.485,24
66,Morfasso,9.703,44.723,55
55,Sluderno,10.585,46.665,24
39,Sesto Cremonese,9.916,45.176,24
46,Polaveno,10.136,45.656,24
55,Vezza d'Oglio,10.398,46.239,46
24,Zona Bertoncella-Palazzo Faustini,9.81,44.942,20
24,Masso,9.493,44.266,20
39,Lacereto,9.745,44.797,28
28,Gombio,10.15,45.669,20
24,Cadeo,9.831,44.975,20
24,Frontignano,10.038,45.42,20
79,Travagliato,10.085,45.519,28
66,Casalbuttano,9.962,45.252,46
66,Maissana,9.534,44.338,46
33,Ossolaro,9.942,45.206,24
134,Caorso,9.871,45.048,33
112,Santa Caterina,10.49,46.413,39
66,San Paolo,10.022,45.374,33
66,Bordolano,9.988,45.291,20
39,Mazia,10.618,46.695,24
66,Moneglia,9.495,44.238,33
94,Cedegolo,10.348,46.078,39
28,Chero,9.827,44.93,20
66,Prato allo Stelvio,10.593,46.62,66
28,Quinzano d'Oglio,10.006,45.314,28
33,Cignone,9.986,45.269,20
28,Ono San Pietro,10.328,46.017,20
28,San Nazzaro,9.9,45.077,20
55,Saliceto,9.862,44.993,20
33,Tessi,9.515,44.254,20
33,Tornolo,9.625,44.485,20
112,Bedonia,9.634,44.501,79
39,Breno,10.306,45.958,20
79,Roveleto,9.852,44.963,33
33,Civine,10.156,45.624,20
46,Sellero,10.35,46.052,20
28,Chiavenna Landi,9.875,45.008,20
24,Mairano,10.08,45.449,20
28,Cavignaca,9.646,44.514,20
55,Tavarone,9.553,44.309,20
66,Dello,10.077,45.421,28
55,Tarsogno,9.625,44.449,39
33,San Martino in Beliseto,9.984,45.216,20
66,Piazza,10.158,45.591,33
46,Deiva Marina,9.517,44.217,20
39,Cavatigozzi,9.956,45.151,33
24,Costa Sant'Abramo,9.967,45.173,20
33,Polignano,9.908,45.044,20
39,Niardo,10.334,45.977,20
28,Monticelli d'Ongina,9.93,45.09,28
28,Cadignano,10.058,45.36,20
46,Marcheno,10.217,45.709,20
55,Sarezzo,10.196,45.661,39
24,Velva,9.552,44.276,20
28,San Protaso,9.863,44.922,28
39,San Pietro Vara,9.588,44.336,33
24,Brozzo,10.23,45.719,20
33,Vigolo Marchese,9.845,44.88,20
28,Lavone,10.25,45.762,20
276,Bardi,9.729,44.63,112
39,Villa Carcina,10.194,45.632,24
94,Castelverde,9.996,45.189,39
46,Poggio,9.788,44.743,20
24,Saviore,10.401,46.08,20
55,Lugagnano Val d'Arda,9.827,44.823,55
55,Bovegno,10.273,45.793,55
24,Roncadelle,10.154,45.528,20
33,Sugremaro,9.674,44.493,24
46,Castel Mella,10.142,45.498,20
28,Fantasina,10.178,45.574,20
39,Olmeneta,10.026,45.234,33
33,Piazza,9.558,44.233,20
46,Vernasca,9.83,44.8,20
112,Bore,9.793,44.719,46
28,Corticelle Pieve,10.121,45.423,24
39,Tanas,10.667,46.639,20
24,Anzo-Setta,9.554,44.206,20
28,Irma,10.285,45.771,20
55,Cortemaggiore,9.931,44.994,46
28,Dosso-Ville,10.282,45.753,24
94,Ponte di Legno,10.509,46.259,94
66,Offlaga,10.116,45.386,24
33,Precasaglio,10.517,46.273,20
55,Concesio,10.218,45.605,33
79,Castelvetro Piacentino,9.989,45.104,33
55,Valle,10.429,46.069,46
39,Boschetto,10.024,45.165,20
66,Carro,9.606,44.274,39
46,Villa,10.279,45.719,33
112,Fiorenzuola d'Arda,9.914,44.922,94
79,Albareto,9.702,44.447,39
39,Lusurasco,9.909,44.889,28
66,San Giuliano,9.995,45.071,28
46,Bettegno,10.102,45.302,20
46,Collio,10.336,45.811,33
46,Baselicaduce,9.941,44.944,20
24,Bonassola,9.583,44.184,20
192,San Sebastiano,10.268,45.649,66
46,Lasa,10.7,46.617,39
112,Manerbio,10.135,45.355,79
55,Mattarana,9.619,44.247,20
28,Poncarale,10.187,45.46,20
24,Alone,10.291,45.686,20
39,Bassano Bresciano,10.13,45.326,24
79,Brescia,10.221,45.525,28
33,Cortina,9.923,44.871,20
55,Bagnolo Mella,10.182,45.429,55
94,Villanova,9.998,45.026,39
33,San Zeno Naviglio,10.216,45.496,20
33,Soarza,10.014,45.043,20
28,San Colombano,10.368,45.812,20
55,Corte de' Frati,10.101,45.218,39
46,Persichello,10.078,45.167,33
33,Casto,10.321,45.695,24
33,Livemmo,10.344,45.742,24
24,Chiaravalle,9.97,44.924,20
112,Sesta Godano,9.674,44.291,46
192,Levanto,9.619,44.176,94
46,Alseno,9.962,44.898,28
28,Battaglione-Bagnara,10.065,45.117,24
66,Porzano,10.197,45.399,24
39,Passo del Tonale,10.586,46.26,39
28,Carrodano Inferiore,9.658,44.241,24
39,Dosimo,10.105,45.185,20
24,Bersano,10.012,44.983,20
55,Nave,10.291,45.587,39
39,Montirone,10.229,45.447,28
33,Ceriati,9.937,44.813,24
46,Casacce,10.159,45.292,20
33,Pieve,10.338,45.672,20
33,Castelnuovo Fogliani,9.976,44.876,20
24,Ardole San Marino,10.106,45.156,20
46,Caino,10.314,45.609,20
28,Milzanello,10.194,45.341,20
94,Ono Degno,10.383,45.751,33
55,Leno,10.215,45.365,39
24,Buffalora-Bettole,10.277,45.496,20
24,San Gallo,10.309,45.564,20
66,Monterosso al Mare,9.649,44.146,24
112,Busseto,10.042,44.98,79
28,Malagnino,10.115,45.135,20
28,Scandolara Ripa d'Oglio,10.156,45.222,20
24,Agnosine,10.353,45.649,20
33,Levrange,10.393,45.735,20
66,Pellegrino Parmense,9.933,44.73,46
39,Botticino,10.304,45.532,20
24,Grontardo,10.152,45.201,20
24,Cassana,9.69,44.213,20
79,Coloretta,9.757,44.343,46
94,Salsomaggiore Terme,9.98,44.815,46
24,Patigno,9.763,44.353,20
66,Ostia Parmense,9.846,44.519,46
24,Pavone del Mella,10.21,45.299,24
39,Castione Marchesi,10.032,44.91,33
28,Castenedolo,10.293,45.474,28
134,Meiern,10.783,46.564,33
112,Cogolo,10.692,46.353,46
79,Rezzato,10.316,45.514,55
39,Zignago,9.745,44.284,39
33,Pieve d'Olmi,10.123,45.09,20
24,Serò,9.736,44.263,20
66,Castelletto,10.235,45.33,24
112,Brugnato,9.725,44.238,66
112,Madonna,10.858,46.724,66
112,Vescovato,10.164,45.175,79
66,Vianino,9.935,44.681,39
28,Borghetto di Vara,9.72,44.224,20
33,Mormorola,9.883,44.568,24
79,Bagolino,10.462,45.824,66
24,Longardore,10.143,45.124,20
33,Frescarolo,10.079,44.978,20
39,Ponte Ghiara,10.017,44.844,24
33,Odolo,10.386,45.646,20
24,Sottocastello,10.396,45.668,20
24,Vernazza,9.683,44.135,20
46,Roncole Verdi,10.069,44.951,24
24,Regona,10.205,45.241,20
24,Casale,9.714,44.19,20
28,Lavenone,10.44,45.74,20
192,Fraviano,10.691,46.297,112
55,Sospiro,10.158,45.108,55
28,Rocchetta di Vara,9.758,44.251,20
94,Pignone,9.725,44.178,24
55,Celentino,10.716,46.328,20
24,Mazzano,10.354,45.52,20
39,Sabbio Chiese,10.42,45.657,39
24,Berana,10.376,45.558,20
24,Longone-Colombaia,10.039,44.825,20
79,Zibello,10.13,45.019,39
55,Suvero,9.778,44.266,20
39,Corniglia,9.711,44.12,20
33,Fascia d'Oro,10.331,45.447,20
46,Pieve San Giacomo,10.186,45.13,20
46,Nuvolera,10.372,45.532,20
24,Laces,10.857,46.617,24
230,Fidenza,10.067,44.863,160
94,Gottolengo,10.268,45.293,46
24,San Salvatore,10.179,45.097,20
46,Trebbio,10.461,45.713,20
24,Pieve Terzagni,10.221,45.185,20
24,Nuvolento,10.387,45.546,20
39,Arveaco,10.455,45.691,20
66,Crone,10.479,45.739,46
39,Certosa,10.909,46.706,28
55,Anfo,10.494,45.766,24
28,Castellina,10.107,44.914,20
46,Varano Marchesi,10.033,44.753,46
134,San Daniele Po,10.18,45.064,39
66,Ostiano,10.255,45.221,28
94,Soragna,10.123,44.929,39
192,Solignano,9.976,44.613,66
66,Varano de' Melegari,10.012,44.689,55
24,Teglie,10.462,45.663,20
39,Lodrone-Darzo,10.538,45.83,20
33,Cavanella Vara,9.788,44.207,20
46,Riccò del Golfo,9.763,44.156,46
39,Diolo,10.147,44.964,20
66,Riomaggiore,9.74,44.1,46
28,Pugnolo,10.203,45.082,20
39,Vighizzolo,10.364,45.432,20
24,Pellizzano,10.76,46.31,24
79,Prevalle,10.422,45.553,33
39,Santa Margherita,10.09,44.833,20
46,Canevolivo,9.786,44.187,24
33,Mignegno,9.883,44.391,20
24,Sant'Antonio,10.356,45.405,24
24,Pontenove,10.399,45.498,20
192,Pontremoli,9.879,44.375,94
55,Baitoni,10.54,45.808,20
55,Castelbello,10.907,46.628,28
79,Gambara,10.293,45.256,28
33,Parola,10.108,44.856,24
33,Santa Caterina,10.934,46.688,20
33,Cella Dati,10.222,45.096,24
24,Villagrossa,9.831,44.256,20
33,Isorella,10.323,45.308,33
39,San Benedetto,9.775,44.133,20
24,Calvisano,10.343,45.346,20
46,Costa Mezzana,10.092,44.797,28
112,Piazza,10.423,45.511,46
46,Calice al Cornoviglio,9.835,44.243,39
33,Carzeto,10.163,44.939,24
33,Ponte San Marco,10.413,45.477,20
79,Condino,10.6,45.89,33
46,Cimego,10.614,45.912,20
112,Capovalle,10.545,45.753,28
46,Santa Gertrude,10.873,46.489,28
28,Chiesa,10.461,45.562,24
39,Volongo,10.302,45.212,20
55,Mezzana,10.8,46.317,39
46,Roè,10.485,45.612,20
55,Montichiari,10.395,45.413,46
94,Vobarno,10.5,45.642,28
28,Teotti,10.405,45.431,20
24,Pompegnino,10.497,45.631,20
24,Piazze,10.475,45.582,20
112,Calcinato,10.418,45.457,33
79,Creto,10.64,45.942,33
94,San Bernardo,10.846,46.4,39
24,Sanguinaro,10.144,44.842,20
46,Fiesse,10.324,45.232,20
94,Berceto,9.99,44.509,79
24,Lardaro,10.661,45.97,20
33,Torre de' Picenardi,10.287,45.144,24
112,Roncone,10.668,45.982,46
28,Cantiere-Ponticello,9.915,44.345,20
66,Visano,10.369,45.317,24
39,Ca' d'Andrea,10.278,45.12,20
24,Stagno,10.232,45.019,20
46,Isola Dovarese,10.306,45.171,33
33,Villa Rendena,10.71,46.064,20
24,Pianazza,9.82,44.133,20
55,Cassio,10.035,44.587,33
24,Motta Baluffi,10.256,45.056,24
230,Stintino,8.219,40.954,112
46,Vigo Rendena,10.721,46.08,20
55,Piana Battolla,9.854,44.193,20
28,Fontanelle,10.219,44.971,24
46,Cingia de' Botti,10.273,45.085,28
33,Mezzane,10.396,45.348,20
33,Bondo,10.692,45.998,20
276,Pinzolo,10.763,46.158,94
55,Spiazzo,10.739,46.104,46
46,Fontevivo,10.174,44.859,20
28,Villa,9.891,44.256,28
28,Tablà,10.975,46.635,20
28,Valvestino,10.587,45.761,24
46,Salò,10.519,45.609,39
79,San Nicolò,10.923,46.511,46
79,Felegara,10.114,44.722,20
24,Strembo,10.752,46.119,20
79,Filattiera,9.934,44.33,28
33,Salita-Riola,10.097,44.676,20
28,Stallone-Talavorno,9.925,44.311,20
33,La Carnevala,10.13,44.742,20
66,Sant'Antonio di Mavignola,10.79,46.192,28
28,Cadimarco,10.356,45.227,20
28,Fontane,10.178,44.84,20
24,Castell'Aicardi,10.212,44.91,20
24,Massimeno,10.772,46.141,20
192,Tione di Trento,10.727,46.036,94
39,Gramignazzo,10.253,44.989,20
28,Fezzano,9.826,44.079,20
55,Magasa,10.617,45.782,20
33,Novagli,10.439,45.387,20
46,Tiarno di Sopra,10.669,45.888,39
55,Carpenedolo,10.432,45.365,28
39,Lonato,10.477,45.464,33
55,Naturno,11.005,46.649,55
79,Noceto,10.177,44.81,66
822,La Spezia,9.85,44.114,331
39,Pracorno,10.885,46.371,20
66,Terenzo,10.088,44.612,66
94,Madonna di Campiglio,10.825,46.225,55
33,Pracupola,10.96,46.532,20
55,Barcuzzi,10.495,45.487,20
39,Acquafredda,10.413,45.307,24
55,Dimaro,10.871,46.326,24
28,Raffa,10.532,45.569,20
33,Padenghe sul Garda,10.505,45.508,33
46,Portovenere,9.834,44.066,39
46,Casalromano,10.366,45.198,28
33,Ceparana-Carpena,9.888,44.171,20
39,Cominello,10.477,45.434,20
192,Sissa,10.26,44.959,20
160,Villafranca in Lunigiana,9.95,44.295,55
55,Scandolara Ravara,10.305,45.05,33
28,Castelponzone,10.312,45.063,20
276,Plan,11.089,46.795,46
24,Drizzona,10.352,45.142,20
28,Vezzano Ligure,9.883,44.142,20
55,San Felice del Benaco,10.554,45.582,20
39,Casalmoro,10.408,45.259,20
28,Bianconese,10.218,44.849,20
33,Ponte Taro,10.212,44.826,20
66,Bosco,10.036,44.443,28
39,Moniga del Garda,10.538,45.527,20
28,Plaus,11.041,46.657,20
94,Solarolo,10.55,45.547,33
24,Amoa,9.886,44.114,20
46,Gaiano,10.175,44.725,20
24,Ronco Campo Canneto,10.259,44.907,20
134,Malè,10.913,46.352,66
134,Castiglione delle Stiviere,10.483,45.391,55
24,Bezzecca,10.716,45.896,24
33,Stadano,9.927,44.188,24
28,Calestano,10.124,44.604,20
160,Santa Valburga,11.004,46.548,66
39,Pitelli,9.885,44.095,20
28,Pontescodogna,10.19,44.739,20
160,Corvara,11.149,46.872,33
46,Viarolo,10.256,44.878,24
79,Santo Stefano di Magra,9.917,44.156,33
79,Lenzumo,10.728,45.912,20
28,San Nazzaro,10.293,44.955,20
39,Bagnone,9.994,44.316,24
94,Canneto sull'Oglio,10.383,45.149,55
28,Via Mantova,10.519,45.446,20
79,Pozzo San Nicola,8.244,40.837,66
160,Asola,10.418,45.221,66
24,Madregolo,10.221,44.794,20
28,Parcines,11.073,46.684,20
28,Fornoli,9.968,44.255,20
160,Toscolano-Maderno,10.608,45.635,55
33,Gozzolina,10.486,45.359,24
33,Caldes,10.942,46.366,20
94,Collecchio,10.212,44.754,46
39,Arcola,9.913,44.118,24
39,Cecina,10.628,45.653,20
55,Coltaro,10.318,44.968,24
39,Barchi,10.426,45.194,24
230,Castel Goffredo,10.476,45.298,55
33,Roina,10.647,45.669,20
79,Gargnano,10.66,45.689,46
79,Lerici,9.913,44.076,33
55,Gussola,10.352,45.01,39
39,Moso in Passiria,11.167,46.832,39
24,Mezzolago,10.752,45.882,20
28,Maiatico,10.211,44.699,20
33,Romito Magra,9.932,44.099,20
33,Vestola-Ghiare,10.132,44.522,33
39,Proves,11.02,46.476,20
55,Monti,10.004,44.247,24
46,Vicofertile,10.256,44.784,24
46,Casaloldo,10.475,45.255,33
28,Mocenigo,11.012,46.453,20
46,Sala Baganza,10.228,44.721,20
33,Berenzi,10.488,45.282,20
28,Grole,10.53,45.373,20
33,Rivarolo,10.315,44.904,24
28,Acquanegra sul Chiese,10.434,45.163,28
39,Torrile,10.325,44.924,20
66,Medole,10.514,45.328,24
160,Desenzano del Garda,10.573,45.458,160
33,Villa di Panicale,10.029,44.279,20
33,Quercia,10.009,44.233,20
28,Tellaro,9.929,44.063,20
33,Lagundo,11.123,46.683,20
24,Lemignano,10.263,44.771,20
79,Sarzana,9.956,44.116,55
55,Bleggio Superiore,10.838,46.025,55
28,Vicomero,10.319,44.877,20
39,Pallerone,10.005,44.203,24
33,Preghena,11.013,46.409,28
46,Molina di Ledro,10.774,45.871,39
33,Licciana Nardi,10.035,44.263,20
33,Vaccarolo,10.568,45.412,20
55,Stenico,10.856,46.052,24
33,Ulfas,11.192,46.816,20
24,Canepari,9.985,44.156,20
39,Mione-Corte Inferiore,11.029,46.438,20
46,Costa di Beduzzo,10.169,44.541,20
66,Gardola,10.721,45.741,33
46,Case Nuove,10.309,44.834,20
39,Vesio,10.747,45.792,24
39,Fiavè,10.842,46.004,20
55,Monte Forte,8.264,40.737,46
24,Sirmione,10.603,45.469,20
46,Sanguigna,10.371,44.952,20
28,Cozzano,10.195,44.574,20
46,Solferino,10.566,45.369,20
33,Campi,10.812,45.911,20
39,Mariana Mantovana,10.487,45.193,20
55,Monchio delle Corti,10.124,44.413,39
134,Baratz,8.242,40.67,55
55,Pieve,10.751,45.769,20
39,Gaione,10.289,44.758,20
24,San Martino della Battaglia,10.602,45.439,20
28,Marlengo,11.143,46.655,20
39,Tavernelle,10.075,44.303,33
46,Trefiumi,10.117,44.391,20
28,Ville del Monte,10.825,45.929,24
66,Rivarolo Mantovano,10.436,45.07,28
55,Ameglia,9.968,44.068,24
24,Rebecco,10.551,45.314,20
39,Lauregno,11.061,46.455,39
66,San Polo,10.358,44.89,28
24,Lomaso,10.868,46.014,20
24,Villa Banale,10.885,46.047,20
28,San Michele Tiorre,10.265,44.686,20
33,Mechel,11.02,46.35,20
39,Colorno,10.378,44.928,39
39,Mosio,10.481,45.15,20
46,Monte Marcello,9.964,44.046,20
24,Bassanega,10.773,45.791,20
39,Torri del Benaco,10.693,45.614,28
24,Maristella Porto Conte,8.214,40.593,24
24,Cermes,11.147,46.635,20
331,Merano,11.161,46.668,134
33,Caniparola,9.998,44.11,20
28,Villanova,10.434,45.035,20
331,Cles,11.034,46.365,112
28,Rifiano,11.181,46.704,20
94,Limone sul Garda,10.787,45.807,33
33,Vicoboneghisio,10.424,45.008,20
986,Parma,10.329,44.803,331
79,San Lorenzo in Banale,10.909,46.076,39
79,Tizzano Val Parma,10.199,44.521,66
46,Fosdinovo,10.017,44.133,33
33,Quellenhof,11.204,46.745,20
28,Neuhaus I,11.215,46.77,20
24,Comano Terme,10.893,46.035,20
66,Masseria,11.282,46.923,39
79,Tuenno,11.024,46.33,28
46,Pai,10.724,45.653,20
55,Piubega,10.531,45.227,28
134,San Martino in Passiria,11.227,46.784,79
46,Scena,11.187,46.69,20
24,Crespiano,10.098,44.288,20
46,Tendola,10.038,44.162,24
94,Pastorello,10.23,44.567,39
33,Ceserano,10.054,44.192,24
55,Novella,11.06,46.392,20
39,Foiana,11.148,46.594,20
55,Guidizzolo,10.582,45.322,55
46,Corcagnano,10.304,44.72,33
39,Agnino,10.08,44.244,20
230,Bozzolo,10.482,45.104,94
55,Redondesco,10.512,45.168,39
33,Colombiera-Molicciara,10.009,44.091,33
28,Arola,10.283,44.673,20
66,San Leonardo in Passiria,11.246,46.813,24
94,Cavriana,10.596,45.347,20
94,Riva del Garda,10.846,45.897,94
33,San Zeno,10.727,45.63,20
46,Birbesi,10.575,45.292,24
134,Magugnano,10.761,45.7,55
46,Sinigo,11.176,46.636,20
55,Flavon,11.03,46.3,20
39,Pozzolengo,10.632,45.407,33
79,Ceresara,10.566,45.262,46
397,Langhirano,10.267,44.614,66
24,San Fermo,10.54,45.203,20
112,Molveno,10.964,46.142,55
24,Luni Mare,10.006,44.059,20
24,Boschetto,10.23,44.533,20
24,Bardine di San Terenzo,10.064,44.177,20
39,Moncigoli,10.085,44.22,20
94,Garda,10.718,45.58,28
33,Salobbi,11.108,46.454,20
24,Ridanna,11.307,46.91,20
79,Palanzano,10.195,44.437,46
79,Rivarolo del Re,10.475,45.032,33
28,Dermulo,11.063,46.338,20
55,Comano,10.13,44.293,46
24,Cartiera,10.35,44.76,20
79,San Felice,11.131,46.493,39
24,Dambel,11.093,46.405,20
33,Sanzeno,11.077,46.367,20
39,Vicomoscano,10.451,44.974,20
94,Malcesine,10.811,45.764,94
33,Lesignano de' Bagni,10.299,44.643,24
24,Castellaro Lagusello,10.637,45.375,24
33,Campodenno,11.033,46.258,20
24,Gassano,10.094,44.204,20
46,Arco,10.885,45.92,24
230,Porto Torres,8.4,40.836,94
46,Casano,10.033,44.071,20
39,Albiano,11.193,46.145,24
79,Lugagnano,10.885,45.434,33
39,Eremo,10.748,45.132,20
39,Cereta,10.641,45.305,20
24,Pedona,10.294,43.921,20
24,Sarnonico,11.142,46.419,20
39,Taio,11.069,46.319,24
160,Dro,10.912,45.962,33
55,Coredo,11.089,46.351,33
33,Settequerce,11.274,46.51,20
24,Vela,11.101,46.082,20
33,Vasto,10.61,45.276,20
24,Costa,10.302,44.608,20
28,Forte dei Marmi,10.167,43.96,24
24,Casale,10.432,44.917,20
39,Sabbioneta,10.486,44.993,39
46,Torbe,10.942,45.561,20
571,Mantova,10.773,45.153,230
28,Romeno,11.12,46.395,20
33,Vigolo Vattaro,11.197,46.006,33
28,San Martino dall'Argine,10.514,45.095,20
39,Chiozzola,10.392,44.829,28
28,Spormaggiore,11.047,46.216,28
33,Ca' Bertacchi,10.584,44.572,24
39,Postal,11.194,46.611,20
55,Sporminore,11.03,46.237,20
33,Vezzano,10.999,46.079,33
28,Coenzo,10.465,44.899,20
66,Calavino,10.985,46.047,24
79,Posina,11.26,45.79,39
33,Saltino,10.64,44.42,20
55,Monzone,10.128,44.165,20
33,Diecimo,10.51,43.964,20
33,Casaltone,10.439,44.822,20
55,Cerlongo,10.651,45.28,20
24,Covelo,11.02,46.099,20
134,Denno,11.049,46.275,33
331,Alghero,8.321,40.557,160
28,Basilicagoiano,10.402,44.709,20
28,San Donnino,10.972,44.586,20
33,Pazzon,10.821,45.62,20
24,Santa Maria del Piano,10.315,44.654,20
24,Tret,11.14,46.48,20
24,Ruffrè,11.178,46.415,20
55,Lagrimone,10.24,44.493,24
39,Ronzo-Chienis,10.949,45.89,33
24,Navene,10.84,45.801,24
46,Secchetto,10.177,42.736,33
192,Mezzolombardo,11.095,46.208,112
192,Viadana,10.519,44.93,112
24,Bardolino,10.725,45.544,20
33,Marciaso,10.078,44.147,24
46,Nago-Torbole,10.873,45.873,20
112,Sambuca Pistoiese,10.99,44.105,55
134,Ales,8.815,39.768,66
24,Botteghino,10.361,44.749,20
46,Andalo,11.004,46.165,24
28,Sarche,10.952,46.046,20
39,Marcaria,10.534,45.122,24
134,Senis,8.938,39.822,46
28,Preabocco,10.86,45.624,20
79,Fertilia,8.282,40.594,33
112,Vetto,10.339,44.484,39
94,Colle Isarco,11.443,46.937,39
94,Ciano d'Enza,10.41,44.599,24
55,Colle,11.313,46.865,24
46,Pietramurata,10.944,46.022,46
28,Pesina,10.754,45.599,20
33,San Paolo,11.26,46.471,20
39,Pianizza di Sopra,11.248,46.436,20
112,Fivizzano,10.126,44.238,66
46,Pariana,10.164,44.046,20
66,Casatico,10.549,45.141,20
46,Campegine,10.529,44.78,24
33,Spineda,10.512,45.061,20
24,Frangarto,11.296,46.479,20
33,Cadè-Gaida,10.517,44.74,33
46,Quaderni,10.791,45.329,20
94,Gragnola,10.107,44.192,39
28,Salter,11.107,46.38,20
24,Pozzomoretto,10.823,45.375,20
39,Campo di Trens,11.487,46.875,33
79,Avigna,11.353,46.564,24
66,Marmirolo,10.757,45.219,24
28,Segno,11.075,46.305,20
39,Avelengo,11.225,46.646,28
94,Laghetti,11.24,46.275,28
46,Peschiera del Garda,10.688,45.436,46
24,Carnola,10.4,44.415,20
66,Gazoldo degli Ippoliti,10.582,45.202,46
46,Solarolo,10.598,45.238,20
55,Vagli Sopra,10.268,44.118,24
39,Castelpoggio,10.074,44.112,20
79,Villafranca di Verona,10.846,45.351,79
46,Civezzano,11.183,46.091,20
28,Sologno,10.397,44.367,20
55,Roncocesi,10.577,44.739,20
46,Santa Vittoria,10.633,44.856,33
55,Gargazzone,11.201,46.584,24
94,Borgo d'Anaunia,11.138,46.438,46
79,Porto Mantovano,10.79,45.189,28
33,Caluri,10.878,45.38,20
28,Tabellano,10.724,45.017,20
28,Basilicanova,10.353,44.698,24
46,Pietrasanta,10.227,43.952,46
24,Romanore,10.754,45.063,20
66,La Vecchia,10.529,44.567,28
24,Casalbellotto,10.477,44.962,20
39,Albarè Stazione,10.757,45.573,20
94,Mamiano,10.346,44.676,20
39,Cavedago,11.032,46.185,20
39,Mezzano Inferiore,10.456,44.913,33
230,Ittiri,8.567,40.593,66
24,Monteggiori,10.267,43.947,20
33,Bagnolo,10.891,45.274,24
46,Folgaria,11.181,45.915,39
33,Ghisiolo,10.859,45.197,20
112,Collalbo,11.457,46.542,66
55,Carrara,10.051,44.047,39
397,Capraia Isola,9.844,43.048,192
39,Prediera,10.556,44.527,20
28,Fontia,10.065,44.074,20
24,Prato all'Isarco,11.447,46.495,20
79,Osilo,8.671,40.744,46
28,Regnano,10.575,44.559,20
39,Campione,10.822,45.08,24
24,San Sebastiano,11.213,45.925,20
28,Tres,11.097,46.323,20
46,Ranzano,10.25,44.46,33
28,Villanova de Bellis,10.873,45.152,20
160,Montresta,8.5,40.374,66
33,San Prospero,10.4,44.779,28
24,Polesine,10.804,44.985,20
24,Casalbaroncolo,10.415,44.812,20
55,Lazise,10.734,45.507,20
33,Caldonazzo,11.265,45.995,24
33,Borzano,10.635,44.602,20
24,Borgo Castelletto,10.883,45.137,20
28,Velo Veronese,11.095,45.607,20
66,Giazza,11.123,45.654,33
46,Romana,8.586,40.484,46
66,Cavareno,11.138,46.409,24
79,Rumanedda,8.359,40.687,28
39,Drena,10.944,45.969,20
24,Masi di Vigo,11.068,46.247,20
66,Gonzaga,10.82,44.952,24
39,Palù del Fersina,11.354,46.131,24
28,Porto Alabe,8.477,40.251,28
33,Ronchi,10.714,45.453,20
28,Verano,11.226,46.604,20
55,Moruri,11.096,45.521,24
28,Gragnana,10.086,44.1,20
55,Massarosa,10.34,43.868,33
28,Padergnone,10.989,46.062,20
