rs,name,lon,lat,r1
28,Pacholęta,14.485,53.161,20
160,Piasek,14.211,52.978,55
39,Kamieniec,14.438,53.31,33
66,Chwarstnica,14.61,53.22,33
28,Rosnowo,14.549,52.953,24
39,Kołowo,14.682,53.325,20
28,Kozielice,14.863,53.854,20
55,Swochowo,14.709,53.174,20
94,Międzyzdroje,14.449,53.925,94
94,Wapnica,14.436,53.88,39
28,Lubin,14.432,53.868,20
94,Brzózki,14.382,53.675,46
24,Karnocice,14.519,53.86,20
33,Stobno,14.432,53.414,20
79,Niekłończyca,14.508,53.616,33
33,Mokrzyca Mała,14.59,53.866,20
33,Krajnik Górny,14.314,53.018,20
79,Kopice,14.547,53.699,20
24,Siedlice,14.531,53.526,20
55,Stoki,14.344,52.951,24
46,Zastań,14.694,53.979,20
66,Mętno,14.356,52.915,33
46,Wiejkowo,14.685,53.821,39
134,Dziwnów,14.752,54.023,46
24,Dobropole,14.757,53.857,24
39,Wirów,14.553,53.233,24
55,Wełtyń,14.577,53.261,39
33,Strzeżewo,14.867,54.013,24
46,Lubczyna,14.709,53.503,28
66,Krępsko,14.742,53.597,46
24,Ugory,14.898,53.98,20
24,Pucice,14.744,53.454,20
33,Górczyn,14.578,52.931,20
28,Żdżary,14.807,53.578,20
33,Gogolice,14.598,52.91,28
28,Babinek,14.727,53.26,24
66,Gostyniec,14.966,53.993,24
28,Dobropole Gryfińskie,14.747,53.302,20
33,Górnowo,14.675,53.046,20
33,Krzemykowo,14.954,53.895,20
33,Chabowo,14.766,53.229,20
24,Niedźwiedź,14.817,53.366,20
986,Świnoujście,14.243,53.905,397
276,Nowe Warpno,14.287,53.723,112
33,Myślibórz Mały,14.29,53.662,20
66,Myślibórz Wielki,14.3,53.645,39
39,Warnołęka,14.357,53.695,20
24,Wicko,14.437,53.891,20
24,Rzędziny,14.334,53.532,20
46,Bielinek,14.15,52.94,28
66,Łęgi,14.36,53.519,20
33,Buk,14.354,53.499,20
66,Osinów Dolny,14.146,52.851,28
134,Dobra,14.385,53.488,46
39,Grzepnica,14.405,53.515,20
66,Lubiechów Dolny,14.206,52.915,28
46,Warnowo,14.546,53.931,28
134,Cedynia,14.202,52.879,79
33,Stara Rudnica,14.193,52.833,24
46,Dargobądz,14.537,53.871,39
33,Wisełka,14.569,53.965,24
24,Drogoradz,14.468,53.63,20
33,Wąwelnica,14.412,53.451,20
46,Dołuje,14.408,53.435,28
46,Ładzin,14.573,53.909,20
24,Rabiąż,14.579,53.921,20
28,Domysłów,14.587,53.942,20
28,Bartoszewo,14.457,53.519,20
46,Wołczkowo,14.443,53.476,28
66,Tanowo,14.466,53.54,46
46,Barnisław,14.408,53.365,20
24,Mokrzyca Wielka,14.577,53.881,20
24,Czachów,14.266,52.912,24
79,Trzebież,14.515,53.659,55
94,Kołczewo,14.616,53.965,66
24,Płocin,14.582,53.855,20
39,Krajnik Dolny,14.315,53.032,39
24,Golice,14.262,52.862,20
39,Siekierki,14.245,52.807,20
28,Kodrąb,14.61,53.914,20
24,Dębostrów,14.521,53.605,20
46,Tatynia,14.511,53.569,24
33,Wieńkowo,14.517,53.585,20
46,Mierzyn,14.467,53.43,33
24,Orzechów,14.287,52.886,20
33,Kołbaskowo,14.439,53.337,24
192,Wolin,14.612,53.846,79
94,Unin,14.63,53.895,39
24,Trzeszczyn,14.519,53.548,20
112,Warzymice,14.466,53.385,39
79,Krzymów,14.332,52.98,33
24,Chynowo,14.653,53.96,20
66,Ognica,14.37,53.081,39
24,Rekowo,14.662,53.973,20
46,Żelichów,14.294,52.851,20
33,Gogolice,14.619,53.825,20
46,Zagórze,14.615,53.81,24
160,Widuchowa,14.391,53.127,112
33,Gąsierzyno,14.572,53.672,28
66,Klępicz,14.31,52.873,46
55,Łuskowo,14.663,53.937,24
94,Stare Łysogórki,14.285,52.785,46
28,Moczyły,14.467,53.323,20
24,Laska,14.648,53.868,20
39,Marwice,14.421,53.174,20
46,Międzywodzie,14.696,54.005,24
46,Łojszyno,14.685,53.959,20
94,Skoszewo,14.632,53.782,33
39,Sibin,14.675,53.905,20
134,Police,14.559,53.543,94
46,Siadło Dolne,14.501,53.35,20
33,Kurów,14.506,53.366,20
24,Rzeczyn,14.665,53.846,20
55,Dębogóra,14.439,53.154,20
28,Koniewo,14.656,53.807,20
2042,Szczecin,14.54,53.433,1183
79,Nawodna,14.401,53.014,39
55,Przęsocin,14.567,53.515,24
28,Jarszewko,14.65,53.764,20
24,Kukułowo,14.701,53.918,20
24,Krzypnica,14.464,53.184,20
55,Żabnica,14.499,53.289,28
24,Siniechowo,14.664,53.791,20
46,Rynica,14.427,53.057,24
276,Gryfino,14.493,53.254,134
66,Miłowo,14.635,53.686,28
33,Dolsko,14.376,52.899,20
55,Dramino,14.7,53.881,20
160,Stepnica,14.631,53.653,94
39,Nowe Czarnowo,14.484,53.195,20
33,Połchowo,14.728,53.938,20
79,Żarnowo,14.662,53.734,55
79,Piaski Wielkie,14.704,53.854,28
79,Pniewo,14.496,53.215,33
39,Stary Błeszyn,14.345,52.763,20
79,Krzywin,14.46,53.089,33
39,Przyjezierze,14.387,52.87,20
33,Żarnówko,14.668,53.719,20
112,Radziszewo,14.54,53.325,46
24,Rozwarowo,14.727,53.895,20
33,Lisie Pole,14.445,53.027,20
39,Dusin,14.74,53.922,24
55,Lubicz,14.481,53.127,33
33,Troszynek,14.714,53.838,20
28,Zielonczyn,14.669,53.698,20
230,Moryń,14.395,52.852,94
55,Święta,14.629,53.558,33
39,Żółcino,14.772,53.995,20
46,Rzystnowo,14.7,53.759,24
331,Chojna,14.437,52.96,160
160,Kamień Pomorski,14.774,53.963,160
112,Godków,14.43,52.909,28
33,Polesiny,14.481,53.048,20
46,Inoujście,14.643,53.531,20
24,Kłodowo,14.498,53.092,20
39,Dziwnówek,14.807,54.034,20
230,Czelin,14.382,52.737,79
24,Gądno,14.422,52.855,20
24,Miodowice,14.718,53.747,20
33,Bartkowo,14.543,53.209,20
33,Buszęcin,14.771,53.904,20
28,Włodkowice,14.532,53.156,20
39,Wrzosowo,14.813,54.014,28
66,Jarszewo,14.787,53.93,28
112,Steklno,14.541,53.173,28
28,Grabowo,14.805,53.976,20
55,Rurka,14.486,52.993,20
46,Ostromice,14.76,53.818,39
33,Chlebowo,14.597,53.307,24
66,Brzozowo,14.758,53.791,24
46,Babinek,14.547,53.137,33
28,Strzegowo,14.776,53.831,20
24,Mielenko Gryfińskie,14.578,53.207,20
55,Bielin,14.454,52.829,28
46,Czartoryja,14.497,52.948,28
55,Żelechowo,14.535,53.059,33
66,Żarczyn,14.549,53.097,28
33,Jelenin,14.486,52.907,20
28,Strzelczyn,14.52,53.007,20
24,Rzewnowo,14.826,53.939,20
39,Witnica,14.475,52.87,39
66,Chrząstowo,14.844,53.992,20
28,Trzebieszewo,14.848,53.973,28
55,Górki,14.827,53.901,20
39,Kąty,14.737,53.622,20
33,Gardno,14.621,53.259,20
160,Przybiernów,14.786,53.757,94
46,Stawno,14.823,53.869,39
28,Plany,14.472,52.793,28
33,Borzysławiec,14.718,53.519,20
66,Binowo,14.65,53.307,39
33,Kamienny Jaz,14.542,52.982,20
39,Modrzewie,14.739,53.579,20
33,Kurzycko,14.469,52.757,20
66,Kłosów,14.464,52.742,39
94,Grzybno,14.558,53.019,39
33,Grębowo,14.864,53.95,20
39,Goszków,14.502,52.845,20
33,Wierzchlas,14.499,52.829,20
55,Borzym,14.621,53.191,24
33,Brwice,14.534,52.921,20
79,Narost,14.527,52.891,24
33,Szumiąca,14.867,53.92,20
39,Mieszkowice,14.492,52.779,20
66,Komarowo,14.744,53.535,39
55,Lubanowo,14.612,53.13,28
55,Wierzchosław,14.78,53.64,33
55,Wysoka Kamieńska,14.843,53.823,46
55,Białęgi,14.53,52.863,20
33,Żelisławiec,14.671,53.274,24
33,Baniewice,14.609,53.086,24
24,Sobieradz,14.657,53.226,24
112,Pobierowo,14.929,54.059,79
39,Babigoszcz,14.813,53.681,28
55,Załom,14.736,53.438,20
33,Porzecze,14.486,52.677,20
46,Jatki,14.911,53.963,24
33,Łozienica,14.779,53.553,20
24,Tywica,14.634,53.11,20
33,Sosnowo,14.652,53.143,20
24,Baczysław,14.879,53.833,20
66,Gostyń,14.946,54.028,24
46,Swadzim,14.624,53.037,33
33,Strzeszów,14.608,52.985,20
24,Chlewice,14.502,52.664,20
55,Rurzyca,14.776,53.487,20
112,Trzcińsko-Zdrój,14.606,52.969,79
33,Benice,14.911,53.896,24
28,Moracz,14.872,53.773,20
55,Chomino,14.925,53.926,33
24,Pustkowo,14.97,54.066,20
112,Kliniska Wielkie,14.777,53.462,79
46,Glinna,14.723,53.289,28
24,Sitno,14.547,52.76,20
28,Niemica,14.912,53.862,20
46,Chełm Górny,14.591,52.881,24
192,Banie,14.664,53.101,112
66,Troszyn,14.562,52.772,24
112,Zielin,14.573,52.802,55
24,Klasztorne,14.627,52.944,20
28,Janowo,14.985,54.039,20
55,Parsów,14.724,53.229,24
112,Łoźnica,14.878,53.696,46
94,Białuń,14.851,53.611,39
94,Namyślin,14.54,52.672,46
28,Gadom,14.923,53.832,20
276,Goleniów,14.836,53.563,134
79,Świerzno,14.966,53.963,55
24,Chełm Dolny,14.612,52.869,20
66,Czarnogłowy,14.909,53.768,46
55,Kunowo,14.707,53.143,33
66,Boleszkowice,14.569,52.725,66
79,Bielice,14.73,53.199,46
39,Włodzisław,14.922,53.787,20
46,Rewal,15.017,54.08,39
66,Kaleńsko,14.544,52.638,24
28,Żółwia Błoć,14.862,53.596,20
28,Niczonów,15.004,54.018,20
39,Dłusko Gryfińskie,14.678,53.02,28
46,Samlino,14.952,53.847,20
33,Piaseczno,14.7,53.061,33
28,Ninikowo,15.025,54.057,20
24,Krzepocin,14.977,53.907,20
28,Góralice,14.672,52.971,28
39,Niewiadowo,14.898,53.656,20
79,Stołeczna,14.66,52.931,28
46,Piaseczno,14.653,52.909,20
134,Stare Czarnowo,14.78,53.28,55
46,Parnica,14.726,53.118,20
24,Linie,14.751,53.186,20
28,Kaleń,15.012,53.979,20
28,Kłęby,14.965,53.81,20
39,Wysoka,14.614,52.741,20
33,Marszewo,14.891,53.571,24
33,Czarnowo,14.75,53.135,20
24,Drzewica,14.966,53.795,20
39,Smolnica,14.637,52.787,28
94,Ciesław,15.008,53.917,33
46,Podańsko,14.884,53.533,24
192,Golczewo,14.979,53.824,94
134,Maszewo,15.059,53.497,112
39,Starosiedle,14.816,51.855,20
79,Sulino,15.316,53.335,39
28,Wilczkowo,15.105,53.93,20
66,Drzecin,14.633,52.387,28
94,Bolechowo,14.877,53.504,24
24,Stare Chrapowo,14.789,53.175,20
39,Dobropole,14.717,52.947,24
39,Kicko,15.116,53.402,20
39,Bieczyno,15.353,54.1,20
39,Strumiany,14.885,53.446,20
24,Nieznań,14.842,53.313,20
79,Żalęcino,15.081,53.2,55
24,Nowe Chrapowo,14.791,53.151,20
33,Pomietów,15.181,53.161,24
66,Tucze,15.352,53.549,28
24,Glewice,14.913,53.607,24
55,Mieszewo,15.384,53.598,33
55,Chlebowo,14.869,52.039,39
112,Jenin,15.095,52.695,66
24,Kwiatkowice,15.086,52.666,20
94,Tetyń,14.774,53.047,39
28,Połęcko,14.893,52.052,20
24,Niedźwiedziska,15.077,53.949,24
33,Dobieszewo,15.536,53.614,20
39,Danowo,14.945,53.524,20
33,Grabów,14.915,51.703,20
79,Mosty,14.956,53.548,55
79,Różanki,15.325,52.795,39
46,Chełpa,15.506,53.19,20
39,Karnice,15.052,54.029,28
476,Dębno,14.701,52.74,160
160,Łagów,15.299,52.338,94
79,Suliszewo,15.588,53.186,28
66,Radnica,15.224,52.082,46
46,Grabin,15.271,52.123,28
134,Górki Noteckie,15.498,52.786,46
28,Pławno,15.601,53.087,20
46,Zarzyn,15.424,52.388,24
24,Zadeklino,14.758,53.121,20
39,Bodzęcin,14.928,53.637,24
94,Ołobok,15.438,52.206,39
55,Żołędowo,15.844,53.414,20
112,Osina,15.009,53.604,46
79,Warnice,14.671,52.853,46
79,Niechorze,15.076,54.095,28
24,Chabówko,14.798,53.231,20
39,Barnówko,14.769,52.784,39
46,Rów,14.717,52.984,20
55,Grzędzice,14.972,53.368,28
33,Truskolas,15.126,53.816,24
46,Trzechel,14.964,53.732,24
33,Pszczelnik,14.825,52.863,20
55,Derczewo,14.882,53.031,39
33,Żabice,14.713,52.516,20
39,Gudzisz,14.618,52.678,24
55,Lędzin,15.075,54.068,20
33,Mielęcinek,14.91,53.06,20
55,Otok,15.211,53.979,33
33,Nowe Biskupice,14.682,52.365,24
33,Wołowiec,15.014,53.876,20
46,Obryta,14.98,53.221,20
28,Budno,14.909,53.546,20
39,Mechowo,15.023,53.896,20
33,Łęgno,14.981,53.762,20
46,Łąkomin,14.857,52.766,20
24,Wołczyn,14.965,53.067,20
66,Roby,15.318,54.122,28
39,Upadły,15.015,53.86,28
28,Paprotno,15.06,53.998,24
94,Staw,14.926,52.864,33
33,Czermnica,14.964,53.698,20
39,Strachocin,15.084,53.323,20
24,Nieborowo,14.803,53.199,20
160,Witnica,14.894,52.673,94
33,Kocierz,15.282,53.848,20
33,Mielno Pyrzyckie,14.771,53.093,24
24,Krusze,14.746,53.016,20
39,Reptowo,14.861,53.365,20
24,Samowo,15.38,54.087,20
192,Rąpice,14.729,52.111,66
39,Tarnów,14.956,52.761,20
33,Nowa Dąbrowa,15.174,53.41,33
33,Jarząbki,15.059,53.053,20
192,Rzepin,14.826,52.35,134
28,Białcz,14.937,52.676,20
28,Krzywnica,15.192,53.427,20
28,Nowogródek Pomorski,15.027,52.911,20
112,Ośno Lubuskie,14.876,52.454,79
55,Białków,14.799,52.168,20
39,Dargomyśl,14.648,52.708,28
112,Jesionowo,15.107,53.054,39
112,Zasieki,14.668,51.736,55
46,Bielkowo,14.856,53.324,20
39,Komorówko,14.833,53.255,20
55,Kinice,15.087,52.939,24
46,Wicimice,15.394,53.878,39
94,Lubno,15.025,52.742,39
39,Czarnkowo,15.233,53.364,20
33,Jarkowo,15.44,53.996,24
66,Bytomiec,14.814,52.097,33
24,Kinowo,15.44,53.98,20
28,Kozów,14.742,51.86,20
39,Golina,15.247,53.337,20
24,Smokęcino,15.447,53.934,20
24,Oborzany,14.665,52.739,20
276,Resko,15.403,53.769,112
46,Nowy Lubusz,14.552,52.404,28
33,Żelmowo,15.37,53.649,20
24,Tarnowiec,14.917,53.495,20
55,Kobylanka,14.87,53.346,55
66,Trzebów,15.016,52.505,33
66,Zieleniewo,15.559,54.142,24
24,Lubień Dolny,15.447,53.755,20
28,Dobrzyń,15.062,53.929,20
24,Korczyców,14.923,52.133,20
33,Garbicz,14.99,52.309,24
66,Węgorza,14.977,53.661,46
24,Lublino,15.379,53.467,20
39,Łubianka,15.191,52.884,33
39,Sowno,14.902,53.426,24
39,Chrapowo,15.246,53.046,28
28,Krężelin,14.711,52.851,20
79,Giżyn,14.84,53.236,28
276,Łęknica,14.745,51.537,192
24,Pogorzelica,15.121,54.101,20
28,Mironice,15.185,52.799,20
55,Trzebórz,14.787,53.071,20
24,Stramnica,15.634,54.152,20
24,Czachowo,15.482,53.654,20
39,Sosnowo,15.518,53.766,20
94,Grzymiradz,14.694,52.788,39
28,Kusin,15.107,54.049,20
39,Chwarstno,15.456,53.542,20
33,Brzozowa,15.146,52.594,20
79,Trzebiel,14.818,51.634,28
112,Pełczyce,15.302,53.043,46
28,Krzywice,14.965,53.601,20
33,Grochów,14.935,51.923,20
28,Powalice,15.594,53.888,20
39,Ostrów,15.117,52.425,20
39,Berkanowo,15.584,53.827,20
39,Włostowice,14.83,51.564,20
39,Mierków,14.915,51.801,24
55,Błotno,15.017,53.752,46
28,Wierzbka Dolna,15.647,53.983,20
39,Żelewo,14.867,53.291,28
39,Modlimowo,15.089,53.975,20
33,Ognica,15.442,53.325,24
79,Zamęcin,15.378,53.13,33
39,Cisewo,14.898,53.383,20
46,Małuszów,15.135,52.374,20
24,Mołtowo,15.687,54.054,20
39,Bardy,15.706,54.11,20
39,Przekolno,15.385,53.049,20
28,Bełtno,15.646,53.791,20
55,Przemocze,14.93,53.462,46
33,Walewice,15.176,52.339,24
79,Żabów,14.84,53.186,33
79,Robuń,15.726,54.009,39
28,Stary Klukom,15.444,53.131,20
46,Strzelewo,15.001,53.68,20
66,Kierzków,14.775,52.99,28
39,Klępnica,15.641,53.731,24
28,Drozdowo,15.124,54.062,20
33,Santoczno,15.359,52.844,20
28,Lutol,15.012,51.815,20
39,Nowy Zagór,15.08,52.009,20
33,Łochowice,15.107,52.083,24
66,Chocicz,15.029,51.855,24
46,Piotrowice,15.771,54.094,20
276,Łobez,15.626,53.635,112
33,Jarosławsko,15.423,53.004,28
134,Cerkwica,15.109,54.008,79
28,Unibórz,15.049,53.816,20
24,Połomino,15.809,54.145,20
24,Niegrzebia,15.651,53.646,20
55,Oparzno,15.694,53.759,24
55,Połupin,15.121,52.027,20
46,Buszów,15.427,52.931,20
28,Karścino,15.792,54.054,20
39,Rybokarty,15.081,53.913,28
55,Kozielice,14.819,53.107,33
160,Bobrówko,15.452,52.953,55
685,Słubice,14.568,52.357,192
46,Rokity,14.828,53.13,20
46,Pławidło,14.595,52.435,33
24,Wielgoszcz,15.571,53.274,20
33,Pniów,14.754,52.904,20
24,Świbna,15.056,51.725,20
46,Rościce,15.013,51.6,24
33,Rzepnowo,14.841,53.161,20
46,Bucze,14.967,51.457,20
66,Dyszno,14.728,52.822,24
28,Przypólsko,14.978,53.578,20
28,Strzepowo,15.875,54.173,20
331,Kostrzyn nad Odrą,14.649,52.587,134
33,Biały Zdrój,15.775,53.841,20
33,Półchleb,15.74,53.731,20
39,Ginawa,15.666,53.5,20
46,Przyłęg,15.462,52.838,24
24,Tarnowo,15.737,53.675,20
39,Żarków,15.143,51.889,24
33,Burowo,14.975,53.564,20
79,Drożków,15.072,51.684,20
397,Świdwin,15.774,53.778,192
134,Sarbinowo,14.675,52.658,28
33,Suchlica,14.682,52.674,20
66,Bronowice,15.5,52.907,24
33,Lubicz,15.519,52.957,20
33,Głębokie,15.635,53.31,28
28,Brzoza,15.489,52.865,20
66,Zagórzyce,15.739,53.611,20
79,Karlino,15.88,54.036,55
28,Rożnowo Łobeskie,15.749,53.624,20
55,Świeszewo,15.076,53.869,46
46,Gilów,15.551,52.997,20
28,Golcza,15.601,53.135,20
28,Brzezinka,15.48,52.766,20
55,Wysoka,15.185,51.868,39
112,Strzelce Krajeńskie,15.527,52.875,112
66,Olbrachtów,15.096,51.602,24
94,Bledzew,15.412,52.516,66
28,Rychówko,15.876,53.932,20
46,Kołki,15.627,53.148,28
33,Czyżewo,15.552,52.901,20
28,Kopaczów,14.851,50.871,20
79,Wymiarki,15.083,51.514,46
134,Jaworze,15.692,53.316,28
28,Górzno,15.596,52.999,20
55,Będzino,15.989,54.209,28
24,Morzyczyn,14.915,53.353,20
33,Kukań,15.091,53.897,20
55,Bieniów,15.177,51.719,20
24,Sterków,15.227,51.859,20
46,Kursko,15.437,52.444,28
39,Załęże,14.809,53.025,20
33,Kadłubia,15.172,51.655,20
66,Gozdnica,15.096,51.438,46
66,Drawsko Pomorskie,15.814,53.528,66
24,Gardzko,15.599,52.866,20
112,Złotnik,15.202,51.693,46
112,Bogaczów,15.258,51.85,24
66,Ręczyn,14.976,51.034,46
46,Żółte,15.843,53.592,20
134,Bierzwnik,15.662,53.033,46
33,Rogozina,15.154,54.077,20
39,Opolno-Zdrój,14.931,50.885,20
55,Ościęcin,15.075,53.829,33
39,Podlesie,15.701,53.122,20
46,Staropole,15.445,52.348,33
33,Zagaje,15.609,52.821,20
66,Kęszyca Leśna,15.475,52.409,55
112,Drzonów,15.319,51.944,33
28,Nowa Wioska,15.439,52.292,20
79,Konotop,15.827,53.442,39
476,Bogatynia,14.961,50.902,192
28,Łącznica,15.635,52.85,24
55,Kikorze,15.014,53.631,20
28,Dalewo,15.871,53.539,20
55,Rycerzewko,15.935,53.684,20
46,Golenice,14.792,52.948,28
28,Kawki,15.679,52.872,20
66,Cychry,14.707,52.692,33
28,Buchałów,15.362,51.911,20
46,Klasztorne,15.737,53.015,28
24,Święty Wojciech,15.554,52.448,20
46,Poczernin,14.952,53.423,33
79,Barnimie,15.804,53.176,28
28,Żytelkowo,16.068,53.993,24
28,Bochlin,15.056,53.741,20
39,Góry,16.041,53.902,20
33,Płoty,15.41,51.988,20
94,Wygon,15.781,53.086,28
66,Poźrzadło Wielkie,15.879,53.368,24
28,Słone,15.398,51.924,20
24,Smogolice,14.951,53.41,20
28,Imno,15.076,53.794,20
33,Turze,14.884,53.202,20
39,Kościuszki,15.034,53.653,28
24,Dąbrowica,14.973,53.464,20
24,Świerczewo,15.044,53.677,20
28,Czaplin Wielki,15.154,54.019,20
94,Przybiernówko,15.134,53.955,39
79,Dąbrowa Nowogardzka,15.057,53.715,28
24,Trzeszyn,15.15,54,20
192,Górzyca,14.655,52.494,79
24,Młyniska,14.704,52.638,20
39,Świecko,14.593,52.304,20
66,Sadlno,15.173,54.06,39
33,Kunowo,14.936,53.328,20
66,Dąbroszyn,14.703,52.62,28
94,Różańsko,14.781,52.85,66
24,Kołomąć,15.115,53.867,20
79,Rościn,14.796,52.89,20
46,Budzieszowce,15.007,53.529,20
39,Szczytniki,15.088,53.78,20
24,Krześnica,14.719,52.655,20
46,Wierzbno,14.913,53.235,39
66,Skalin,14.939,53.313,33
39,Warchlino,14.983,53.441,20
24,Sitno,14.852,53.032,20
33,Brzezin,14.902,53.182,20
33,Zgoda,14.817,52.925,20
55,Sikorki,15.091,53.755,33
397,Pyrzyce,14.892,53.146,160
39,Chomętowo,15.181,54.033,20
33,Nawrocko,14.815,52.91,24
33,Ostrowiec,14.785,52.814,24
94,Pamięcin,14.663,52.452,33
24,Jezierzyce,14.844,52.985,20
39,Nowielin,14.885,53.108,24
55,Mostno,14.766,52.75,28
33,Golice,14.66,52.435,20
28,Radzanek,15.017,53.503,20
46,Kunowice,14.633,52.351,33
33,Wytok,15.125,53.832,20
39,Rzęskowo,15.155,53.926,20
46,Karsk,15.08,53.691,20
28,Rogowo,14.985,53.397,20
24,Kruszwin,14.839,52.95,20
24,Glicko,15.1,53.737,20
33,Włodarka,15.212,54.086,24
28,Bogusław,14.757,52.686,20
46,Lisów,14.665,52.411,20
28,Żarowo,14.993,53.384,20
24,Krześniczka,14.742,52.629,20
79,Rybocice,14.625,52.283,46
24,Grędziec,14.938,53.212,20
79,Okunica,14.935,53.196,20
28,Gryżyno,14.833,52.886,20
134,Mielęcin,14.9,53.076,46
39,Jabłonowo,15.165,53.889,20
24,Stare Biskupice,14.67,52.388,20
39,Darż,15.034,53.478,20
24,Dębica,14.961,53.255,20
66,Otanów,14.878,52.998,28
94,Trzygłów,15.166,53.861,39
55,Kamień Wielki,14.774,52.664,55
28,Reńsko,14.966,53.236,20
24,Orzechowo,15.132,53.743,20
33,Zacisze,15.214,53.995,20
46,Redło,15.082,53.583,28
331,Myślibórz,14.867,52.924,192
33,Czółnów,14.885,52.975,20
33,Dąbrowa,14.877,52.952,24
79,Małkocin,15.029,53.404,33
476,Gryfice,15.193,53.907,230
39,Kamień Mały,14.779,52.643,20
24,Sikory,15.21,53.954,20
46,Dolsk,14.838,52.811,28
46,Godowo,15.085,53.557,20
28,Krasnołęka,15.099,53.599,20
24,Zielin,15.212,53.943,20
39,Wołowiec,15.157,53.768,20
33,Kunice,14.658,52.265,20
94,Warnice,14.991,53.252,46
24,Nowielice,15.257,54.076,20
39,Spudłów,14.736,52.487,24
33,Klępino,15.03,53.369,24
33,Starków,14.709,52.406,20
24,Obromino,14.947,53.114,20
55,Stróżewo,14.965,53.168,28
79,Długołęka,15.113,53.62,39
28,Lestkowo,15.146,53.719,20
55,Trzebusz,15.265,54.091,20
230,Nowogard,15.129,53.665,134
28,Mościce,14.803,52.675,20
39,Pstrowice,14.944,53.092,20
79,Czarnów,14.757,52.528,33
46,Kłodkowo,15.245,54.011,28
331,Stargard,15.029,53.339,230
24,Górzyca,15.237,53.978,20
33,Waniorowo,15.193,53.839,20
39,Wojcieszyn,15.146,53.69,20
28,Mechowo,14.969,53.136,20
24,Dębiec,14.931,53.022,20
39,Stary Przylep,14.991,53.2,28
276,Trzebiatów,15.27,54.064,134
39,Dziadowo,15.24,53.956,20
112,Łęczyca,15.074,53.439,46
112,Dobrzykowo,15.175,53.75,39
46,Buszów,14.86,52.788,20
28,Myśliborzyce,14.9,52.905,20
28,Barnim,15.011,53.237,20
39,Kolonia Myśliborzyce,14.897,52.889,20
55,Radów,14.746,52.437,28
33,Gąbin,15.273,54.028,20
66,Głazów,14.929,52.966,28
46,Sułów,14.733,52.381,20
39,Mirosławice,15.282,54.044,20
79,Dębice,15.119,53.535,33
39,Sowno,15.208,53.81,24
33,Letnin,14.982,53.116,20
46,Jenikowo,15.136,53.579,28
24,Brzozowo,15.19,53.737,20
28,Potuliniec,15.204,53.77,20
39,Stańsk,14.787,52.508,20
55,Skrzynka,14.964,53.032,24
28,Zaborsko,15.015,53.185,20
28,Lubieszewo,15.253,53.919,20
46,Żabowo,15.19,53.72,24
66,Gajewo,14.896,52.824,24
66,Słońsk,14.81,52.57,66
46,Smolęcin,15.24,53.874,24
28,Korytowo,15.149,53.592,20
39,Grabowo,15.082,53.384,24
39,Bielice,15.122,53.503,20
79,Sienno,14.779,52.465,24
24,Borzęcin,15.278,53.98,20
112,Kowalów,14.76,52.404,39
24,Maszkowo,15.189,53.697,20
112,Lipiany,14.962,53.003,66
46,Renice,14.941,52.932,20
39,Tolcz,15.116,53.463,20
79,Brzesko,15.008,53.13,55
94,Urad,14.711,52.243,46
28,Kulice,15.185,53.662,20
28,Brzeźno,14.902,52.794,20
33,Kłęby,15.042,53.215,20
46,Krasne,14.997,53.066,20
112,Mosina,14.891,52.729,28
55,Sokolniki,15.141,53.481,39
33,Karczewie,15.252,53.821,20
33,Pruszcz,15.299,53.966,20
28,Chartów,14.823,52.516,20
46,Ostrzyca,15.187,53.613,28
46,Lewice,15.319,54.022,20
24,Podlesie,14.937,52.851,20
79,Bylice,15.016,53.087,24
55,Ławy,14.958,52.909,28
66,Lubiatowo,15.045,53.17,20
33,Drzeńsko,14.777,52.369,24
33,Rotnowo,15.284,53.905,20
66,Bielikowo,15.312,53.99,24
66,Maczków,14.746,52.273,24
39,Serbów,14.797,52.422,20
46,Gajec,14.771,52.345,20
39,Przybiernowo,15.298,53.941,24
39,Bagna,15.173,53.545,24
33,Kłopot,14.701,52.129,20
55,Jarchlino,15.218,53.679,24
24,Białuń,15.146,53.453,20
134,Płoty,15.257,53.796,66
28,Radziszewo,15.092,53.279,20
28,Przewłoki,15.083,53.249,20
33,Gronów,14.83,52.491,24
33,Miedzyn,15.011,53.015,20
39,Wojtaszyce,15.192,53.565,20
28,Świniary,14.817,52.436,20
55,Wierzbięcin,15.221,53.648,46
33,Prądnik,15.007,52.989,20
55,Jamno,14.876,52.597,24
33,Późna,14.618,51.844,20
39,Kozin,14.967,52.862,20
33,Kosin,15.057,53.122,20
79,Lubiszyn,14.944,52.781,39
39,Tychowo,15.118,53.303,24
39,Nastazin,15.183,53.504,20
39,Lubiechnia Wielka,14.813,52.385,20
94,Strzegów,14.621,51.821,66
24,Darżewo,15.351,54.012,20
46,Giżyn,15.004,52.944,20
55,Sulimierz,15.014,52.967,28
46,Kluki,15.07,53.137,20
39,Chlebówko,15.178,53.462,20
33,Siemidarżno,15.362,54.033,20
24,Tąpadły,15.331,53.928,20
55,Taczały,15.272,53.744,28
66,Karcino,15.396,54.127,24
33,Grzmiąca,14.748,52.163,24
94,Wyszobór,15.32,53.886,55
33,Markosice,14.644,51.86,28
24,Świątki,15.001,52.9,20
28,Ukiernica,15.093,53.172,20
55,Gołańcz Pomorska,15.382,54.065,28
79,Ownice,14.882,52.538,24
33,Mokre,15.21,53.528,20
79,Kolin,15.115,53.234,28
66,Dźwirzyno,15.414,54.159,28
94,Brojce,15.351,53.957,79
160,Ściechów,14.979,52.818,33
33,Polne,14.91,52.612,20
46,Mielesznica,14.749,52.135,20
66,Gogolewo,15.167,53.381,33
55,Łosośnica,15.273,53.705,20
46,Przelewice,15.077,53.105,33
33,Błądkowo,15.24,53.601,24
28,Słajsino,15.26,53.663,20
33,Sadzarzewice,14.666,51.885,20
24,Krzemienna,15.234,53.573,20
66,Trzcinna,15.011,52.885,39
46,Modlimowo,15.332,53.86,20
112,Krępcewo,15.141,53.27,55
79,Oksza,14.934,52.632,20
55,Lemierzyce,14.913,52.567,46
33,Budoradz,14.722,52.005,20
39,Żuków,15.111,53.154,33
39,Ściechówek,15.006,52.835,20
46,Czarne,15.314,53.776,28
28,Stare Dzieduszyce,14.97,52.724,24
66,Mostkowo,15.059,52.99,20
39,Gostyń Łobeski,15.334,53.83,24
28,Rokitno,15.048,52.951,20
331,Cybinka,14.793,52.195,134
39,Mielno,14.658,51.802,20
24,Sienno,15.309,53.739,20
46,Lucin,15.094,53.076,20
66,Dziedzice,15.079,53.023,24
46,Natolewice,15.369,53.908,24
46,Gubinek,14.71,51.928,20
28,Nowa Wioska,14.683,51.845,20
46,Trzebiatów,15.18,53.318,20
28,Krzesin,14.772,52.096,20
39,Morzyca,15.148,53.21,20
66,Janiszowice,14.662,51.775,20
79,Kania,15.244,53.503,46
33,Sękowice,14.709,51.908,28
79,Drzonowo,15.435,54.096,55
24,Kosarzyn,14.763,52.059,20
112,Pęzino,15.194,53.34,66
55,Żytowań,14.751,52.018,28
39,Pyrzany,14.97,52.656,20
55,Grabice,14.7,51.866,28
94,Radachów,14.917,52.498,39
79,Troszczyno,15.307,53.677,20
28,Nowogardek,15.45,54.119,20
46,Krępiny,14.957,52.606,24
28,Podgórze,15.086,52.975,20
55,Grzęzno,15.276,53.552,20
24,Swadzim,15.096,53.001,20
94,Połęcko,14.897,52.406,39
571,Gubin,14.741,51.951,134
55,Bienice,15.299,53.614,24
28,Rzeplino,15.184,53.261,20
33,Jaromirowice,14.749,51.965,20
39,Luboradz,15.364,53.808,20
33,Mołdawin,15.335,53.707,24
66,Dzwonowo,15.241,53.415,24
46,Kiełpino,15.41,53.936,28
66,Sądów,14.844,52.222,24
28,Kędrzyno,15.452,54.065,24
33,Płońsko,15.143,53.106,24
28,Koperno,14.732,51.89,20
28,Bobrowniki,15.253,53.436,20
79,Radzików,14.864,52.266,24
55,Nowiny Wielkie,15.002,52.672,46
55,Wysoka,15.038,52.776,28
39,Stary Borek,15.482,54.132,24
46,Grzybowo,15.492,54.159,33
94,Łomy,14.801,52.063,28
46,Żukowo,15.21,53.279,20
160,Dobra,15.31,53.586,94
46,Grabno,14.929,52.43,20
33,Brożek,14.685,51.718,20
28,Pleśno,14.756,51.916,20
33,Karkoszów,14.981,52.569,20
24,Gostomin,15.349,53.68,20
24,Świecie Kołobrzeskie,15.462,54.03,24
28,Malta,14.998,52.61,20
39,Dzikowo,15.125,52.988,24
28,Wielotów,14.736,51.84,20
39,Przemysław,15.011,52.635,20
39,Trześniów,14.959,52.478,20
55,Muszkowo,14.98,52.538,24
46,Rychnów,15.122,52.96,20
33,Bieżyce,14.776,51.941,20
46,Czarnowice,14.763,51.901,33
33,Karkowo,15.291,53.475,24
33,Pniewo,15.431,53.905,24
160,Dolice,15.199,53.188,112
39,Dobropole,15.313,53.532,20
94,Marianowo,15.264,53.382,39
39,Laskowo,15.162,53.071,24
55,Starnin,15.455,53.968,24
134,Karsko,15.111,52.909,55
39,Stanowice,15.05,52.721,20
79,Wałowice,14.802,51.989,24
55,Lubin,14.908,52.295,24
28,Kumiałtowice,14.744,51.821,20
46,Drzeniów,14.865,52.17,33
24,Korzystno,15.518,54.145,20
39,Brudzewice,15.251,53.312,28
24,Byszewo,15.492,54.061,20
66,Bralęcin,15.229,53.237,24
134,Krzeszyce,15.011,52.583,66
46,Rogowo,15.359,53.634,28
28,Darszyce,15.437,53.872,20
24,Dobrzyń,14.785,51.914,20
66,Chlebów,14.862,52.131,20
39,Lubów,14.951,52.386,24
24,Witaszkowo,14.771,51.862,20
24,Miłów,14.849,52.085,20
28,Wystok,14.949,52.373,20
39,Błotnica,15.517,54.104,20
79,Łabuń Wielki,15.424,53.811,33
24,Przećmino,15.524,54.12,20
39,Lisowo,15.304,53.428,24
24,Jeziory Dolne,14.754,51.796,20
39,Stargard Gubiński,14.786,51.882,20
55,Parzeńsko,15.125,52.88,24
24,Podjenin,15.05,52.654,20
39,Ługowina,15.411,53.748,20
24,Bargów,14.913,52.244,20
33,Skrzany,15.211,53.131,20
66,Gorawino,15.492,53.997,28
28,Zawada,14.807,51.927,20
55,Datyń,14.766,51.806,20
28,Niemierze,15.525,54.088,24
94,Boczów,14.946,52.322,66
112,Koło,14.779,51.837,46
55,Osina,15.183,53.02,24
79,Bród,15.345,53.513,39
39,Bielice,14.959,52.348,20
28,Łabuń Mały,15.44,53.796,20
24,Chociejów,14.805,51.892,20
39,Sadłowo,15.272,53.279,24
24,Racław,15.091,52.73,20
160,Chociwel,15.339,53.468,112
24,Czartów,15.051,52.599,20
55,Smogóry,14.998,52.439,55
66,Lubień,14.99,52.415,20
39,Marwice,15.111,52.774,20
24,Białokury,15.516,54.015,20
46,Dobropole Pyrzyckie,15.235,53.147,33
24,Rzesznikowo,15.49,53.931,24
28,Rybaki,14.876,52.076,20
28,Wiechowo,15.309,53.369,24
33,Drogomin,15.009,52.465,20
160,Brody,14.778,51.782,94
39,Gęstowice,14.906,52.148,20
66,Baczyna,15.113,52.755,46
24,Gądków Mały,14.946,52.254,20
331,Kołobrzeg,15.576,54.173,276
24,Pogorzelica,15.412,53.657,20
33,Moczkowo,15.19,52.977,20
39,Radowo Wielkie,15.421,53.686,20
28,Gostkowice,15.072,52.625,24
24,Orle,15.406,53.635,20
46,Iglice,15.47,53.83,20
79,Siemyśl,15.534,54.028,55
39,Jeniniec,15.086,52.655,33
33,Dzikowo,14.855,51.976,28
28,Jasienica,14.809,51.843,20
28,Zwierzynek,15.397,53.583,20
66,Nieżyn,15.55,54.056,24
33,Skarbona,14.913,52.117,20
28,Starzyce,15.356,53.438,24
24,Krzemów,15.083,52.609,20
33,Oświno,15.389,53.533,20
33,Granice,14.909,52.09,20
192,Barlinek,15.215,52.991,160
39,Żydowo,15.227,53.028,20
33,Bobrówko,15.008,52.371,24
112,Pole,14.858,51.933,39
33,Słodkowo,15.318,53.295,20
66,Charzyno,15.575,54.09,39
33,Jagów,15.243,53.064,20
94,Dorowo,15.458,53.722,24
24,Olszyna,14.765,51.654,20
112,Maszewo,14.909,52.068,24
33,Drozdowo,15.548,53.995,24
46,Piasecznik,15.301,53.226,33
33,Grodziszcze,14.828,51.824,20
39,Wieleń Pomorski,15.393,53.503,24
28,Łupowo,15.129,52.704,20
28,Santocko,15.157,52.787,24
33,Włostów,15.108,52.639,20
39,Mielno,15.414,53.567,24
94,Radowo Małe,15.446,53.666,66
28,Sądów,15.281,53.159,20
28,Rościęcino,15.593,54.126,20
46,Gardzin,15.488,53.786,33
160,Rymań,15.54,53.949,79
134,Gądków Wielki,14.978,52.241,66
160,Suchań,15.325,53.28,66
24,Mosina,15.36,53.386,20
39,Lutkowo,15.366,53.397,24
55,Biecz,14.832,51.808,24
33,Chojna,14.905,52.02,20
28,Trzebiechów,14.954,52.159,24
112,Żarki Wielkie,14.756,51.589,39
66,Łazy,14.865,51.901,24
24,Unieradz,15.579,54.052,20
24,Borkowo Wielkie,15.449,53.643,20
55,Pniów,15.015,52.327,20
24,Roszkowice,15.116,52.627,20
24,Lubczyno,15.132,52.672,20
46,Okunie,15.224,52.939,28
24,Stare Czaple,14.76,51.578,20
24,Chwałowice,15.13,52.653,20
24,Kępno,15.369,53.373,20
46,Kołczyn,15.119,52.613,33
46,Bronowice,14.757,51.56,20
33,Krzynka,15.243,52.974,20
55,Rychlik,15.055,52.4,20
39,Kałki,14.799,51.656,20
33,Buczyny,14.781,51.605,20
33,Długoszyn,15.077,52.462,20
24,Ołużna,15.606,54.077,20
33,Radomicko,14.962,52.12,20
33,Długie,15.401,53.428,20
33,Brzeźno,15.069,52.425,24
79,Siedlisko,14.986,52.177,20
24,Wieprzyce,15.162,52.695,20
66,Lubogoszcz,14.959,52.097,24
28,Płonno,15.263,52.996,24
24,Stara Dobrzyca,15.532,53.816,24
46,Rudna,15.115,52.544,20
33,Tarnowo,15.369,53.308,24
39,Jeżyki,15.164,52.683,20
28,Suchanówko,15.36,53.273,20
24,Karnice,15.496,53.691,20
24,Radaczewo,15.347,53.23,24
46,Prześlice,15.061,52.372,33
66,Maszków,15.127,52.566,39
46,Łyskowo,15.282,53.021,20
33,Przyborowice,14.907,51.907,20
39,Pławęcino,15.612,54.035,20
66,Cieszyno,15.447,53.521,46
55,Sielsko,15.469,53.583,46
46,Dębica,15.592,53.968,24
112,Wężyska,14.948,52.014,55
46,Czarnowo,14.956,52.035,20
94,Kłodawa,15.211,52.784,39
33,Szadzko,15.395,53.341,20
33,Chwalęcice,15.207,52.767,20
33,Międzyrzecze,15.568,53.869,20
79,Rekowo,15.493,53.623,33
33,Bonin,15.355,53.196,20
94,Biała,15.426,53.41,46
230,Tuplice,14.842,51.671,79
46,Pustary,15.65,54.095,33
33,Łąków,15.171,52.625,20
28,Chełmica,14.841,51.657,20
79,Gręzawa,14.859,51.708,33
39,Przewoźniki,14.8,51.54,20
24,Gniewoszyce,14.82,51.595,20
28,Gleźno,15.349,53.144,20
276,Sulęcin,15.117,52.444,230
39,Czernin,15.672,54.138,24
39,Karwowo,15.533,53.698,28
33,Debrznica,15.053,52.244,33
192,Gościno,15.65,54.054,94
230,Dobrzany,15.427,53.357,66
24,Miechów,15.145,52.506,20
24,Dębogard,15.67,54.116,20
28,Kownaty,15.095,52.354,20
46,Kozy,15.437,53.38,20
33,Chełm Żarski,14.9,51.785,20
39,Strzmiele,15.525,53.651,20
112,Moczydło,15.288,52.922,39
39,Bagicz,15.698,54.192,24
28,Czeklin,14.961,51.957,20
33,Bolewice,15.333,53.058,20
28,Rogi,15.17,52.57,20
46,Skórzyn,15.018,52.116,28
571,Gorzów Wielkopolski,15.229,52.738,571
192,Torzym,15.086,52.312,112
79,Żubrów,15.144,52.479,28
28,Płonica,15.199,52.642,20
46,Ząbrowo,15.592,53.845,20
230,Łośno,15.267,52.847,39
94,Ulim,15.211,52.678,39
39,Nosowo,15.408,53.27,24
112,Rudnica,15.188,52.609,24
46,Osiek,14.922,51.826,20
33,Dzierżów,15.207,52.661,20
66,Dąbrowa,14.936,51.865,20
33,Sulino,15.392,53.209,20
28,Jasionów,14.85,51.607,20
79,Boguszyny,15.352,53.084,28
39,Niwica,14.842,51.582,39
39,Runowo,15.509,53.559,20
39,Dłusko,15.488,53.494,20
55,Ścienne,15.476,53.456,39
24,Ługowo,15.334,53.019,20
24,Czerna,14.884,51.694,20
94,Tursk,15.126,52.395,24
55,Jarnatów,15.168,52.517,33
24,Świelubie,15.684,54.092,20
28,Grabków,14.94,51.844,20
33,Winniki,15.503,53.519,24
39,Linówko,15.472,53.424,20
39,Karkowo,15.662,54.014,20
28,Kałek,14.955,51.877,20
24,Kalina,15.637,53.93,20
24,Rytwiny,14.882,51.665,20
28,Wojcieszyce,15.271,52.793,28
24,Niesporowice,15.334,52.981,20
33,Drzeniów,14.906,51.719,24
33,Sierakowo,15.444,53.307,20
112,Rusinowo,15.6,53.786,39
94,Wełmice,14.977,51.91,39
24,Chudzowice,14.887,51.649,20
28,Świbinki,14.918,51.733,20
39,Mysłowice,15.638,53.894,24
24,Dłużek,14.931,51.77,20
46,Grabów,15.132,52.35,33
55,Bronków,15.002,51.963,28
28,Sarnikierz,15.51,53.48,20
33,Przyborze,15.575,53.68,20
39,Oraczewice,15.416,53.188,20
28,Wartkowo,15.678,54,24
33,Brzózka,15.017,51.995,24
24,Skronie,15.7,54.065,20
28,Rudniki,15.407,53.148,20
46,Bolemin,15.238,52.637,33
94,Dygowo,15.725,54.133,46
28,Słowenkowo,15.669,53.954,24
55,Słowieńsko,15.64,53.866,33
46,Osiecznica,15.049,52.078,28
39,Myślino,15.693,54.03,20
24,Strzeszowice,14.896,51.637,20
46,Będargowo,15.368,53.023,33
160,Bełczna,15.593,53.714,46
55,Drzewce,15.106,52.24,28
94,Stradzewo,15.435,53.222,39
112,Ustronie Morskie,15.755,54.215,79
28,Łuków,14.88,51.576,20
46,Kukinka,15.748,54.184,20
571,Choszczno,15.422,53.169,192
33,Mieszków,14.889,51.597,24
28,Białobłocie,15.254,52.656,20
66,Wapnica,15.46,53.273,46
46,Dębinka,14.915,51.66,33
28,Czetowice,15.067,52.099,20
46,Stare Ślepce,15.67,53.921,24
28,Dolice,15.49,53.359,20
28,Zwierzyn,15.408,53.105,20
24,Kartlewo,15.642,53.828,20
28,Błotno,15.48,53.322,20
28,Wawrów,15.291,52.75,28
33,Krzynki,15.371,52.991,24
39,Danków,15.355,52.939,33
94,Górzyn,14.978,51.828,39
55,Budachów,15.092,52.152,39
28,Matuszowice,14.932,51.688,20
28,Poradz,15.606,53.7,20
230,Lubsko,14.965,51.78,112
46,Dąbrowa Łużycka,14.877,51.529,33
28,Gardno,15.565,53.568,20
33,Kukinia,15.759,54.166,20
24,Jasionna,14.951,51.725,20
55,Lesięcin,15.575,53.582,28
192,Węgorzyno,15.562,53.541,79
24,Karnin,15.28,52.682,20
33,Miechęcino,15.744,54.112,20
39,Osowo,15.639,53.766,20
79,Dobrosułów,15.125,52.193,33
66,Rybakowo,15.35,52.861,39
66,Ramlewo,15.717,53.98,20
28,Zagrody,15.686,53.876,20
39,Sokoliniec,15.498,53.29,20
33,Gąskowo,15.773,54.147,20
28,Czechów,15.314,52.729,20
66,Koryta,15.172,52.308,46
66,Dychów,15.062,51.986,28
24,Prusinowo,15.63,53.688,20
28,Łobżany,15.624,53.667,20
24,Sicko,15.496,53.269,20
134,Ińsko,15.55,53.436,66
46,Janiszowice,15.039,51.91,33
28,Gwizd,15.794,54.198,20
24,Budziechów,14.994,51.775,20
39,Granowo,15.432,53.067,28
46,Krzemień,15.532,53.367,20
160,Lubniewice,15.25,52.516,66
24,Radlice,15.474,53.19,20
55,Osiedle Poznańskie,15.312,52.699,24
66,Wietszyno,15.758,54.07,46
46,Potok,14.898,51.488,28
46,Żeńsko,15.45,53.107,20
79,Lekowo,15.681,53.82,46
79,Glisno,15.24,52.476,33
112,Rokosowo,15.724,53.948,39
39,Worowo,15.645,53.698,24
79,Trzemeszno Lubuskie,15.231,52.439,46
134,Deszczno,15.31,52.672,46
24,Sulice,15.592,53.525,20
192,Krosno Odrzańskie,15.101,52.054,192
94,Struga,15.121,52.11,24
79,Grotów,14.944,51.599,39
230,Sławoborze,15.71,53.89,94
28,Jazy,15.786,54.126,20
33,Pomień,15.495,53.217,28
28,Lepino,15.727,53.932,20
55,Glinik,15.311,52.647,20
46,Janczewo,15.348,52.756,28
79,Bytowo,15.543,53.344,46
55,Pietrzyków,14.982,51.68,28
46,Boruszyn,14.963,51.624,20
28,Jastrzębniki,15.707,53.845,20
66,Rusowo,15.809,54.162,39
28,Przytoń,15.614,53.542,24
66,Storkowo,15.59,53.466,24
24,Chromów,15.095,51.982,20
46,Żabicko,15.431,52.976,20
94,Piotrów,14.945,51.547,55
28,Jaryszów,14.997,51.694,20
112,Bobrowice,15.087,51.951,79
33,Pleśna,15.837,54.231,20
33,Rogówko,15.626,53.567,20
46,Wardyń,15.498,53.17,28
79,Ciemnik,15.573,53.398,28
28,Domacyno,15.757,53.973,20
33,Karwin,15.765,53.995,20
66,Jasień,15.019,51.747,28
33,Barłogi,15.085,51.936,20
24,Dęby,15.072,51.896,20
24,Rybaki,15.544,53.29,24
55,Mokra,15.05,51.822,20
46,Jabłoniec,15.017,51.726,20
33,Górki,15.363,52.738,20
28,Chocimek,15.058,51.84,20
39,Klępczewo,15.706,53.786,24
24,Dobrochów,14.947,51.523,20
39,Mirkowice,15.034,51.768,20
46,Krukowo,15.784,54.023,24
46,Zdroisko,15.394,52.819,20
192,Bytnica,15.169,52.151,66
28,Cieszyno,15.716,53.803,20
39,Wiewiecko,15.626,53.521,20
24,Ciecierzyce,15.359,52.709,24
33,Nowy Klukom,15.493,53.114,20
24,Dachów,15.088,51.909,24
33,Tymień,15.845,54.206,33
66,Wrzosowo,15.816,54.115,39
24,Osiecko,15.297,52.517,20
39,Raduń,15.505,53.141,20
55,Ciechnowo,15.738,53.859,24
24,Sieciejów,15.007,51.666,20
134,Recz,15.547,53.263,79
134,Krzęcin,15.488,53.081,66
28,Brzeźnica,15.128,51.998,20
33,Kłodnica,15.216,52.252,20
28,Malonowo,15.793,54.008,20
66,Bonin,15.663,53.601,28
46,Pniewo,15.313,52.535,24
24,Gralewo,15.385,52.75,20
55,Lipinki Łużyckie,15.01,51.646,55
160,Przewóz,14.952,51.48,79
39,Czertyń,15.595,53.377,20
24,Chotyń,15.805,54.033,20
46,Sidłowo,15.766,53.908,24
39,Wysiedle,15.68,53.627,20
24,Rzecko,15.533,53.173,20
28,Krzecko,15.764,53.888,20
33,Żeliszewo,15.547,53.214,20
55,Poźrzadło,15.246,52.3,28
66,Gąski,15.88,54.241,28
24,Gostchorze,15.163,52.054,24
33,Dąbie,15.149,52.01,20
46,Słonowice,15.715,53.715,33
66,Tuchola Żarska,15.076,51.796,39
55,Bogumiłów,14.998,51.571,24
39,Brzozowiec,15.369,52.655,28
33,Rarwino,15.793,53.953,20
39,Chojnowo,15.121,51.918,20
24,Gola Dolna,15.73,53.751,20
28,Rzeczki,15.548,53.184,20
33,Jemiołów,15.273,52.356,20
28,Borek,15.385,52.689,20
24,Skoczów,15.852,54.125,20
24,Śmiechów,15.879,54.213,20
39,Santok,15.404,52.736,28
28,Lubiechowo,15.837,54.066,20
46,Straszów,14.99,51.519,24
39,Mielno,15.001,51.545,20
28,Brzeźniak,15.673,53.538,20
66,Krosino,15.762,53.812,24
39,Studnica,15.646,53.445,28
24,Wielisławice,15.466,52.896,20
33,Bieszków,15.074,51.74,20
66,Korytowo,15.549,53.146,39
39,Kosobudz,15.245,52.233,28
55,Tuczno,15.495,52.976,20
28,Górka,15.048,51.657,20
24,Roztoki,15.081,51.752,20
28,Kowańcz,15.838,54.035,20
134,Toporów,15.26,52.265,55
33,Sokólsko,15.481,52.924,20
28,Syrkowice,15.862,54.098,20
24,Garnki,15.829,53.99,20
28,Sokola Dąbrowa,15.344,52.506,28
39,Płomykowo,15.434,52.772,24
24,Dobrzyń,14.977,51.428,20
55,Guzów,15.098,51.77,20
134,Sanice,14.976,51.412,20
28,Stare Polichno,15.427,52.721,20
39,Rakowo,15.554,53.102,20
33,Trzebiszewo,15.399,52.63,20
28,Pęczerzyno,15.746,53.687,20
79,Chłopowo,15.537,53.04,33
46,Objezierze,15.552,53.084,33
46,Sobolice,14.975,51.389,20
55,Łukawy,15.091,51.719,20
55,Podwilcze,15.828,53.935,33
33,Wyganowo,15.891,54.134,20
46,Mierzyn,15.885,54.112,20
24,Zagórze,15.841,53.969,20
55,Kosierz,15.176,51.948,46
24,Miłowice,15.06,51.61,20
24,Łagówek,15.315,52.35,20
112,Smolne,15.903,54.152,20
134,Daszewo,15.881,54.079,33
39,Kiszkowo,15.928,54.228,20
79,Nowa Wieś,15.358,52.47,39
33,Gronów,15.302,52.303,24
39,Gościnowo,15.43,52.681,24
28,Brzeźnica,15.706,53.522,20
24,Lubartów,15.028,51.505,20
79,Lubieniów,15.609,53.22,33
24,Pław,15.199,51.996,20
28,Silno Małe,15.037,51.522,20
66,Dobrzyca,15.922,54.184,39
46,Ziemsko,15.695,53.471,24
39,Drozdów,15.057,51.575,24
24,Rynowo,15.758,53.663,20
24,Zajezierze,15.734,53.586,20
28,Lubanice,15.101,51.696,20
46,Lipna,15.01,51.434,33
55,Szczawno,15.215,52.024,46
39,Nasutowo,15.862,53.98,20
46,Świdwinek,15.79,53.753,20
55,Zbrojewo,15.725,53.549,20
24,Jamno,15.017,51.445,20
33,Kłodzino,15.83,53.873,28
24,Piastowo,15.511,52.888,20
79,Gryżyna,15.277,52.185,39
46,Lutynka,15.062,51.547,28
28,Koszanowo,15.798,53.739,20
66,Sarbinowo,15.96,54.249,55
66,Zagozd,15.746,53.573,33
39,Wielowieś,15.359,52.396,28
134,Brzeżno,15.787,53.698,66
24,Ubysławice,15.919,54.106,20
94,Porajów,14.834,50.885,66
39,Biedrzychowice Dolne,15.136,51.74,24
66,Niedźwiedź,15.309,52.233,24
46,Niemierzyno,15.826,53.804,20
33,Gronów,15.226,51.989,20
24,Więcław,15.788,53.682,20
28,Grabik,15.111,51.656,20
24,Sieniawka,14.843,50.897,20
39,Mała Lipna,15.027,51.41,20
94,Murzynowo,15.451,52.642,39
24,Lasocin,15.777,53.634,20
66,Rościno,15.894,53.999,20
33,Goruńsko,15.402,52.484,20
33,Templewo,15.388,52.444,20
28,Szklarka Radnicka,15.268,52.09,20
79,Nielep,15.847,53.839,39
39,Rębusz,15.594,53.056,24
46,Sławno,15.525,52.843,20
46,Żelechów,15.348,52.315,24
24,Surowa,15.135,51.693,20
33,Woliczno,15.742,53.499,20
39,Stary Dworek,15.433,52.557,20
24,Kamosowo,15.898,53.983,20
39,Zagórze,15.335,52.263,24
39,Warnino,15.943,54.121,20
39,Jankowo,15.751,53.516,28
33,Kiełpino,15.645,53.188,24
46,Lipie Góry,15.561,52.927,28
94,Zieleniewo,15.622,53.109,66
46,Krzywa,15.197,51.845,20
66,Sieniawa,15.376,52.363,39
112,Stanomino,15.9,53.958,46
46,Białowice,15.175,51.769,24
79,Ogardy,15.58,52.967,39
94,Łabędzie,15.805,53.653,33
33,Wierzchomino,15.97,54.169,24
55,Żółwino,15.687,53.281,20
28,Głodzino,15.883,53.891,20
46,Mulite,15.829,53.72,20
33,Sarbiewo,15.539,52.825,20
46,Trzebule,15.249,51.958,24
28,Gajewo,15.786,53.565,20
55,Batyń,15.886,53.878,33
685,Żary,15.142,51.641,276
28,Olchowiec,15.796,53.59,20
46,Bucze,15.367,52.29,20
39,Łagów,15.267,51.987,24
66,Oleszno,15.763,53.475,33
28,Łaz,15.13,51.587,20
55,Smardzko,15.862,53.777,39
33,Leśniów Mały,15.279,52.005,20
33,Mielenko,16.014,54.249,24
46,Zemsko,15.46,52.536,24
28,Węgrzynice,15.344,52.192,24
24,Laski,15.921,53.944,20
24,Dąbrowiec,15.196,51.756,20
33,Lubomyśl,15.169,51.678,20
66,Parsowo,15.973,54.094,33
94,Lipki Wielkie,15.53,52.724,94
39,Cieszów,15.223,51.819,20
66,Będów,15.308,52.066,20
28,Posada,14.933,50.994,20
79,Bielawa Dolna,15.042,51.298,39
28,Rybarzowice,14.9,50.901,20
39,Buczyna,15.4,52.332,20
24,Górczyna,15.554,52.79,20
46,Kluczkowo,15.867,53.746,24
46,Rydzewo,15.826,53.614,33
39,Pielice,15.61,52.947,20
39,Lipki Małe,15.549,52.764,20
79,Święciechów,15.711,53.254,33
55,Lulewiczki,15.966,54.049,24
66,Sycowice,15.328,52.105,28
33,Pieski,15.435,52.419,20
33,Laski,15.305,52.036,20
55,Licheń,15.597,52.903,20
276,Skwierzyna,15.495,52.594,134
112,Mirostowice Dolne,15.144,51.568,55
33,Krzewina,14.952,51.019,20
55,Kolsk,15.631,52.991,24
39,Przełazy,15.378,52.234,28
28,Żelimucha,15.979,54.07,20
134,Nowogród Bobrzański,15.229,51.798,134
39,Lasów,15.029,51.228,20
66,Koźlice,14.987,51.106,20
24,Mielenko Drawskie,15.796,53.491,24
46,Brzeziny,15.685,53.146,33
79,Mostki,15.392,52.266,33
46,Radomierzyce,14.972,51.06,20
79,Zwierzyn,15.584,52.837,28
28,Łęczno,15.951,53.968,24
66,Lipno,15.274,51.913,20
28,Górecko,15.567,52.776,28
55,Borowe,15.128,51.484,24
112,Działoszyn,14.95,50.979,55
39,Stojanów,15.057,51.278,20
24,Sława,15.899,53.78,20
230,Pieńsk,15.047,51.246,94
33,Karsibór,15.863,53.663,28
33,Podła Góra,15.356,52.129,20
33,Grabowiec,15.276,51.895,20
39,Jędrzychowice,15.026,51.179,20
24,Lubieszów,15.153,51.536,20
46,Leśniów Wielki,15.311,51.987,33
24,Baranowice,15.565,52.737,20
112,Zarańsko,15.839,53.571,33
685,Zgorzelec,15.015,51.134,397
33,Gruszewo,15.96,53.948,20
33,Przyrzecze,15.883,53.707,20
24,Lutogniewice,14.97,51.006,20
33,Osiek Łużycki,14.998,51.082,20
46,Gąsków,15.948,53.9,20
39,Pękanino,15.987,54.025,20
39,Dobroszów Mały,15.242,51.761,20
79,Borowo,15.775,53.35,24
46,Modrzewiec,15.928,53.824,20
28,Strzeżenice,16.058,54.234,20
66,Parnowo,16.037,54.163,24
24,Niesulice,15.401,52.213,20
55,Rokitnica,15.393,52.183,20
33,Prostynia,15.769,53.314,24
331,Białogard,15.991,54.007,160
28,Wysoka,15.46,52.376,20
39,Dobre,16.053,54.2,20
134,Rąbino,15.949,53.869,79
134,Mielno,16.074,54.263,55
28,Żarki Średnie,15.057,51.209,20
39,Popowo,15.514,52.533,28
28,Cieszeniewo,15.915,53.758,24
39,Międzylesie,15.383,52.144,33
24,Czyżówek,15.163,51.506,20
55,Nietków,15.344,52.026,39
46,Gorzyca,15.494,52.464,28
39,Nietkowice,15.359,52.067,33
28,Kostrzyna,14.994,51.019,20
112,Lubrza,15.442,52.305,46
55,Łagów,15.045,51.159,20
134,Biesiekierz,16.039,54.133,39
24,Koźmin,15.022,51.093,20
160,Drawno,15.747,53.214,66
24,Dobroszów Wielki,15.264,51.775,20
79,Marszów,15.216,51.634,24
39,Przytoń,15.883,53.63,20
28,Tylice,15.032,51.111,20
79,Bierzwnica,15.914,53.72,46
33,Rokitno,15.638,52.869,20
24,Kościernica,16.019,54.048,20
39,Pustkowo,16.026,54.065,20
66,Nawino,15.981,53.921,20
66,Siodło,15.212,51.599,28
39,Olszyniec,15.233,51.652,20
46,Konin Żagański,15.196,51.545,28
33,Grzybno,15.881,53.587,20
46,Koźla,15.312,51.875,20
24,Gniazdowo,16.073,54.187,20
24,Wyszków,14.994,50.965,24
94,Długie,15.666,52.911,28
24,Przeczno,15.711,53.046,20
46,Łęgi,15.955,53.8,20
28,Goszczanówko,15.614,52.747,20
28,Jerzmanki,15.062,51.137,20
66,Mścice,16.091,54.218,33
66,Gudowo,15.861,53.492,28
24,Nosówko,16.052,54.09,20
39,Chełmsko,15.563,52.581,33
46,Borów,15.444,52.227,20
28,Czarnowęsy,16.005,53.936,20
28,Gorzupia Dolna,15.274,51.73,28
46,Letnica,15.333,51.898,33
46,Dołgie,15.9,53.602,28
33,Rogowo,16.018,53.967,33
39,Gościmiec,15.638,52.79,33
39,Goszczanowo,15.616,52.725,28
24,Mała Wieś Dolna,15.053,51.089,20
33,Przetocznica,15.413,52.12,20
24,Wilkowisko,15.224,51.573,20
276,Iłowa,15.2,51.503,94
46,Osiek,15.7,52.97,24
28,Jezierzyce,15.976,53.815,20
24,Dobiesławiec,16.11,54.239,20
28,Pokrzywnik,15.089,51.175,20
39,Żarska Wieś,15.098,51.194,28
79,Świniary,15.593,52.632,46
46,Studniska Dolne,15.068,51.105,24
112,Redło,15.967,53.774,66
46,Wilkowo,15.468,52.254,33
55,Dłużyna Dolna,15.114,51.233,33
55,Ługi,15.699,52.943,24
79,Jagodzin,15.16,51.361,33
46,Suchowo,15.823,53.321,20
28,Suliszewo,15.89,53.524,28
192,Ruszów,15.177,51.404,79
33,Świerznica,15.998,53.861,20
33,Radomia,15.368,51.948,20
46,Rojewo,15.563,52.52,24
28,Goszczanowiec,15.643,52.759,24
39,Pomianowo,16.057,54.034,28
39,Karwice,15.873,53.458,20
28,Sobolice,15.317,51.794,20
55,Pławin,15.666,52.821,24
46,Rzecino,15.998,53.844,24
66,Klików,15.205,51.468,28
66,Sulików,15.067,51.077,39
33,Borne,15.929,53.627,20
46,Biała Góra,16.012,53.886,28
24,Kościelna Wieś,15.187,51.416,20
24,Wrociszów Górny,15.058,51.047,20
39,Szeligowo,15.968,53.744,24
46,Piaseczna,15.161,51.337,20
55,Stare Kurowo,15.681,52.857,55
33,Łąkie,15.456,52.182,20
33,Nowe Bielice,16.101,54.154,20
24,Czerna,15.234,51.531,20
39,Trójca,15.103,51.161,20
46,Breń,15.75,53.052,39
39,Dargikowo,16.061,54.016,20
39,Drągowina,15.321,51.776,39
28,Stare Bielice,16.114,54.178,28
39,Gryżyce,15.289,51.675,20
28,Nietoperek,15.538,52.401,24
230,Zawidów,15.061,51.027,79
28,Kaczenice,15.341,51.823,20
46,Skąpe,15.457,52.153,20
39,Piaski,15.354,51.855,24
28,Błotnica,15.689,52.843,20
39,Białogórzyno,16.088,54.081,24
79,Byszyno,16.047,53.949,33
33,Kowalice,15.228,51.486,20
33,Bronowo,15.978,53.724,20
24,Twierdzielewo,15.589,52.537,20
66,Kaława,15.533,52.369,28
55,Miodnica,15.302,51.693,28
33,Ługów,15.5,52.27,20
134,Brody,15.431,52.062,39
39,Jelenino,15.959,53.658,20
28,Rozłogi,15.492,52.241,20
33,Linowno,15.905,53.485,20
33,Lubogóra,15.487,52.223,20
39,Cybowo,15.844,53.296,28
46,Żaganiec,15.264,51.569,28
39,Dunowo,16.108,54.11,24
39,Krasne Dłusko,15.623,52.613,20
39,Sławica,15.726,52.919,20
24,Rzyszczewo,16.052,53.928,20
24,Łasko,15.778,53.075,20
112,Czerwieńsk,15.42,52.005,55
33,Gronowo,15.951,53.598,24
24,Jasnopole,15.86,53.314,20
66,Gozdanin,15.119,51.132,20
28,Nowy Dwór,15.638,52.633,20
24,Przesieczany,15.147,51.205,20
28,Rusinów,15.525,52.292,20
230,Dobiegniew,15.751,52.967,94
66,Ostrowice,15.974,53.639,55
79,Jordanowo,15.546,52.334,46
28,Stary Węgliniec,15.195,51.304,20
39,Pisarzowice,15.239,51.142,20
24,Łęgowo,15.727,52.858,24
79,Zawada,15.564,51.991,46
39,Borzysław,16.201,53.927,24
28,Mikułowa,15.106,51.08,20
46,Maszkowo,16.306,54.183,24
46,Nowe Gorzycko,15.81,52.546,20
24,Sucha,15.594,51.882,20
46,Stoki,15.814,52.508,20
39,Krępa,16.359,54.023,20
24,Kałużna,15.37,51.03,20
46,Konotop,15.841,53.153,20
46,Grąsy,15.761,52.988,20
28,Kolno,15.956,52.596,24
46,Ubocze,15.433,51.049,20
33,Milsko,15.769,51.944,20
28,Komorze,16.343,53.632,20
24,Pożarów,15.313,51.661,20
66,Rębiszów,15.453,50.951,33
24,Skrzynica,15.68,52.631,20
66,Chmieleń,15.481,50.979,24
24,Chościszowice,15.594,51.286,20
46,Lubomierz,15.509,51.013,46
46,Stanów,15.335,51.722,24
112,Osieki,16.218,54.283,39
33,Łężyca,15.475,52,24
33,Karna,15.983,52.168,24
66,Trzebicz,15.753,52.813,39
55,Niekursko,16.395,53.11,39
79,Świętno,16.049,52.008,39
39,Twardocice,15.776,51.096,20
28,Bobowicko,15.644,52.443,28
46,Kotowice,15.363,51.796,20
39,Bożnów,15.36,51.612,20
55,Poświętne,15.283,51.392,24
24,Chlebowo,16.038,53.635,20
112,Zagrodno,15.854,51.181,39
46,Świdnica,15.396,51.89,39
28,Brody,16.295,52.439,24
55,Radoszyn,15.493,52.175,24
28,Sobczyce,16.073,51.705,20
94,Ostre Bardo,16.107,53.832,39
24,Bronowiec,15.289,51.375,20
33,Gozdno,15.911,51.05,20
39,Pęckowo,16.479,52.665,20
46,Tarnowo,16.694,53.265,28
33,Górsko,16.259,51.938,20
33,Nowa Niedrzwica,15.636,52.592,24
46,Ołobok,15.288,51.341,20
39,Modropole,15.73,52.874,20
39,Przylaski,15.44,51.761,20
24,Chroślice,16.084,51.085,20
24,Tomaszowo,15.394,51.623,20
24,Strzępiń,16.544,52.266,20
28,Rzęśnica,15.945,53.53,20
55,Wierzchosławice,16.097,50.895,24
28,Buczek,16.106,54.038,24
46,Bukówko,16.187,53.985,33
33,Stary Żagań,15.316,51.65,20
66,Dominikowo,15.841,53.204,24
28,Myszęcin,15.642,52.283,20
397,Międzyrzecz,15.587,52.435,160
66,Stare Dębno,16.174,53.863,28
39,Wierciszewo,16.309,54.284,20
79,Dębsko,15.86,53.257,28
79,Sianów,16.301,54.224,55
66,Piłka,15.8,52.657,39
39,Jelenin,15.465,51.67,28
33,Łowicz Wałecki,16.033,53.331,24
33,Brzezie k. Pomorska,15.471,52.082,20
39,Kosobudy,15.946,53.515,24
79,Przybymierz,15.358,51.754,20
94,Pomierzyn,15.889,53.337,39
28,Bobrzany,15.454,51.578,20
33,Biernów,16.051,53.841,20
46,Łazy,16.197,54.306,20
46,Radzimów,15.113,51.054,20
33,Darskowo,15.956,53.543,24
39,Radogoszcz,15.309,51.141,20
46,Grotów,15.865,52.759,20
66,Zatonie,15.563,51.862,28
46,Wierzbno,15.803,52.567,33
66,Chociule,15.516,52.205,33
24,Czerna,15.356,51.223,20
685,Świebodzin,15.531,52.247,276
28,Lubiechów,15.467,51.527,20
28,Kopań,16.434,54.459,20
94,Gościm,15.706,52.768,39
55,Przytok,15.627,51.957,20
33,Dęborogi,16.349,54.163,20
55,Glińsk,15.552,52.305,24
112,Osiecznica,15.421,51.326,79
55,Pałck,15.492,52.126,20
160,Kalsko,15.622,52.509,33
24,Szczycienko,15.998,53.656,20
160,Żagań,15.317,51.617,94
24,Borucino,16.031,53.758,20
55,Niwiska,15.388,51.819,39
28,Stare Drawsko,16.195,53.603,28
46,Nowa Wieś,15.411,51.267,24
33,Silna Nowa,15.82,52.441,20
79,Sieciemin,16.415,54.245,24
33,Okunin,15.721,52.094,20
79,Nowe Laski,16.157,53.399,28
39,Wiewiórowo,16.394,54.128,20
33,Gorzyń,15.894,52.567,20
28,Rusinowo,16.517,54.513,24
986,Koszalin,16.171,54.19,685
24,Starczewo,15.789,52.998,20
33,Sińczyca,16.494,54.405,20
39,Pomorsko,15.474,52.054,20
46,Nowe Ludzicko,16.047,53.791,28
24,Strzelno,15.182,51.215,20
66,Rokitno,15.641,52.547,24
28,Czciradz,15.637,51.734,24
55,Zbąszynek,15.816,52.242,46
46,Dzikowice,15.597,51.6,33
66,Głażewo,15.917,52.533,28
33,Słowin,15.799,53.019,24
55,Sulikowo,16.331,53.801,20
33,Kościernica,16.444,54.162,33
24,Sokołów,15.654,51.746,20
39,Ratajki,16.462,54.21,28
33,Rudzica,15.148,51.113,24
39,Wieża,15.403,51.01,20
28,Wysokie,15.464,52.016,20
192,Żelichowo,16.085,52.999,55
55,Zatom Stary,15.967,52.634,28
46,Zajączkówko,16.036,53.747,28
39,Sławnikowice,15.173,51.18,33
28,Pąchy,15.906,52.439,20
46,Bolkowo,16.072,53.856,20
24,Łazice,16.278,53.561,20
66,Przylep,15.449,51.969,28
66,Kamionna,15.959,52.564,33
39,Borów Wielki,15.658,51.676,39
24,Gierczyn,15.401,50.931,20
33,Jamienko,16.204,53.284,20
276,Nowa Sól,15.711,51.802,112
79,Lubieszewo,15.946,53.458,46
39,Wilkanowo,15.435,51.922,28
33,Wizany,16.098,52.936,20
33,Prądówka,15.903,52.346,20
33,Głęboczek,15.747,52.845,20
39,Kanin,16.585,54.464,20
24,Trzebień Mały,15.579,51.397,20
24,Kraszowice,15.519,51.213,20
28,Gradówek,15.478,51.092,20
39,Wyręba,15.171,51.161,20
46,Sierakowo Sławieńskie,16.523,54.224,24
24,Młyńsko,15.448,50.989,20
39,Gawroniec,16.018,53.674,28
33,Dzięciołowo,16.428,53.912,20
24,Sowinko,16.51,54.172,20
24,Zajączkowo,16.037,53.735,20
24,Karwice,16.562,54.331,20
66,Słonów,15.779,52.934,24
112,Węgliniec,15.218,51.29,79
39,Osówko,16.09,53.899,33
39,Kotliska,15.519,51.156,24
28,Gajówka,15.462,50.967,20
79,Dobrowo,16.12,53.987,66
46,Rakowo,16.358,53.611,20
46,Szumiąca,15.587,52.354,20
39,Drzonowo Wałeckie,16.185,53.062,24
39,Zatom,15.846,53.133,33
55,Pyrnik,15.808,51.919,20
46,Nagórze,15.511,51.057,20
24,Nowe Jaroszowice,15.568,51.215,20
28,Darnawa,15.523,52.16,20
46,Marylin,16.109,52.792,24
33,Skibice,15.388,51.767,20
230,Kalisz Pomorski,15.899,53.291,192
66,Chmielno,16.487,53.925,24
28,Lipiany,15.634,51.343,20
39,Siecino,16.004,53.612,20
28,Bagniewo,15.733,52.78,20
79,Kurnatowice,16.066,52.587,33
46,Strzekęcino,16.16,54.1,20
46,Konikowo,16.175,54.149,33
55,Dzietrzychowice,15.355,51.664,39
28,Nowa Karczma,15.174,51.148,20
112,Pieńkowo,16.687,54.483,66
28,Chlebowo,16.528,53.967,20
24,Bobrowiczki,16.646,54.342,20
28,Bielawa Górna,15.194,51.2,20
28,Grodziszcze,15.561,52.26,20
28,Karpie,15.737,51.536,20
33,Czerwona Woda,15.213,51.251,33
24,Miłaków,15.788,51.68,24
94,Kwilcz,16.083,52.547,79
24,Zakrzewko,15.973,52.217,20
28,Sępolno,16.028,52.376,20
160,Miały,16.173,52.807,46
28,Rolewice,15.802,52.978,20
66,Chrośnica,16.001,52.268,28
94,Włosień,15.153,51.078,33
79,Cetuń,16.592,54.089,39
24,Wartowice,15.646,51.222,20
39,Bożenice,16.632,54.2,24
46,Skwierzynka,16.206,54.232,24
28,Gaj,15.686,52.619,20
24,Komorowice,16.073,52.438,20
66,Świeszyno,16.172,54.122,24
33,Iwin,16.524,53.811,28
39,Lutom,16.142,52.627,28
24,Karczówka,15.371,51.695,20
39,Folsztyn,16.237,52.907,24
28,Belęcin,16.005,52.203,20
24,Stefanowice,16.023,52.254,20
66,Tomaszów Bolesławiecki,15.682,51.26,66
55,Borowiec,15.87,51.799,24
33,Bolewicko,16.07,52.385,24
79,Juchowo,16.49,53.671,33
28,Bonów,15.837,51.687,20
66,Stara Kamienica,15.57,50.917,55
33,Buślary,16.074,53.805,20
28,Chojno-Młyn,16.181,52.687,20
230,Bobolice,16.591,53.955,192
28,Dąbrowno,15.922,51.885,20
24,Lipka,15.95,51.95,20
55,Przyłęk,16.082,52.335,24
55,Biernatowo,16.299,52.955,20
39,Stawno,15.971,53.474,20
24,Głogusz,15.519,52.109,20
33,Dzikowo,16.383,53.187,24
33,Chocimino,16.662,54.061,28
112,Wierzchowo,16.608,53.859,79
24,Jodłów,15.959,51.873,20
33,Łężeczki,16.209,52.61,20
134,Piechowice,15.603,50.848,66
24,Dąbrowa,16.229,52.666,20
33,Urzuty,15.414,51.789,24
79,Niedalino,16.165,54.067,28
94,Toporzyk,16.047,53.693,20
24,Dębówko,15.69,52.6,20
24,Koźlice,15.893,51.605,20
230,Ustka,16.861,54.58,94
39,Nowa Kuźnia,15.82,51.392,28
94,Brzeźnica,15.389,51.716,79
28,Warblewo,16.728,54.13,20
24,Rudgerzowice,15.553,52.192,20
46,Stary Łom,15.802,51.314,24
39,Wodnica,16.865,54.559,20
24,Grabik,15.921,51.635,20
55,Trzebień,16.689,53.961,24
160,Żydowo,16.717,54.042,66
39,Wartosław,16.291,52.715,20
79,Siedlisko,16.383,52.986,46
39,Żółwin,15.647,52.462,20
112,Przytoczna,15.684,52.574,94
33,Niekarzyn,15.536,52.135,28
24,Nowa Kuźnia,15.906,51.516,20
46,Gulcz,16.372,52.878,28
24,Łucjanowo,16.296,52.647,20
24,Zaspy Małe,16.159,54.032,20
66,Przesieka,15.67,50.811,20
39,Hamrzysko,16.365,52.831,24
55,Radachowo,15.853,53.074,20
24,Przybkowo,16.5,53.227,20
24,Stary Żelibórz,16.772,54.07,20
55,Ostrowiec,16.529,53.3,24
112,Spore,16.689,53.8,39
33,Pierzwin,15.432,51.822,24
24,Kuligowo,15.655,52.474,20
79,Róża Wielka,16.48,53.139,39
33,Stary Widzim,16.13,52.079,20
55,Drężno,16.715,53.863,20
24,Albertowsko,16.198,52.266,20
24,Lipinka,15.842,53.037,20
79,Radęcin,15.846,53.048,33
39,Pustowo,16.821,54.165,20
46,Gałowo,16.69,53.745,28
39,Nowa Wieś,16.453,52.999,28
28,Krążkowo,16.065,51.801,20
24,Czernikowice,15.899,51.311,20
46,Słone,16.023,51.659,20
46,Wytowno,16.976,54.588,28
39,Solec,16.16,52.028,20
33,Giżyno,15.945,53.336,28
46,Sokołowiec,15.826,51.035,24
24,Cieminko,16.049,53.66,20
66,Kije,15.533,52.096,28
39,Platerówka,15.17,51.055,20
33,Dziwiszów,15.797,50.942,28
79,Parowa,15.279,51.363,55
476,Złocieniec,16.008,53.53,192
33,Gola,16.223,52.167,20
66,Dąbrowa,16.28,52.332,24
33,Ciecholub,16.875,54.176,20
55,Biała,15.928,51.299,20
79,Bobięcino,16.833,54.019,55
39,Zamienice,15.945,51.325,20
39,Skrzatusz,16.583,53.205,28
39,Podborsko,16.138,53.933,28
112,Budy,16.646,53.395,33
46,Biała,16.542,53.039,39
55,Lubosina,16.377,52.521,20
24,Siekierczyn,15.197,51.119,20
39,Kuleszewo,16.968,54.353,24
33,Jeleniów,15.453,51.85,20
33,Podgórki,15.848,50.955,24
39,Radolinek,16.541,52.969,20
94,Rakoniewice,16.27,52.138,79
28,Szydłowo,16.612,53.162,20
39,Osłonin,16.216,51.953,28
685,Słupsk,17.028,54.466,397
46,Borki,16.759,53.583,20
46,Komarno,15.87,50.924,24
55,Zawada,16.644,53.191,20
46,Piotrowo,16.494,52.728,20
33,Gąbino,17.094,54.596,24
230,Czarnków,16.561,52.901,112
46,Krobielewko,15.726,52.639,33
24,Rzeczyca,15.605,52.277,20
66,Sokołowo,16.534,52.802,20
28,Rzepkowo,16.257,54.287,20
66,Dolaszewo,16.655,53.165,55
24,Prochy,16.307,52.106,20
134,Ochla,15.469,51.878,46
28,Wilczyna,16.434,52.482,20
112,Sienica,15.977,53.401,46
46,Mierzęcin,15.832,52.955,24
24,Rzeszówek,15.94,51.022,20
39,Rudniki,16.398,52.353,24
24,Kamionka,16.554,52.817,20
28,Kobylniki,16.354,52.215,20
66,Przedmoście,16.159,51.628,24
79,Lgiń,16.247,51.876,33
112,Wojcieszów,15.924,50.943,94
33,Słonino,16.171,54.002,20
66,Wołogoszcz,15.846,52.992,20
28,Marcinów,15.423,51.737,20
192,Dretyń,16.982,54.104,94
46,Brokęcino,16.814,53.56,20
39,Godzieszów,15.24,51.212,20
66,Wojnowo,16.842,53.636,28
28,Piersko,16.48,52.508,20
46,Bukowa,17.144,54.597,20
55,Gaj Mały,16.532,52.648,28
28,Lękwica,17.145,54.575,20
66,Gardna Wielka,17.164,54.637,24
33,Glinki Mokre,16.84,53.587,20
46,Sędziny,16.459,52.413,28
55,Cieszyno,16.042,53.59,33
230,Połczyn-Zdrój,16.099,53.764,160
24,Sarbka,16.645,52.929,20
46,Zimna Woda,16.105,51.318,33
24,Niedamirów,15.884,50.689,20
39,Jabłonów,15.408,51.681,24
24,Wieszyno,17.133,54.458,20
24,Grzępy,16.632,52.865,20
24,Klesno,15.806,52.855,20
28,Lubnica,16.883,53.635,20
79,Słosinko,16.985,53.944,39
46,Lubikowo,15.704,52.545,24
94,Żoruchowo,17.19,54.571,55
46,Miszkowice,15.922,50.718,39
24,Kupienino,15.609,52.259,20
39,Orłowce,15.731,52.621,20
66,Lipa,16.018,50.971,46
24,Ciechanowice,15.981,50.866,20
94,Trzebielino,17.088,54.202,66
39,Wieściszowice,15.974,50.837,20
28,Jakuszów,16.118,51.243,20
397,Szamotuły,16.584,52.613,192
55,Jędrzychowice,16.29,51.739,24
24,Rosin,15.578,52.166,20
66,Bucz,16.383,52.005,46
39,Przęsin,17.037,54.011,24
39,Uścięcice,16.485,52.29,20
33,Sąborze,17.181,54.467,20
39,Mutowo,16.6,52.632,20
39,Dakowy Mokre,16.485,52.27,33
28,Osów,15.799,52.817,20
33,Krężno,15.959,53.305,24
33,Gola,16.212,51.437,20
39,Bięcino,17.218,54.522,20
1183,Zielona Góra,15.503,51.936,685
46,Słup,16.101,51.098,20
55,Jeziory,15.6,52.219,33
55,Stołuń,15.698,52.507,28
39,Karów,16.315,51.667,20
28,Trzebicz Nowy,15.797,52.802,20
28,Sucha Koszalińska,16.265,54.261,20
46,Cetyń,17.153,54.224,28
685,Legnica,16.162,51.205,397
24,Lipno,16.089,53.699,20
24,Gorzebądz,16.256,54.229,20
39,Chełmiec,16.11,51.04,20
28,Świecichowo,17.257,54.54,28
28,Miroszowice,16.233,51.386,20
55,Osiek,16.228,51.366,24
33,Drzeżewo,17.278,54.573,24
24,Domanów,16.065,50.87,20
46,Miłogostowice,16.212,51.281,20
39,Role,17.146,54.113,20
66,Górzna,16.92,53.394,46
28,Połczyńska,16.108,53.751,20
28,Smołdzęcino,16.088,53.687,20
28,Piotrowice,16.139,51.057,24
24,Gawrony,16.311,51.549,20
46,Niepruszewo,16.604,52.386,33
39,Morownica,16.474,51.991,20
28,Tarnowiec,16.912,53.318,20
39,Rumsko,17.315,54.61,24
46,Krzycko Wielkie,16.452,51.908,28
24,Bonin,16.024,53.479,20
24,Buślarki,16.125,53.792,20
28,Wrzesiny,15.433,51.705,20
39,Stare Worowo,16.076,53.63,20
46,Biały Zdrój,15.959,53.266,28
33,Łozy,15.36,51.489,20
79,Zaspy Wielkie,16.202,54.024,20
28,Janowo,15.687,52.439,20
24,Krępa,15.539,52.002,20
230,Nowe Worowo,16.085,53.65,79
46,Grabiszyce Górne,15.193,51.009,33
55,Policko,15.696,52.455,24
192,Wykroty,15.275,51.233,46
79,Bonin,16.246,54.148,39
46,Stara Kopernia,15.417,51.636,28
28,Goraj,15.739,52.581,28
79,Henryków Lubański,15.252,51.165,20
55,Dąbki,16.319,54.382,20
33,Zaborze,16.138,53.803,24
55,Gaworkowo,16.111,53.717,24
28,Trzebów,15.388,51.55,20
33,Mozów,15.572,52.08,20
39,Zaręba,15.235,51.106,28
33,Zegrze Pomorskie,16.22,54.049,28
55,Raków,15.607,52.174,20
276,Drezdenko,15.831,52.842,192
79,Kalsk,15.591,52.124,28
134,Lubiatów,15.792,52.716,39
28,Stary Dwór,15.669,52.35,24
33,Jarogniewice,15.494,51.832,20
28,Bielkowo,16.306,54.312,20
33,Rudawica,15.392,51.537,24
66,Sarbinowo,15.864,52.929,20
28,Gleźnowo,16.313,54.332,20
46,Zagajnik,15.293,51.253,20
46,Orle,16.009,53.368,24
39,Wichów,15.464,51.74,24
33,Kocin,15.434,51.653,20
39,Cewlino,16.25,54.126,20
33,Kiełpin,15.508,51.866,20
39,Skibno,16.29,54.245,20
28,Głęboczek,16.079,53.574,20
55,Radwanów,15.492,51.806,39
28,Żelisław,15.41,51.566,20
39,Osiek Drawski,16.052,53.48,24
55,Rąpin,15.824,52.782,28
33,Bobrowo,16.066,53.524,28
33,Broniszów,15.488,51.786,20
112,Bukowiec,15.69,52.376,55
28,Retowo,16.21,53.971,20
94,Zagórze,15.862,52.886,28
55,Bukowina Bobrzańska,15.424,51.594,33
134,Brójce,15.674,52.314,39
28,Stryszewo,15.779,52.625,28
33,Rzepowo,16.096,53.591,24
79,Bukowo Morskie,16.338,54.354,28
160,Świętoszów,15.391,51.475,66
28,Wilenko,15.677,52.294,20
24,Popielewko,16.158,53.757,20
24,Wolimirzyce,15.655,52.225,20
33,Łęczyn,15.905,52.973,28
55,Chotków,15.48,51.707,33
79,Sadkowo,16.205,53.895,33
39,Szarcz,15.754,52.505,20
33,Kiełcze,15.651,52.202,20
33,Rańsko,15.734,52.437,20
55,Gierałtów,15.311,51.206,20
28,Śmidzięcino,16.141,53.672,20
28,Bralin,16.014,53.269,28
55,Buków,15.643,52.147,24
79,Szczaniec,15.684,52.268,66
46,Kołacz,16.183,53.784,39
160,Lubań,15.289,51.122,134
66,Czarnkowie,16.152,53.685,28
39,Zielomyśl,15.774,52.528,20
192,Sulechów,15.626,52.088,134
55,Niegosław,15.87,52.812,24
33,Popielewo,16.172,53.745,24
39,Racula,15.567,51.913,33
33,Dobiesław,16.353,54.316,20
39,Mirocin Górny,15.515,51.753,39
55,Małomice,15.445,51.551,39
39,Strychy,15.799,52.586,20
112,Cigacice,15.614,52.034,39
28,Kosin,15.886,52.843,20
94,Leśna,15.264,51.029,79
28,Lubiewo,15.901,52.887,20
24,Piaseczno,16.127,53.581,20
33,Nowa Studnica,16.021,53.25,20
55,Szyszkowa,15.275,51.056,24
79,Drzonków,15.568,51.894,20
39,Stary Kisielin,15.583,51.933,20
46,Lutol Suchy,15.72,52.334,20
33,Sowia Góra,15.844,52.705,28
24,Kępa Zagajna,15.921,52.934,24
46,Wojsławiec,16.211,53.83,24
33,Panowice,15.73,52.358,20
55,Stara Korytnica,16.042,53.301,39
112,Pszczew,15.775,52.485,66
55,Manowo,16.305,54.123,28
55,Żabin,16.087,53.433,20
39,Żydowo,15.745,52.396,20
94,Siercz,15.752,52.415,33
160,Wiekowice,16.361,54.299,46
28,Karnieszewice,16.349,54.257,20
55,Stare Osieczno,15.95,53.007,46
24,Lipno,15.889,52.823,20
28,Barcikowice,15.561,51.847,20
160,Rosnowo,16.292,54.073,94
33,Chichy,15.481,51.615,20
28,Krosinko,16.242,53.908,20
134,Wierzchowo,16.099,53.458,55
39,Kościelnik,15.298,51.089,28
55,Książ Śląski,15.557,51.829,24
33,Jany,15.607,51.973,20
46,Żeńsko,16.086,53.412,20
39,Dąbrówka Mała,15.697,52.234,28
66,Siemczyno,16.134,53.558,55
24,Motarzyn,16.235,53.874,20
28,Nawojów Śląski,15.327,51.161,20
33,Mirocin Dolny,15.544,51.778,20
24,Mierzyn,15.835,52.634,20
24,Nawojów Łużycki,15.334,51.172,20
39,Wyszebórz,16.328,54.15,24
39,Bulin,15.534,51.734,20
397,Darłowo,16.41,54.412,192
112,Ławszowa,15.416,51.392,55
28,Porzecze,16.402,54.378,20
160,Tychowo,16.264,53.931,134
24,Opalewo,15.704,52.215,20
24,Jeżyce,16.399,54.36,20
33,Doble,16.243,53.857,20
28,Jeżyczki,16.394,54.337,20
79,Smardzewo,15.701,52.198,46
46,Stare Bielice,15.92,52.85,20
55,Przejęsław,15.415,51.363,24
66,Cisowo,16.43,54.445,28
24,Kawczyn,15.91,52.81,20
28,Łęgowo,15.684,52.13,20
28,Węgorzewo Koszalińskie,16.357,54.196,20
39,Muchocin,15.844,52.603,28
134,Mirosławiec,16.087,53.345,94
33,Chociszewo,15.749,52.317,20
55,Kluczewo,16.187,53.65,46
66,Studzieniec,15.574,51.801,46
79,Witków,15.515,51.629,28
46,Świecie,15.288,50.981,28
24,Przesieki,15.989,53.017,20
33,Karwin,15.917,52.794,20
46,Karczyn,15.702,52.151,20
39,Dąbrowa,16.393,54.278,20
66,Brusno,16.221,53.726,39
46,Pobądz,16.306,53.993,33
79,Stypułów,15.551,51.705,33
33,Śliwnik,15.494,51.539,20
55,Kłodzino,16.243,53.786,24
33,Bożkowice,15.319,51.037,20
66,Zebrzydowa,15.388,51.23,28
24,Olszyna Dolna,15.336,51.081,20
33,Głuchów,15.664,52.022,24
55,Wicie,16.469,54.505,20
33,Grodnica,15.326,51.053,20
46,Stankowice,15.311,51.01,24
66,Radgoszcz,15.872,52.638,24
33,Ługowo,15.623,51.9,20
33,Przystawy,16.413,54.318,20
55,Kikowo,16.277,53.884,33
94,Siecieborzyce,15.543,51.663,66
33,Borowy Młyn,15.804,52.426,24
46,Przeborowo,15.971,52.926,24
33,Drawiny,15.962,52.897,24
66,Bieleń,15.785,52.358,20
28,Tyczewo,16.315,53.979,20
28,Koźminek,15.739,52.215,20
46,Domasławice,16.444,54.389,20
24,Podbrzezie Górne,15.575,51.73,20
79,Szczeglino,16.381,54.181,39
55,Pobiedna,15.299,50.94,24
39,Wyszewo,16.361,54.112,28
55,Radostów Średni,15.364,51.121,33
39,Kocury,16.232,53.7,20
24,Kuźnica Drawska,16.21,53.626,20
24,Setnica,16.11,53.313,20
66,Tomisław,15.428,51.293,28
28,Zakrzewo,16.468,54.448,20
39,Kartowice,15.534,51.594,20
66,Piaski,16.253,53.757,24
33,Głęboka,15.676,52.005,20
46,Chełst,15.952,52.825,39
79,Nowogrodziec,15.396,51.197,66
33,Wolimierz,15.311,50.956,20
33,Nowy Kraków,16.442,54.356,20
24,Lelechów,15.611,51.81,20
160,Szprotawa,15.526,51.563,112
39,Sierczynek,15.806,52.381,20
55,Klępsk,15.717,52.115,24
24,Kierżno,15.419,51.256,20
24,Garbowo,16.147,53.412,20
134,Kożuchów,15.593,51.745,55
33,Niwka,16.196,53.554,20
24,Rogoziniec,15.786,52.304,20
33,Ługi,15.628,51.839,28
28,Zagórzyn,16.456,54.374,20
33,Droszków,15.66,51.931,33
24,Pękanino,16.426,54.271,20
33,Świechocin,15.851,52.488,20
28,Grabowo,16.432,54.29,20
55,Silna,15.841,52.457,33
28,Kwiejce,15.951,52.783,20
24,Będlino,16.167,53.442,20
28,Rybojady,15.823,52.393,20
24,Słocina,15.615,51.78,20
46,Stare Gonne,16.243,53.671,20
24,Krzewie Małe,15.363,51.054,20
39,Podbrzezie Dolne,15.612,51.765,20
24,Bielice Nowe,15.983,52.865,20
46,Olszyna,15.369,51.068,33
33,Mściszów,15.394,51.135,20
24,Żerdno,16.229,53.614,20
28,Dormowo,15.875,52.529,20
46,Podlegórz,15.714,52.047,20
39,Płociczno,16.122,53.275,33
66,Jeziorki,16.11,53.235,33
94,Krosino,16.305,53.842,55
24,Borek,15.707,52.021,20
33,Szczuczarz,16.049,53.043,28
33,Wielanowo,16.314,53.865,20
39,Wielowieś,15.898,52.582,20
33,Kamiennik,15.973,52.809,20
46,Załom,16.067,53.092,28
230,Międzychód,15.906,52.606,160
33,Łaz,15.685,51.949,20
66,Ledno,15.7,51.989,20
24,Giebułtów,15.348,50.978,20
28,Nowe Koprzywno,16.267,53.704,20
46,Kręcko,15.78,52.215,20
66,Golin,16.082,53.125,28
94,Barzowice,16.51,54.476,28
55,Warnino,16.347,53.949,20
24,Jasieniec,15.828,52.355,20
46,Hanki,16.147,53.321,28
28,Kołomąt,16.232,53.586,20
55,Borowina,15.584,51.635,20
66,Niedoradz,15.668,51.871,28
24,Stary Staw,15.648,51.809,20
33,Martew,16.108,53.179,20
112,Krzyż Wielkopolski,16.011,52.881,79
24,Biedrzychowice,15.381,51.041,20
33,Zabłocie,15.445,51.22,20
33,Dąbrówka Wielkopolska,15.81,52.276,28
66,Świelino,16.373,54.003,39
28,Jadwiżyn,16.147,53.287,20
39,Nowa Kopernia,15.563,51.541,20
28,Rzeczyca,16.137,53.247,20
28,Henryków,15.573,51.57,24
55,Nowe Kramsko,15.77,52.141,28
94,Jarosławiec,16.546,54.54,66
33,Wrociszów,15.647,51.779,20
79,Pławno,16.226,53.516,33
24,Sulimice,16.524,54.464,20
134,Czaplinek,16.239,53.554,112
33,Łeknica,16.303,53.755,24
112,Świeradów-Zdrój,15.344,50.911,94
33,Lubieszów,15.656,51.796,28
94,Sikory,16.257,53.608,39
39,Orłowice,15.355,50.935,20
46,Sośnica,16.202,53.433,33
55,Trzebiechów,15.735,52.022,24
28,Brzegi,16.03,52.904,20
39,Krupy,16.514,54.424,20
46,Laski,15.785,52.169,20
24,Gorzyca,16.48,54.306,20
28,Dzwonowo,16.087,53.07,20
24,Mieszkowo,15.734,52.011,20
79,Czarna,15.7,51.91,20
66,Kowalki,16.362,53.923,24
46,Brzeźnik,15.469,51.243,33
39,Stare Kramsko,15.769,52.107,24
79,Czarne Wielkie,16.276,53.647,33
79,Zabór,15.715,51.95,24
28,Tarnawa,15.72,51.964,20
112,Gwiazdowo,16.292,53.689,33
24,Bylica,16.545,54.498,20
24,Dargiń,16.395,54.014,20
33,Mroczkowice,15.372,50.955,20
112,Jabłonka Stara,15.881,52.419,28
39,Wojęcino,16.388,53.982,20
24,Darżewo,16.407,54.04,20
94,Łowyń,15.908,52.5,66
66,Niemica,16.48,54.275,28
66,Nosibądy,16.362,53.892,39
46,Podmokle Małe,15.807,52.191,20
39,Brzeziniec,15.39,50.991,20
28,Ostrzyce,15.759,52.05,20
55,Drawsko,16.03,52.854,20
134,Mirsk,15.385,50.97,46
46,Solniki,15.648,51.718,20
66,Gościszów,15.453,51.162,33
39,Długie,15.626,51.653,20
33,Wolbromów,15.437,51.112,24
160,Trzciel,15.869,52.363,79
39,Kusice,16.48,54.249,20
134,Kwiejce Nowe,16,52.75,33
39,Słowino,16.515,54.358,28
39,Smolno Wielkie,15.776,52.071,39
94,Huta Szklana,16.06,52.921,33
66,Nacmierz,16.565,54.509,24
24,Piekary,16.262,53.542,20
192,Tuczno,16.151,53.189,79
24,Mierzwin,15.488,51.231,20
39,Bronikowo,16.188,53.303,20
276,Człopa,16.121,53.088,160
230,Gryfów Śląski,15.419,51.028,66
24,Kotlina,15.382,50.921,20
28,Psie Głowy,16.255,53.496,20
39,Dobra,15.514,51.282,24
24,Otrzep,16.234,53.42,20
33,Lubcz Mały,16.067,52.905,20
46,Lutol Mokry,15.868,52.307,20
79,Malechowo,16.515,54.306,39
112,Marcinkowice,16.186,53.268,55
66,Przelewice,16.109,53.03,28
46,Ocice,15.489,51.202,33
46,Toporzyk,16.22,53.366,20
46,Rząsiny,15.449,51.08,24
39,Lubiesz,16.185,53.248,20
66,Stary Jarosław,16.55,54.402,66
66,Modrzyca,15.715,51.834,24
66,Leszno Dolne,15.605,51.514,28
24,Powidz,16.485,54.185,20
24,Chorzępowo,15.991,52.645,20
46,Sucha,16.379,53.839,28
39,Buczek,15.588,51.46,20
33,Borów Polski,15.671,51.697,20
46,Smęcino,16.414,53.948,24
39,Trzebin,16.132,53.068,20
39,Bobrowniki,15.731,51.866,28
28,Grzybnica,16.446,54.044,20
39,Dąbrowa,15.747,51.911,24
28,Wszedzień,16.584,54.487,20
192,Babimost,15.834,52.165,66
112,Barwice,16.352,53.74,112
28,Piotry,15.933,52.452,20
28,Lasocin,15.688,51.729,20
24,Kamionka,16.395,53.863,20
24,Ostrowąsy,16.37,53.781,20
28,Drawski Młyn,16.074,52.86,20
79,Klenica,15.783,51.992,28
24,Czaplice,16.154,53.094,20
24,Mlądz,15.423,50.948,20
24,Nowe Żabno,15.709,51.764,24
46,Piłka,16.056,52.79,39
33,Sulechowo,16.531,54.272,24
33,Otok,15.527,51.233,20
33,Rakowice,15.533,51.249,20
28,Łącko,16.609,54.519,20
94,Świerczyna,16.271,53.438,66
39,Kozłów,15.599,51.431,20
66,Niwnice,15.492,51.125,28
24,Malechówko,16.549,54.315,20
112,Leszno Górne,15.617,51.478,66
112,Kłanino,16.463,54.03,66
33,Bolesławice,15.551,51.28,20
46,Mnichy,15.983,52.539,20
33,Ławica,16.008,52.615,20
66,Zdbowo,16.207,53.22,28
55,Stara Oleszna,15.599,51.412,24
39,Dębogóra,16.128,52.976,24
39,Mieszałki,16.42,53.885,24
28,Strzyżewo,15.897,52.281,20
33,Popowo,16.004,52.597,20
33,Sucha Dolna,15.656,51.573,28
28,Nowa,15.525,51.195,20
28,Piecnik,16.25,53.344,28
39,Jatynia,16.451,53.974,20
55,Broczyno,16.309,53.526,33
24,Pieczyska,16.149,53.032,20
33,Gieczynek,16.139,53.001,20
39,Pęckowo,16.086,52.835,20
46,Sowno,16.519,54.184,28
33,Radoniów,15.462,51.007,20
39,Trzciniec,16.306,53.507,20
33,Dąbrówka,15.819,52.027,24
39,Prusim,16.005,52.58,20
24,Przychodzko,15.917,52.314,24
46,Gościeszowice,15.677,51.611,20
55,Boleszewo,16.581,54.372,24
33,Golnice,15.585,51.347,20
28,Rekowo,16.502,54.115,20
46,Lewiczynek,15.96,52.438,28
24,Radusz,16.427,53.873,20
46,Przecznica,15.439,50.929,20
276,Trzebień,15.6,51.384,94
24,Łąka,15.57,51.299,20
46,Strzaliny,16.21,53.19,24
24,Kobylarnia,16.031,52.643,20
331,Bolesławiec,15.559,51.262,134
66,Lewice,15.978,52.474,33
28,Śmilcz,16.392,53.743,20
24,Stara Wieś,15.747,51.79,20
39,Nowa Wieś Zbąska,15.886,52.198,20
160,Zbąszyń,15.907,52.255,112
33,Zachodzko,15.956,52.398,20
24,Kłosowice,16.034,52.631,20
24,Paproty,16.568,54.296,20
24,Miłogoszcz,16.208,53.156,24
33,Stary Kraków,16.614,54.438,33
28,Kłosowo,16.286,53.393,20
46,Mycielin,15.698,51.633,20
46,Czarne Małe,16.336,53.549,20
112,Nacław,16.524,54.141,79
55,Miedzichowo,15.953,52.375,39
33,Młynkowo,15.793,51.904,20
79,Stary Chwalim,16.411,53.776,33
160,Bojadła,15.813,51.955,79
33,Oleszna Podgórska,15.491,51.031,20
112,Grzmiąca,16.434,53.836,79
66,Dobrociechy,16.482,53.99,33
46,Wąchabno,15.872,52.12,24
39,Ronino,16.632,54.472,24
55,Bukowo,16.202,53.101,28
33,Łęczno,15.955,52.353,20
55,Kiełcz,15.755,51.763,28
33,Włodzice Wielkie,15.552,51.18,20
39,Przyborów,15.769,51.801,28
33,Zawada,15.979,52.42,20
33,Stany,15.785,51.844,20
46,Karsinka,16.522,54.093,20
24,Chalin,16.041,52.601,20
79,Górnica,16.289,53.356,24
39,Krzyżkówko,16.006,52.494,20
39,Rzyszczewo,16.6,54.34,28
33,Popęszyce,15.728,51.672,20
33,Mechnacz,16.029,52.559,24
28,Królewo,16.655,54.515,20
39,Nowa Wieś,15.61,51.33,20
33,Grójec Mały,15.904,52.182,20
94,Nowe Miasteczko,15.736,51.69,39
79,Perzyny,15.917,52.218,20
66,Rejów,15.749,51.723,28
24,Wielboki,16.317,53.425,24
33,Wielawino,16.437,53.802,20
160,Kargowa,15.87,52.074,79
94,Kraśnik Dolny,15.606,51.309,39
46,Siadcza,15.848,52.004,20
24,Godzisław,16.468,53.894,20
33,Przyprostynia,15.929,52.238,20
46,Bełcze,15.843,51.982,24
39,Garbno,16.54,54.11,20
55,Okole,16.398,53.655,24
55,Płóczki Górne,15.533,51.082,24
24,Proszowa,15.478,50.923,20
33,Suszki,15.575,51.195,20
94,Niegosławice,15.713,51.588,46
79,Lejkowo,16.586,54.247,20
33,Jabłonowo,16.297,53.331,20
39,Święcianowo,16.594,54.269,28
79,Karszyn,15.866,52.029,39
192,Machliny,16.347,53.481,33
33,Żegocino,16.601,54.284,24
112,Łomnica,15.962,52.307,28
24,Błaki,16.004,52.431,24
28,Żerkowice,15.567,51.155,20
24,Kartno,15.843,51.948,20
28,Chudaczewko,16.656,54.452,20
160,Laski,16.578,54.2,20
24,Borkowo,16.588,54.232,24
33,Zębówko,16.023,52.476,20
55,Ostropole,16.428,53.717,33
55,Góra,16.073,52.621,20
46,Kiełpino,16.419,53.683,28
33,Przystawy,16.478,53.869,20
46,Dębołęka,16.324,53.383,20
66,Lipiny,15.818,51.86,28
46,Chobienice,15.921,52.164,46
28,Przydargiń,16.521,54.001,20
39,Knyki,16.444,53.754,20
112,Sieraków,16.085,52.647,79
55,Rusinowo,16.254,53.161,20
39,Rakowice Wielkie,15.566,51.13,20
39,Lubogoszcz,16.464,53.816,20
39,Ubiedrze,16.529,54.018,24
94,Łubowo,16.392,53.587,66
28,Górsko,16.687,54.529,20
33,Rudziny,15.721,51.569,20
55,Rutwica,16.278,53.228,33
28,Kruszyn,15.614,51.26,28
55,Wieleń,16.17,52.892,55
39,Łaziska,15.608,51.24,20
33,Grudza,15.505,50.947,24
28,Toczeń,15.994,52.359,20
33,Bucharzewo,16.102,52.677,24
24,Nobliny,16.391,53.562,20
66,Dzierżążno Wielkie,16.206,52.986,66
79,Mielęcin,16.256,53.136,28
28,Motarzewo,16.373,53.493,20
33,Bycz,15.787,51.728,20
24,Susłów,15.879,51.993,20
24,Popielówek,15.53,50.987,20
39,Miłostowo,16.055,52.51,33
28,Przemyśl,16.087,52.606,20
28,Ostroróg,16.395,53.55,28
33,Bukowo,16.592,54.173,20
55,Nakielno,16.303,53.262,28
24,Storkowo,16.474,53.794,20
46,Kopanica,15.918,52.096,24
33,Bukowica,15.766,51.648,20
24,Stara Jabłona,15.759,51.627,20
39,Marszewo,16.7,54.511,24
39,Piotrowice,15.724,51.522,33
79,Czechy,16.508,53.889,46
39,Przecław,15.753,51.604,20
46,Dzierżążno Małe,16.232,53.025,28
160,Lwówek Śląski,15.581,51.109,134
24,Zielenica,16.619,54.241,20
28,Głodowa,16.538,53.979,24
46,Dadzewo,16.587,54.127,24
55,Chromiec,15.509,50.894,28
39,Radosław,16.679,54.42,20
24,Kałądek,16.202,52.911,20
24,Janice,15.534,50.955,20
33,Stare Jaroszowice,15.624,51.208,20
55,Siedlisko,15.821,51.772,33
33,Uniemino,16.442,53.642,20
24,Godziszewo,15.968,52.194,20
66,Rudki,16.367,53.402,39
24,Grobia,16.112,52.616,20
55,Pławna Górna,15.573,51.046,28
39,Prusinowo Wałeckie,16.308,53.208,20
28,Chmielno,15.61,51.141,20
39,Krzyżowa,15.675,51.325,33
33,Nowy Chwalim,16.487,53.76,20
192,Sławno,16.674,54.357,134
24,Jeziorki,16.47,53.704,20
28,Stary Jaromierz,15.936,52.078,20
28,Złakowo,16.725,54.522,20
112,Baniewo,16.658,54.3,46
33,Kolno,16.359,53.351,20
33,Wojciechów,15.563,50.998,28
39,Kuźniczka,16.23,52.951,20
79,Kurowo,16.577,54.037,55
79,Lubno,16.349,53.314,28
94,Wołowe Lasy,16.28,53.098,66
39,Pieńkówko,16.712,54.464,20
134,Lubięcin,15.877,51.891,33
66,Świerczyna,16.618,54.157,33
134,Bytom Odrzański,15.824,51.732,66
33,Węgielnia,16.056,52.406,20
28,Sławno,16.526,53.853,24
33,Ustronie,15.632,51.172,20
33,Wierzbnica,15.817,51.702,20
24,Jaromierz,15.953,52.099,20
24,Chełmek,15.879,51.88,20
28,Białęcino,16.653,54.255,20
39,Żeliszów,15.64,51.191,28
24,Nieborza,15.971,52.148,20
46,Uście,15.93,52.022,33
24,Kocień Wielki,16.246,52.962,20
28,Rosocha,16.611,54.101,20
79,Zębowo,16.083,52.465,46
28,Warta Bolesławiecka,15.662,51.233,24
66,Konotop,15.904,51.931,46
24,Jacinki,16.623,54.132,20
33,Rzyszczewko,16.636,54.173,20
46,Golejów,15.59,51.024,20
46,Liszkowo,16.452,53.581,28
55,Szklarska Poręba,15.521,50.827,39
28,Piława,16.463,53.617,20
46,Ostrowiec,16.67,54.276,20
55,Gozd,16.587,54.005,24
79,Sławsko,16.708,54.393,20
46,Grudna,16.077,52.422,24
55,Kwasowo,16.691,54.325,20
24,Pasiecznik,15.573,50.957,20
55,Pomorzany,16.584,53.98,20
46,Zimna Brzeźnica,15.818,51.653,33
33,Nowa Jabłona,15.81,51.629,20
46,Kaczlin,16.161,52.662,28
39,Krągłe,16.558,53.877,20
24,Różyniec,15.709,51.32,20
39,Wrzeszczyna,16.239,52.877,33
24,Lutomek,16.15,52.604,20
33,Wituchowo,16.126,52.528,24
28,Warszkowo,16.715,54.366,20
28,Pomiłowo,16.707,54.337,20
66,Staniewice,16.737,54.435,20
46,Zaleskie,16.765,54.521,24
46,Żodyń,15.991,52.115,20
160,Karsibór,16.399,53.349,55
33,Mościejewo,16.149,52.582,20
33,Borówki,15.733,51.362,24
33,Różanówka,15.873,51.765,28
39,Obra Dolna,15.975,52.061,20
28,Nowe Jastrzębsko,16.047,52.274,20
192,Przemków,15.793,51.526,79
39,Mesze,15.925,51.908,20
79,Silnowo,16.493,53.629,33
24,Kusowo,16.551,53.811,20
79,Siedlec,16.004,52.138,46
55,Linie,16.123,52.493,24
39,Zbylutów,15.66,51.142,39
24,Radomice,15.61,50.996,20
24,Jastrzębsko Stare,16.061,52.299,24
24,Ryżyn,16.174,52.639,20
46,Przeradz,16.542,53.774,39
39,Jesiona,15.954,51.98,20
28,Komorowo,16.114,52.449,20
28,Wymyślanka,16.121,52.467,20
33,Dworek,15.652,51.103,20
66,Łozice,16.591,53.914,28
39,Szczytnica,15.716,51.278,20
55,Barcinek,15.598,50.944,20
94,Starowice,16.471,53.531,39
39,Modlinek,16.794,54.563,20
39,Możdżanowo,16.776,54.502,20
79,Wierzbowa,15.761,51.399,33
24,Reklin,16.023,52.16,20
39,Wilcze,15.977,52.023,24
46,Kromnów,15.584,50.893,20
24,Izdebno,16.194,52.663,20
24,Raciborowice Dolne,15.695,51.198,20
112,Kolsko,15.96,51.961,24
55,Strączno,16.387,53.244,39
24,Przyłęg,16.322,53.042,20
39,Radacz,16.536,53.709,20
28,Jażyniec,16.002,52.079,20
33,Marczów,15.644,51.044,20
46,Golce,16.43,53.371,20
33,Klecza,15.632,51.007,20
24,Chociwle,16.619,53.964,20
46,Mężyk,16.253,52.819,24
55,Raciborowice Górne,15.697,51.186,55
46,Chojno-Wieś,16.214,52.699,33
55,Łężce,16.181,52.596,24
39,Ostaszów,15.823,51.542,20
55,Niemierzewo,16.169,52.561,20
24,Białcz,16.192,52.626,20
55,Pieszcz,16.777,54.458,46
134,Tuchorza,16.045,52.186,39
24,Kiełkowo,16.019,52.108,20
33,Rudno,15.985,52.007,20
94,Krąg,16.702,54.21,28
112,Bolewice,16.118,52.397,46
28,Dobrzejowice,15.886,51.712,20
24,Dzików,15.855,51.617,20
24,Łupki,15.649,51.021,20
28,Ługi Wałeckie,16.393,53.215,20
33,Wietrzno,16.667,54.078,20
46,Sobota,15.672,51.083,46
46,Górawino,16.649,54.017,20
24,Warszkówko,16.758,54.37,20
94,Boruja,16.068,52.228,28
66,Osła,15.757,51.32,33
94,Iwiny,15.722,51.217,24
46,Pilchowice,15.638,50.979,28
24,Skorzynice,15.697,51.144,20
28,Kromolin,15.886,51.684,20
46,Nowe Dwory,16.296,52.902,20
230,Polanów,16.685,54.118,112
28,Łączno,16.533,53.632,20
33,Bielanka,15.69,51.117,20
24,Chudobczyce,16.166,52.498,20
39,Grońsko,16.142,52.426,20
24,Wilkocin,15.824,51.492,20
55,Kłębowiec,16.436,53.318,24
46,Lubiatów,15.973,51.921,24
28,Stara Tuchorza,16.058,52.172,20
33,Kiełpiny,16.052,52.151,24
39,Gwiazdowo,16.75,54.308,28
79,Gromadka,15.781,51.358,55
79,Duninowo,16.822,54.54,33
24,Rybnica,15.626,50.916,24
33,Rychlik,16.338,53.002,24
39,Szarki,16.089,52.251,20
46,Wrześnica,16.782,54.4,28
28,Dalków,15.889,51.661,28
39,Górczyca,15.681,51.065,20
112,Gaworzyce,15.878,51.627,39
66,Lubosz,16.186,52.53,39
28,Nowa Tuchorza,16.077,52.201,20
28,Nowa Obra,16.03,52.062,20
28,Przyłęki,16.335,52.977,20
24,Pasternik,15.805,51.405,20
94,Chrzypsko Wielkie,16.221,52.627,66
33,Powodowo,16.052,52.121,24
79,Bielawy,15.933,51.77,55
46,Smolarnia,16.356,53.031,20
28,Sławocin,16.005,51.979,20
28,Zielonowo,16.319,52.915,20
66,Nadarzyce,16.498,53.465,55
33,Tyrszeliny,16.003,51.966,20
112,Wleń,15.674,51.017,66
24,Przeździedza,15.687,51.053,20
55,Brzeźno,16.61,53.812,28
66,Parsęcko,16.584,53.726,55
46,Mylin,16.236,52.648,20
33,Kucharowo,16.568,53.672,20
28,Sędzimirów,15.729,51.163,20
94,Obra,16.045,52.074,33
39,Nielestno,15.671,50.997,20
24,Krzemienica,16.824,54.489,20
276,Borne Sulinowo,16.539,53.575,112
24,Lubowo,16.258,52.709,20
66,Brzeg Głogowski,15.917,51.697,46
24,Wrzeszczyn,15.653,50.943,20
192,Rosko,16.313,52.874,66
55,Konin,16.183,52.477,24
46,Porost,16.653,53.93,33
24,Chojniki,16.121,52.285,20
28,Dłużec,15.707,51.085,20
79,Janiewice,16.762,54.272,46
46,Grąbczyn,16.641,53.879,20
276,Nowy Tomyśl,16.129,52.304,230
24,Wysoka,15.85,51.48,24
94,Biała,16.307,52.83,33
94,Wielin,16.733,54.16,33
134,Lwówek,16.183,52.45,46
55,Straduń,16.381,53.051,39
33,Pałówko,16.819,54.435,20
24,Józefowo,16.177,52.431,20
33,Średnica,16.346,52.937,20
33,Kuźnica Zbąska,16.107,52.217,20
160,Gostomia,16.429,53.189,39
24,Pożarowo,16.266,52.689,20
79,Drzewiany,16.687,53.991,39
39,Czaple,15.737,51.131,20
46,Swołowo,16.839,54.477,28
24,Patoka,15.819,51.358,20
79,Rzecin,16.297,52.767,39
79,Boruja Kościelna,16.132,52.269,28
66,Dalęcino,16.617,53.755,24
33,Okmiany,15.787,51.261,33
28,Białokosz,16.237,52.575,20
28,Skidniów,15.947,51.717,20
55,Zdbice,16.501,53.378,33
33,Zamorze,16.215,52.5,20
66,Mosina,16.602,53.686,28
28,Podgóry,16.768,54.215,20
39,Wytomyśl,16.175,52.375,28
55,Stary Tomyśl,16.164,52.339,28
28,Pęplino,16.866,54.528,20
276,Wałcz,16.472,53.273,160
33,Żukowo,16.794,54.288,20
55,Krągi,16.58,53.602,24
39,Ciosaniec,16.036,51.948,33
24,Modrzewie,15.708,51.002,20
33,Gać,16.852,54.46,20
24,Sypniewko,16.541,53.465,20
46,Chmielinko,16.198,52.412,24
94,Jakubowo Lubińskie,15.877,51.467,39
33,Groble,15.817,51.296,20
33,Kłobuczyn,15.928,51.615,24
66,Chwiram,16.473,53.242,24
28,Siedlęcin,15.693,50.942,24
55,Buczyna,15.906,51.546,24
33,Bystrzyca,15.727,51.03,24
39,Lubocześnica,16.242,52.528,20
46,Krzywa,15.815,51.277,20
46,Gnuszyn,16.262,52.588,24
28,Rzeczyca Wielka,16.754,54.115,28
46,Dalęcinko,16.651,53.776,20
39,Kłoda,15.953,51.66,24
28,Mzdowo,16.773,54.163,20
79,Czernica,15.715,50.978,28
94,Jeleń,16.607,53.629,46
33,Przewłoka,16.903,54.579,20
33,Grodziec,15.785,51.169,20
46,Olszanica,15.799,51.206,28
55,Nowa Wieś Grodziska,15.779,51.148,39
46,Boruja Nowa,16.157,52.244,20
39,Gola,16.041,51.901,20
46,Biezdrowo,16.306,52.688,33
33,Bagno,16.063,51.963,20
39,Żabno,16.847,54.381,20
28,Błońsko,16.139,52.185,20
39,Bzowo,16.842,54.364,24
39,Stare Wierzchowo,16.681,53.845,33
112,Sycewice,16.863,54.422,66
24,Kikowo,16.281,52.599,20
33,Bełczyna,15.749,51.046,20
331,Wolsztyn,16.119,52.114,112
33,Rudka,16.263,52.543,20
33,Karpicko,16.125,52.129,20
28,Szreniawa,16.059,51.932,20
46,Radziechów,15.818,51.236,20
112,Radwanice,15.937,51.573,66
24,Ćmachowo,16.311,52.677,20
28,Biskupin,15.85,51.321,24
46,Wróblewo,16.309,52.666,20
46,Jelenino,16.628,53.652,20
46,Zgierzynka,16.243,52.464,24
33,Gołogóra,16.742,54.004,24
28,Wierzchowice,15.961,51.629,20
79,Jabłonów,15.918,51.504,55
66,Kębłowo,16.106,52.051,33
46,Grochowice,16.016,51.784,24
39,Osowo,16.809,54.216,24
28,Radzyń,16.045,51.869,20
192,Pniewy,16.261,52.508,160
46,Podgórzyn,15.684,50.834,39
46,Sarcz,16.447,53.069,24
24,Władysławowo,16.226,52.399,20
28,Żukowice,15.982,51.675,20
79,Jędrzejewo,16.396,52.906,24
28,Karmin,16.285,52.566,20
28,Róża,16.215,52.349,20
55,Zębowo,16.887,54.446,20
33,Ceber,15.999,51.713,20
39,Różewo,16.495,53.197,28
39,Runowo,16.42,52.966,20
28,Nowe Tłoki,16.147,52.142,20
33,Witków,15.856,51.291,20
28,Kłębanowice,15.945,51.545,20
33,Orle Wielkie,16.314,52.634,24
55,Pakosław,16.248,52.433,33
39,Sątopy,16.209,52.317,20
28,Ścięgnica,16.861,54.341,20
39,Nowy Żelibórz,16.774,54.059,24
24,Cicha Góra,16.203,52.289,24
94,Chocianów,15.904,51.417,79
46,Charnowo,16.926,54.545,28
33,Nojewo,16.312,52.605,33
33,Przesieczna,15.967,51.586,20
28,Płoszczyna,15.749,50.962,20
46,Janówek,15.761,50.996,20
46,Lipinki,16.056,51.842,33
55,Jeżów Sudecki,15.739,50.928,20
33,Rudka,16.44,52.984,20
33,Sieroszowice,15.951,51.53,24
230,Sława,16.072,51.881,134
24,Jadwisin,15.852,51.245,20
33,Borowice,15.693,50.795,20
276,Trzcianka,16.46,53.041,134
28,Dobrzęcino,16.89,54.394,20
39,Komorówko,16.18,52.189,20
39,Proboszczów,15.793,51.065,33
276,Jelenia Góra,15.736,50.902,276
39,Sępolno Małe,16.749,53.932,20
33,Wróblów,16.084,51.901,20
33,Gałęzinowo,16.932,54.523,20
55,Pielgrzymka,15.812,51.114,24
46,Rząśnik,15.778,51.016,24
39,Łupice,16.107,51.963,28
24,Głuchowo,16.338,52.649,20
24,Sitno,16.666,53.659,20
79,Wąsowo,16.244,52.364,55
33,Koninek,16.305,52.542,20
46,Nielubia,15.999,51.64,33
24,Spokojna,16.103,51.938,20
134,Sypniewo,16.607,53.467,79
94,Kotla,16.036,51.743,46
134,Rokitki,15.896,51.338,55
39,Osetnica,15.868,51.258,28
39,Parchów,15.948,51.484,20
112,Szwecja,16.573,53.348,66
79,Psarskie,16.322,52.579,20
46,Śmieszkowo,16.099,51.917,28
24,Nowa Róża,16.24,52.331,20
94,Wrząca,16.891,54.353,33
33,Słonowiczki,16.896,54.371,20
94,Krucz,16.413,52.846,24
55,Nowy Dwór,16.518,53.167,24
39,Dobino,16.539,53.232,20
33,Reblino,16.915,54.428,20
986,Szczecinek,16.692,53.71,397
24,Kruteczek,16.405,52.818,20
39,Staniszów,15.733,50.852,24
33,Wroniawy,16.153,52.06,24
28,Psarki,16.32,52.555,20
33,Runowo Sławieńskie,16.91,54.406,20
55,Bierkowo,16.934,54.483,39
28,Sosnówka,15.723,50.816,20
134,Korzybie,16.881,54.301,46
46,Zabiele,16.036,51.707,28
55,Płocko,16.834,54.146,20
39,Warcino,16.858,54.223,20
94,Jabłonna,16.208,52.206,46
39,Tłoki,16.177,52.111,20
24,Marianowo,16.367,52.681,20
33,Konin,16.315,52.524,24
66,Głodno,16.192,52.153,20
33,Chrośnica,15.787,50.98,20
79,Raków,15.926,51.374,20
160,Wronki,16.38,52.706,112
79,Sępolno Wielkie,16.78,53.95,39
28,Leżenica,16.526,53.152,20
39,Dziki,16.681,53.63,20
28,Kazimierz,16.754,53.862,20
33,Gajewo,16.452,52.919,28
39,Uniejowice,15.856,51.162,20
79,Przytocko,16.836,54.12,28
46,Chraplewo,16.283,52.401,20
94,Jasionna,16.401,52.755,39
33,Turowo,16.305,52.459,20
33,Obelzanki,16.398,52.739,20
66,Bukowiec,16.25,52.292,55
39,Kąkolewo,16.236,52.247,33
46,Chełmno,16.32,52.496,28
24,Osiniec,16.498,53.034,20
33,Krążkówko,16.077,51.77,20
46,Ciszkowo,16.448,52.875,24
28,Bydlino,16.974,54.538,20
33,Jastrzębnik,15.841,51.088,20
28,Chocianowiec,15.947,51.391,24
39,Rostarzewo,16.203,52.133,33
33,Przybyszów,16.119,51.882,24
33,Wojciechów,15.894,51.231,20
24,Kurowice,16.036,51.638,20
24,Moszowice,16.066,51.722,20
24,Radosiew,16.482,52.963,20
39,Wapniarnia Trzecia,16.513,53.058,20
28,Bolesławice,16.952,54.447,20
331,Kępice,16.889,54.241,112
28,Nowa Wieś,16.395,52.692,20
24,Nowa Wieś Lubińska,15.981,51.466,20
94,Biesowice,16.876,54.193,39
24,Potrzebowo,16.132,51.904,20
24,Binino,16.38,52.641,20
66,Witankowo,16.579,53.248,55
24,Potoczek,16.02,51.566,20
230,Mochy,16.17,52.002,39
66,Łomnica,16.534,53.098,33
33,Kępa,16.539,53.113,20
66,Dębina,17.018,54.637,24
24,Teresin,16.51,53.016,20
24,Koszanowo,16.342,52.507,20
55,Sworzyce,16.262,52.267,20
24,Bobulczyn,16.397,52.669,20
33,Gościeszyn,16.205,52.092,20
66,Stare Strącze,16.122,51.847,28
79,Kaszczor,16.161,51.958,33
28,Głuponie,16.304,52.383,20
46,Miłków,15.761,50.81,20
33,Chełminko,16.338,52.479,20
33,Zagórki,16.934,54.339,20
112,Krzepielów,16.105,51.788,39
66,Świerzenko,16.855,54.082,55
24,Stróżki,16.414,52.706,20
33,Wioska,16.243,52.189,20
39,Dęborzyce,16.367,52.558,20
28,Jerzmanice-Zdrój,15.875,51.115,24
28,Marcelin,16.744,53.718,24
112,Machowino,17.003,54.553,39
46,Kulów,16.097,51.754,20
66,Jerzmanowa,16.045,51.596,28
28,Widzino,16.968,54.428,20
160,Chojnów,15.933,51.272,112
94,Turowo,16.727,53.652,39
55,Biskupice,16.797,53.873,20
55,Karpacz,15.76,50.777,39
55,Głogówko,16.095,51.733,28
112,Nowy Kościół,15.864,51.069,46
66,Sucha Górna,16.029,51.538,28
24,Nowina,16.464,52.827,20
39,Włynkówko,16.997,54.506,28
24,Buszewo,16.373,52.547,20
33,Dąbrowica,15.805,50.891,20
24,Góra nad Notecią,16.485,52.882,20
24,Rojewo,16.276,52.251,20
46,Wiesiółka,16.611,53.27,20
66,Łąkie,16.227,52.105,20
24,Biała Wieś,16.286,52.277,20
28,Kuślin,16.315,52.363,20
66,Łomnica,15.8,50.869,33
79,Mysłakowice,15.787,50.83,28
28,Bródki,16.341,52.437,20
39,Solec Nowy,16.205,52.032,20
55,Malęcino,16.86,54.046,24
39,Czarna Wieś,16.27,52.223,20
33,Pokrzywnica,16.576,53.149,20
276,Głogów,16.075,51.649,192
39,Wilcze Laski,16.724,53.61,33
66,Rowy,17.051,54.665,46
39,Kończewo,16.966,54.382,28
46,Kłoda,16.571,53.129,20
33,Niewierz,16.349,52.451,24
24,Włynkowo,17.008,54.516,20
66,Brochocin,15.925,51.21,33
33,Ścięgny,15.778,50.793,20
94,Kuźnica Czarnkowska,16.515,52.95,39
33,Dobrojewo,16.415,52.646,20
39,Lubiechowa,15.851,50.995,24
55,Bądzów,16.054,51.569,20
39,Jaczów,16.075,51.629,20
28,Nowa Wieś Złotoryjska,15.912,51.161,24
33,Smardzów,16.072,51.613,20
134,Objazda,17.043,54.606,79
33,Koźle,16.399,52.574,20
55,Ciosaniec,16.694,53.48,39
46,Łukaszów,15.927,51.189,20
24,Kołtki,16.845,53.956,24
39,Obłęże,16.939,54.256,20
55,Radolin,16.544,53.009,24
33,Zofiowo,16.513,52.912,24
39,Nowa Wieś,16.215,52.012,24
33,Goraj,16.5,52.864,20
39,Kopanki,16.311,52.292,20
55,Darnowo,16.91,54.149,20
55,Sobin,16.033,51.475,24
66,Trzebnice,16.001,51.382,46
94,Wijewo,16.185,51.917,55
79,Czechyń,16.644,53.303,28
33,Żelice,16.935,54.223,24
55,Budziwojów,15.95,51.234,20
28,Sędziszowa,15.877,51.026,20
134,Biały Bór,16.835,53.898,79
33,Stajkowo,16.495,52.831,20
79,Serby,16.111,51.683,28
94,Podrzewie,16.386,52.494,33
46,Kaliska,16.849,53.924,20
28,Kostrzyca,15.81,50.816,20
24,Jaroszówka,15.986,51.314,20
24,Przylesie,16.183,51.885,20
33,Dębina,16.403,52.536,20
24,Michałów,16.001,51.355,20
66,Brzeźnica,16.695,53.431,46
94,Michorzewo,16.349,52.374,46
24,Wojanów,15.832,50.873,20
33,Nowe Strącze,16.178,51.865,24
66,Kobylnica,17.011,54.436,24
55,Barcino,16.963,54.277,33
160,Złotoryja,15.924,51.126,112
55,Biała,16.829,53.845,24
24,Jędrzychów,16.041,51.455,20
28,Łosino,17.007,54.411,20
66,Gwda Wielka,16.798,53.737,46
33,Radomyśl,16.195,51.895,20
39,Jastrzębniki,16.344,52.334,20
33,Goliszów,15.984,51.28,24
33,Goździn,16.29,52.166,20
24,Lasówki,16.32,52.253,20
24,Gatka,16.9,54.045,20
46,Koźmin,16.468,52.694,24
55,Klempicz,16.493,52.766,33
33,Zajączkowo,17.01,54.395,20
39,Szklary Dolne,16.041,51.424,24
39,Tarnowa,16.272,52.096,24
112,Lubasz,16.522,52.847,46
24,Moskorzyn,16.083,51.542,20
79,Śliwno,16.378,52.409,28
28,Strupice,15.969,51.212,20
33,Zapust,16.445,52.61,20
55,Wilków,15.928,51.091,28
24,Gnin,16.308,52.192,20
79,Ostroróg,16.453,52.627,66
28,Krogulec,15.84,50.839,20
33,Żabice,16.026,51.365,20
160,Świerzawa,15.902,51.012,55
39,Porażyn,16.351,52.312,28
192,Polkowice,16.076,51.503,79
24,Miłkowo,16.52,52.817,20
39,Karzcino,17.069,54.554,20
28,Zdrój,16.323,52.222,20
112,Otorowo,16.436,52.562,55
33,Wygnańczyce,16.191,51.831,20
33,Swochowo,17.06,54.518,20
55,Dębe,16.542,52.877,20
33,Turów,16.12,51.615,20
112,Duszniki,16.404,52.449,66
79,Płaszewo,17.003,54.321,24
28,Samborsko,16.72,53.415,20
33,Kluczewo,16.47,52.643,20
24,Krzeszkowice,16.434,52.535,20
55,Drzonowo,16.848,53.814,33
28,Krzekotów,16.155,51.706,20
79,Siemianice,17.061,54.501,28
134,Kowary,15.836,50.793,79
33,Tursko,16.945,54.121,20
55,Żółtnica,16.805,53.672,33
112,Terespol,16.282,52.073,20
33,Walkowice,16.596,53.018,24
94,Kwakowo,17.023,54.368,39
33,Dębsko,16.299,52.12,20
46,Lubuczewo,17.075,54.536,28
33,Dobroszów,16,51.248,20
28,Kwielice,16.122,51.595,24
24,Olejnica,16.249,51.961,20
33,Romanowo Górne,16.591,52.989,33
46,Karpniki,15.864,50.852,24
24,Trzcińsko,15.875,50.878,20
33,Guzice,16.104,51.53,20
55,Słocin,16.352,52.256,24
28,Sękowo,16.434,52.5,24
39,Broczyna,16.965,54.15,24
28,Brennik,15.982,51.171,20
39,Pniewo,16.749,53.459,24
79,Stobno,16.63,53.091,33
39,Klucze,16.16,51.682,20
33,Pątnów,16.003,51.231,20
33,Kruszyna,17.027,54.346,20
28,Brzeźnica,16.887,53.892,24
24,Cyk,16.648,53.139,20
79,Ruchocice,16.333,52.181,39
24,Zakrzewko,16.412,52.413,20
24,Ogrodzisko,16.056,51.366,20
24,Trzebcz,16.109,51.517,20
39,Brunów,16.065,51.39,28
79,Kotuń,16.649,53.128,24
55,Łysiny,16.213,51.815,33
112,Lotyń,16.803,53.604,55
55,Biedrzychowa,16.097,51.475,20
28,Romanowo Dolne,16.593,52.949,28
46,Gruszków,15.869,50.824,20
39,Trzmielewo,16.884,53.858,24
46,Lisiec,16.045,51.324,28
33,Krępa Słupska,17.058,54.417,24
24,Bronowo,17.009,54.259,20
24,Retowo,17.123,54.633,20
24,Lipnica,16.47,52.57,20
160,Stara Łubianka,16.687,53.23,55
55,Okunino,16.952,54.066,24
33,Rudki,16.485,52.606,20
39,Duża Wólka,16.135,51.57,20
33,Sławno,16.562,52.839,20
39,Szklary Górne,16.091,51.44,24
33,Rokitnica,15.982,51.128,20
33,Bukowna,16.046,51.308,20
24,Niedźwiedzice,16.038,51.283,20
39,Borek,16.165,51.647,20
28,Radomierz,16.281,51.981,20
134,Grodzisk Wielkopolski,16.364,52.227,112
112,Przemęt,16.292,52.012,55
28,Radomierz,15.908,50.905,20
66,Gola,16.201,51.743,24
24,Płaszewko,17.071,54.427,20
24,Gradowice,16.338,52.144,20
28,Pólko,16.465,52.521,20
24,Strużnica,15.887,50.839,20
28,Stare Drzewce,16.213,51.771,28
112,Obrzycko,16.527,52.704,66
33,Szczepankowo,16.501,52.622,24
24,Komiłowo,17.054,54.358,20
28,Dyminek,16.876,53.778,20
24,Wrzeście,17.114,54.546,20
33,Kondratów,15.967,51.049,28
33,Śmieszkowo,16.592,52.884,20
33,Miłocice,16.934,53.954,24
24,Turkowo,16.43,52.393,20
66,Zaborówiec,16.27,51.915,28
39,Czysta,17.14,54.62,20
134,Opalenica,16.405,52.31,66
24,Żuków,16.145,51.544,20
33,Lubuń,17.071,54.383,20
94,Lubiatów,16.028,51.204,46
39,Błotnica,16.3,51.993,20
46,Prusice,15.993,51.105,33
112,Borucino,16.791,53.485,46
46,Dobków,15.952,50.987,28
28,Niegolewo,16.429,52.366,20
66,Grębocice,16.169,51.598,55
55,Komorniki,16.145,51.529,28
46,Leszczyna,15.99,51.083,20
94,Janowice Wielkie,15.917,50.876,55
39,Ernestynów,16.02,51.168,20
28,Wilków,16.203,51.696,20
28,Drawień,16.851,53.659,20
39,Myślimierz,17.047,54.285,20
28,Jezierzyce,17.112,54.494,20
33,Brzeźno,16.611,52.905,20
24,Grąblewo,16.391,52.237,20
33,Hetmanice,16.264,51.859,20
46,Wielichowo,16.351,52.116,39
33,Siekówko,16.324,52.034,20
33,Gumieniec,17.044,54.259,28
39,Kunowo,16.466,52.454,20
28,Dąbrowa,16.143,51.5,20
28,Ogorzelec,15.885,50.763,24
55,Głobino,17.103,54.44,20
33,Gorzyca,16.102,51.372,20
46,Rydzynka,16.813,53.505,20
46,Urbanowo,16.41,52.27,28
55,Łubnica,16.372,52.153,20
33,Dominice,16.3,51.94,20
66,Grabowo,16.938,53.89,24
39,Czarnów,15.904,50.797,20
39,Sarbia,16.468,52.434,20
33,Sokolniki Wielkie,16.502,52.534,28
397,Miastko,16.973,53.996,230
28,Zamysłów,16.234,51.735,20
94,Miłkowice,16.069,51.256,55
55,Redzikowo,17.12,54.47,28
33,Zielęcin,16.384,52.173,20
112,Brzezie,16.926,53.837,46
33,Tarnówek,16.16,51.512,20
55,Kobylniki,16.553,52.673,20
24,Jastrowo,16.527,52.593,20
55,Jędrzejewo,16.61,52.844,28
28,Sędzinko,16.463,52.4,20
55,Brodziszewo,16.519,52.569,24
24,Grodowiec,16.172,51.543,20
33,Siekowo,16.35,52.052,20
28,Troszczyn,16.428,52.283,20
46,Skoki,16.861,53.61,20
24,Stanisławów,16.014,51.07,20
46,Żelkówko,17.092,54.343,33
46,Grzymalin,16.087,51.278,20
28,Tarnówko,16.594,52.774,24
33,Łaźniki,16.032,51.119,20
94,Bożanka,17.031,54.144,33
55,Bielica,16.919,53.784,39
28,Boszkowo,16.328,51.975,20
66,Kaczorów,15.958,50.909,24
39,Łagwy,16.454,52.348,20
66,Kruszewo,16.66,52.973,33
66,Obora,16.138,51.418,33
79,Krotoszyce,16.045,51.147,39
24,Mniszków,15.945,50.862,20
66,Bytyń,16.504,52.488,39
94,Węgorzynko,17.002,54.036,20
24,Śmiłowo,16.547,52.615,20
24,Pasieka,16.986,53.983,20
33,Ziemin,16.375,52.099,20
66,Droglowice,16.228,51.666,20
24,Czerwony Kościół,16.063,51.19,20
134,Szlichtyngowa,16.243,51.708,66
46,Ptusza,16.792,53.365,33
28,Nowa Wieś,16.287,51.836,20
134,Jastrowie,16.812,53.422,112
28,Górczyna,16.25,51.722,20
24,Snowidowo,16.431,52.246,20
134,Okonek,16.852,53.536,94
33,Mysłów,15.978,50.933,20
33,Bucze,16.216,51.612,24
46,Sarbia,16.661,52.941,24
33,Mirosław,16.693,53.036,20
33,Konradowo,16.274,51.779,20
46,Ujazd,16.418,52.198,24
66,Pomocne,16.021,51.044,33
46,Paczyn,15.914,50.739,20
39,Opawa,15.9,50.7,20
46,Ługi Ujskie,16.712,53.078,20
46,Wojnowice,16.466,52.329,24
28,Pawłówko,16.477,52.364,20
33,Zalesie,16.484,52.383,20
28,Rędziny,15.943,50.814,20
24,Gorszewice,16.53,52.521,20
28,Wiercień,16.115,51.3,20
28,Szarocin,15.93,50.771,20
112,Jabłonowo,16.691,53.005,24
55,Pieniężnica,16.964,53.859,20
33,Dretynek,17.024,54.052,20
28,Kandlewo,16.275,51.756,20
24,Trzcinica,16.404,52.134,20
94,Grodziszcze,16.206,51.553,33
55,Muchów,16.021,51.019,20
94,Smołdzino,17.215,54.665,79
79,Krępsko,16.779,53.263,33
55,Kluczewo,16.374,52.035,24
55,Płytnica,16.792,53.304,28
28,Kozłowo,16.466,52.307,20
24,Witkowice,16.529,52.497,20
94,Młynkowo,16.632,52.807,55
39,Pęcław,16.241,51.642,39
33,Gałowo,16.564,52.598,20
33,Krzeczyn Wielki,16.151,51.378,20
24,Wilkowo,16.5,52.399,20
24,Sichów,16.054,51.096,20
24,Ptaszkowo,16.444,52.227,24
66,Mielno,17.112,54.3,39
33,Wierzeja,16.51,52.417,20
39,Jaszków,16.096,51.203,20
24,Sichówek,16.063,51.109,20
39,Wyszanów,16.265,51.689,20
39,Szymanowice,16.086,51.17,20
94,Zielin,17.099,54.247,39
28,Grotniki,16.356,51.949,20
24,Kowalewo,16.434,52.176,20
33,Śniaty,16.398,52.068,20
39,Krzywań,17.153,54.413,20
46,Żelkowo,17.208,54.592,20
55,Smołdziński Las,17.238,54.69,20
46,Ulesie,16.11,51.222,24
33,Węgorzewo,16.902,53.598,33
24,Borzysław,16.448,52.207,20
134,Ujście,16.728,53.053,79
24,Komorzewo,16.664,52.855,20
33,Młodasko,16.54,52.477,20
28,Świdnik,15.998,50.892,20
39,Łomczewo,16.893,53.554,20
39,Pisarzowice,15.961,50.783,33
66,Boruszyn,16.641,52.772,28
1183,Piła,16.765,53.152,571
46,Dobrzyca,16.786,53.219,39
55,Grzebienisko,16.529,52.433,39
79,Dłużyna,16.373,51.969,20
33,Płonina,16.005,50.906,20
160,Wschowa,16.319,51.802,134
39,Parzęczewo,16.435,52.145,20
46,Woźniki,16.469,52.245,20
33,Paliszewo,16.693,52.923,20
39,Reńsko,16.42,52.098,20
28,Przyborówko,16.578,52.571,20
28,Plecemin,16.809,53.276,20
66,Gębice,16.689,52.906,46
55,Winnica,16.085,51.12,24
33,Piotrkówko,16.608,52.653,20
66,Trzcinno,17.068,54.087,39
134,Czarne,16.941,53.679,112
33,Chróstnik,16.171,51.355,28
79,Osowa Sień,16.338,51.838,28
46,Nowa Wieś Wielka,16.044,50.99,20
79,Huta,16.682,52.865,33
46,Włoszakowice,16.372,51.934,46
33,Rynarcice,16.214,51.474,20
24,Borek,16.409,52.042,20
55,Podgaje,16.881,53.475,46
28,Jaryszewo,16.625,52.683,20
24,Barchlin,16.404,52.016,20
28,Warblewko,17.185,54.444,20
46,Warblewo,17.181,54.431,24
28,Szczepanów,15.946,50.698,20
39,Raszów,15.983,50.801,20
28,Radzyny,16.581,52.54,20
112,Buk,16.52,52.355,55
24,Nowe Rochowice,16.032,50.936,20
192,Dębnica Kaszubska,17.165,54.37,79
39,Kochlice,16.156,51.286,20
33,Łękinia,17.021,53.902,24
28,Kiszewko,16.634,52.696,20
24,Cykowo,16.466,52.19,20
39,Marciszów,16.004,50.854,39
39,Myszkowo,16.588,52.553,20
94,Kamieniec,16.459,52.163,46
39,Nowa Wieś Ujska,16.746,53.032,20
28,Piersna,16.277,51.628,20
24,Byszki,16.764,53.087,24
39,Szewce,16.508,52.307,20
55,Rzeczyca,16.264,51.589,33
46,Wysoczka,16.533,52.38,20
28,Żelazo,17.255,54.649,20
28,Krosin,16.671,52.791,20
28,Puszczykowo,16.451,52.122,20
24,Jastrowiec,16.053,50.967,20
79,Siedlnica,16.331,51.765,28
46,Marunowo,16.727,52.953,33
94,Tarnówka,16.851,53.338,66
33,Wierzchocino,17.254,54.631,20
33,Krosinek,16.681,52.81,20
397,Lubin,16.204,51.396,160
24,Bukówka,15.965,50.708,20
192,Kaźmierz,16.586,52.513,39
66,Męcinka,16.095,51.073,24
24,Prostynia,16.126,51.163,20
33,Kotowo,16.489,52.22,20
28,Wietszyce,16.295,51.649,24
46,Wilkowo Polskie,16.437,52.063,46
