rmax,name,lon,lat
172,Roedby,11.389,54.7
144,Kibaek,8.863,56.029
120,Vils,8.727,56.756
120,Oester Hoejst,9.045,55
247,Agerbaek,8.79,55.604
172,Vorbasse,9.075,55.632
120,Karby,8.561,56.756
120,Bedsted,8.399,56.81
144,Harbooere,8.176,56.621
206,Skaerbaek,8.756,55.16
144,Gram,9.035,55.29
206,Ulfborg,8.322,56.278
206,Nymindegab,8.197,55.816
172,Ry,9.786,56.089
426,Allinge-Sandvig,14.79,55.286
120,Noerre Broby,10.223,55.253
355,Juelsminde,10.029,55.698
120,Raekker Moelle,8.55,56.021
172,Tim,8.314,56.192
206,Loegumkloster,8.961,55.062
120,Bellinge,10.299,55.336
120,Lem,8.392,56.031
206,Hesselager,10.749,55.178
144,Aulum,8.803,56.261
355,Nordby,10.55,55.965
144,Trustrup,10.78,56.349
120,Bisserup,11.498,55.208
172,Aalestrup,9.472,56.689
247,Havnebyen,11.364,55.968
247,Oelgod,8.608,55.803
120,Baelum,10.115,56.834
172,Tistrup,8.613,55.719
355,Brande,9.124,55.934
172,Sejerby,11.141,55.884
172,Vraa,9.95,57.352
206,Nibe,9.658,56.983
172,Bjerringbro,9.657,56.384
120,Tinglev,9.263,54.939
120,Over Jerstal,9.31,55.195
296,Padborg,9.336,54.832
120,Hoejer,8.699,54.97
172,Snoede,10.908,55.087
144,Roslev,8.983,56.708
144,Vojens,9.272,55.262
144,Vinderup,8.792,56.471
144,Rejsby,8.713,55.234
172,Stakroge,8.852,55.891
172,Otterup,10.389,55.516
172,Stoholm,9.133,56.488
144,Froestrup,8.99,57.082
144,Beder-Malling,10.211,56.053
247,Roedding,9.051,55.36
120,Tarm,8.534,55.906
426,Hundested,11.853,55.95
172,Asnaes,11.509,55.811
120,Haarlev,12.219,55.349
120,Mou,10.211,56.97
120,Vamdrup,9.267,55.418
144,Udbyhoej Vasehuse,10.294,56.618
172,Dianalund,11.509,55.527
206,Genner,9.428,55.12
206,Loegstoer,9.269,56.959
120,Sindal,10.2,57.482
172,Hoeng,11.306,55.509
172,Galten,9.926,56.161
172,Nykoebing Strandhuse,11.96,54.659
144,Sunds,8.998,56.206
172,Uglev,8.545,56.611
120,Baekke,9.132,55.569
172,Ulsted,10.25,57.077
144,Boerkop,9.637,55.644
120,Tved,10.432,56.194
172,Stege,12.278,54.992
144,Nors,8.673,57.018
144,Haverslev,9.678,56.791
120,Asserballe,9.959,54.965
206,Outrup,8.341,55.719
172,Strandby,9.216,56.79
144,Borre,12.456,54.992
120,Stouby,9.795,55.702
144,Lendum,10.287,57.409
172,Gilleleje,12.291,56.129
296,Nexoe,15.137,55.068
144,Haderup,8.991,56.386
247,Kjellerup,9.444,56.29
120,Faxe,12.119,55.263
172,Soenderho,8.474,55.349
120,Vildbjerg,8.754,56.191
206,Toerring,9.496,55.857
296,Bagenkop,10.67,54.75
296,Hanstholm,8.624,57.107
206,Stubbekoebing,12.034,54.883
172,Gedser,11.934,54.576
247,Boennerup Strand,10.717,56.53
172,Videbaek,8.617,56.087
172,Hadsten,10.052,56.337
120,Billund,9.137,55.717
120,Everdrup,11.959,55.206
172,Jyllinge,12.118,55.752
206,Lystrup,10.233,56.248
144,Vemb,8.334,56.348
206,Hjallerup,10.135,57.167
120,Ulstrup,10.965,55.736
172,Hals,10.323,56.995
355,Ebeltoft,10.696,56.194
144,Svaneke,15.144,55.139
120,Taarup,10.772,55.234
355,Hurup,8.408,56.748
247,Faaborg,10.256,55.088
172,Give,9.25,55.844
247,Nysted,11.739,54.662
120,Bindslev,10.205,57.541
172,Tvede,10.179,56.544
206,Noerre Snede,9.391,55.958
144,Oerum,10.683,56.446
172,Toelloese,11.757,55.617
426,Nakskov,11.157,54.848
120,Pandrup,9.667,57.222
120,Humble,10.702,54.827
144,Kongerslev,10.102,56.888
144,Aalum,9.827,56.454
144,Flauenskjold,10.28,57.249
120,Ranum,9.217,56.896
247,Aalbaek,10.424,57.595
172,Boevlingbjerg,8.203,56.439
206,Koeng,11.809,55.114
172,Marstal,10.521,54.858
206,Karup,9.169,56.315
206,Praestoe,12.066,55.12
120,Agger,8.236,56.782
247,Skjern,8.503,55.961
247,Skaelskoer,11.29,55.248
2629,Aalborg,9.919,57.046
613,Kalundborg,11.085,55.681
247,Ringe,10.482,55.235
882,Hjoerring,9.986,57.46
247,Aabenraa,9.422,55.024
206,Stoevring,9.837,56.889
735,Thisted,8.691,56.953
172,Frederikssund,12.06,55.84
172,Solroed Strand,12.214,55.534
426,Broenderslev,9.947,57.271
247,Aabybro,9.742,57.16
511,Byrum,11,57.256
206,Haslev,11.962,55.325
426,Skive,9.03,56.567
355,Silkeborg,9.549,56.171
511,Grenaa,10.876,56.414
172,Struer,8.595,56.492
355,Aars,9.523,56.802
120,Ikast,9.156,56.139
355,Slagelse,11.355,55.405
882,Holstebro,8.616,56.36
511,Koege,12.184,55.455
247,Varde,8.464,55.627
247,Maribo,11.501,54.775
426,Vordingborg,11.909,55.011
1058,Nykoebing F,11.865,54.784
247,Roskilde,12.085,55.634
355,Assens,9.89,55.27
1269,Roenne,14.709,55.093
1058,Soenderborg,9.789,54.908
613,Horsens,9.849,55.86
172,Dragoer,12.637,55.597
296,Nyborg,10.791,55.313
296,Frederikshavn,10.533,57.441
511,Grindsted,8.927,55.753
296,Store Heddinge,12.387,55.312
426,Svendborg,10.608,55.06
247,Rudkoebing,10.711,54.936
511,Ringkoebing,8.245,56.087
206,Kerteminde,10.66,55.451
172,Skanderborg,9.934,56.032
355,Hobro,9.799,56.639
511,Randers,10.036,56.458
120,Odder,10.149,55.974
296,Bogense,10.093,55.567
296,Toender,8.869,54.932
735,Helsingoer,12.613,56.035
247,Haderslev,9.488,55.253
247,Ringsted,11.788,55.446
296,Tranebjerg,10.59,55.831
426,Lemvig,8.312,56.55
247,Holbaek,11.714,55.72
511,Naestved,11.754,55.233
247,Oksby,8.137,55.544
144,Toftlund,9.069,55.185
120,Hvide Sande,8.126,56.016
355,Herning,8.974,56.137
120,Snaptun,10.049,55.821
206,Fjerritslev,9.254,57.09
144,Fjelstrup,9.563,55.319
296,Vejle,9.528,55.711
1522,Odense,10.389,55.396
1522,Aarhus,10.203,56.152
1269,Esbjerg,8.453,55.472
613,Kolding,9.473,55.49
172,Viborg,9.399,56.459
1058,Anholt,11.543,56.704
144,Lild Strand,8.963,57.152
247,Hygind,9.879,55.386
172,Stenbjerg,8.358,56.922
144,Esby,10.535,56.122
120,Husby,8.18,56.278
120,Avernak By,10.256,55.032
172,Kirkehavn,11.157,55.169
247,Noerreby,11.531,54.982
144,Hyllested,10.767,56.282
120,Soenderhaa,8.45,56.869
206,Onsevig,11.117,54.947
120,Endelave By,10.272,55.758
120,Alstrup,9.753,57.275
144,Karlby,10.286,56.35
172,Rutsker,14.748,55.212
144,Egebjerg,8.803,56.539
144,Amtoft,8.939,57.007
206,Hjoellund,9.38,56.071
120,Ingerslev,10.339,56.564
120,Taars,11.637,54.831
144,Toftum,8.555,55.166
144,Hulsig,10.466,57.661
206,Haven,10.225,54.956
120,Flaarup,11.548,54.691
100000,København,12.492,55.701
296,Hørsholm-Rungsted,12.501,55.897
120,Sorø,11.559,55.437
120,Fredensborg,12.392,55.976
247,Vejen,9.129,55.474
355,Morsø,8.86,56.782
206,Sæby,10.51,57.334
247,Ribe,8.771,55.333
511,Skagen-Vesterby,10.578,57.727
247,Hirtshals,9.969,57.577
206,Nordborg,9.764,55.049
120,Gråsten,9.595,54.914
247,Hadsund-Hadsund Huse,10.117,56.718
