rs,name,lon,lat,r1
144,Medininkai,25.646,54.536,100
144,Suzionys,25.508,54.99,144
120,Gargzdai,21.392,55.71,120
144,Silai,24.606,55.493,100
144,Geleziai,24.699,55.84,100
144,Viesintos,24.992,55.69,100
247,Merkine,24.191,54.165,172
172,Marcinkonys,24.402,54.06,144
511,Kelme,22.943,55.631,247
206,Garliava,23.873,54.822,100
613,Joniskis,23.614,56.239,296
100000,Vilnius,25.257,54.706,0
735,Taurage,22.29,55.252,735
613,Birzai,24.756,56.196,511
247,Plunge,21.846,55.911,206
296,Prienai,23.94,54.636,172
355,Marijampole,23.345,54.551,0
1826,Utena,25.611,55.501,613
426,Pabrade,25.766,54.983,247
613,Panevezys,24.365,55.734,613
613,Mazeikiai,22.342,56.305,613
296,Anyksciai,25.108,55.524,296
882,Alytus,24.022,54.414,511
426,Jonava,24.277,55.081,206
426,Kretinga,21.234,55.884,206
206,Kursenai,22.953,55.998,206
355,Elektrenai,24.646,54.776,296
355,Kedainiai,23.985,55.286,206
511,Skuodas,21.518,56.269,355
511,Silale,22.186,55.493,247
355,Lazdijai,23.521,54.23,247
882,Rokiskis,25.585,55.955,426
613,Silute,21.473,55.349,296
355,Kybartai,22.766,54.64,144
172,Lentvaris,25.045,54.642,100
426,Svencioneliai,26.001,55.16,206
206,Zarasai,26.247,55.735,144
296,Naujoji Akmene,22.89,56.316,296
206,Radviliskis,23.537,55.815,144
247,Kazlu Ruda,23.494,54.748,206
511,Raseiniai,23.114,55.382,355
355,Pasvalys,24.401,56.061,172
426,Ignalina,26.161,55.339,296
1269,Siauliai,23.316,55.934,882
296,Neringa,21.011,55.312,247
144,Balninkai,25.124,55.294,100
206,Naujasodis,25.32,55.344,100
120,Kupreliskis,24.964,56.04,100
144,Antaliepte,25.866,55.66,100
144,Salakas,26.133,55.58,120
355,Dubiciai,24.747,54.02,172
172,Kabeliai,24.297,53.954,120
144,Saugos,21.46,55.464,100
120,Pajuris,22.029,55.45,100
120,Pagiriai,24.397,55.361,100
120,Lanciunava,24.152,55.347,100
296,Didziasalis,26.679,55.32,247
120,Rusne,21.374,55.295,100
144,Zygaiciai,22.035,55.31,100
120,Girkalnis,23.208,55.309,100
172,Siesikai,24.504,55.295,100
172,Mielagenai,26.438,55.258,100
120,Erzvilkas,22.709,55.263,100
247,Vadzgirys,22.926,55.254,144
172,Natkiskiai,21.946,55.233,100
120,Josvainiai,23.836,55.245,100
120,Bukonys,24.367,55.227,100
206,Zelva,25.098,55.22,120
144,Valai,25.061,54.705,100
247,Jasiunai,25.324,54.446,120
206,Struna,26.153,55.032,120
120,Taujenai,24.762,55.39,100
296,Nemencine,25.469,54.849,100
120,Kazokiskes,24.832,54.819,100
120,Daujenai,24.519,55.976,100
172,Girdziai,22.796,55.163,100
144,Kasonys,24.173,54.643,144
120,Vartai,23.838,54.588,100
247,Adutiskis,26.585,55.158,172
120,Inturke,25.562,55.16,100
144,Talokiai,23.963,54.345,100
172,Stulgiai,22.679,55.487,100
206,Sangruda,23.233,54.32,100
144,Kapciamiestis,23.656,54.002,100
247,Simnas,23.648,54.382,172
172,Akmene,22.745,56.246,100
296,Pagegiai,21.908,55.137,206
613,Visaginas,26.439,55.6,426
120,Voveriai,22.87,55.01,100
144,Vilkyskiai,22.13,55.119,120
144,Babtai,23.797,55.088,120
172,Joniskis,25.664,55.076,100
206,Viesvile,22.388,55.072,172
144,Giedraiciai,25.261,55.074,144
172,Upninkai,24.539,55.081,144
120,Slavikai,22.743,54.96,120
172,Paberze,25.236,54.942,144
206,Musninkai,24.841,54.949,100
120,Kudirkos Naumiestis,22.861,54.773,120
120,Mostiskes,25.667,54.771,120
144,Pilviskiai,23.22,54.72,100
206,Semeliskes,24.66,54.666,100
144,Varputenai,22.889,55.881,120
120,Vente,21.199,55.35,100
144,Gardamas,21.66,55.408,100
120,Lybiskiai,22.666,55.345,100
206,Kuliai,21.656,55.806,120
296,Kvetkai,25.138,56.149,120
144,Pajevonys,22.838,54.564,100
144,Eiciai,22.483,55.165,100
426,Nemunelio Radviliskis,24.77,56.397,206
144,Lenas,24.59,55.427,100
172,Pabaiskas,24.767,55.168,100
206,Vainotiskiai,23.845,55.397,100
120,Kuras,23.544,54.943,100
247,Tryskiai,22.583,56.056,144
120,Kuziai,23.14,55.984,100
247,Juodupe,25.606,56.085,120
206,Kazitiskis,26.15,55.442,100
172,Saldutiskis,25.815,55.35,100
120,Ziezmariai,24.443,54.804,100
144,Igliauka,23.651,54.573,144
247,Daugai,24.347,54.362,172
144,Liudvinavas,23.356,54.482,100
144,Plateliai,21.816,56.043,120
120,Paupys,22.868,55.315,100
144,Aukstadvaris,24.527,54.579,0
355,Rudiskes,24.827,54.516,144
247,Butrimonys,24.253,54.501,120
144,Onuskis,24.594,54.484,100
355,Vistytis,22.719,54.454,120
206,Zilinai,24.636,54.394,100
144,Uzuperkasis,24.839,54.356,120
120,Klausuciai,23.367,55.111,0
172,Ezerelis,23.605,54.882,144
172,Griskabudis,23.171,54.851,100
172,Zeimiai,24.221,55.18,100
144,Seta,24.252,55.281,144
296,Raguva,24.622,55.566,172
144,Troskunai,24.873,55.586,144
172,Lenkimai,21.315,56.192,100
172,Darbenai,21.256,56.023,144
144,Kulupenai,21.474,55.961,100
206,Mosedis,21.578,56.167,100
355,Seda,22.089,56.167,172
172,Pikeliai,22.109,56.417,144
120,Kruopiai,23.02,56.241,100
247,Linkuva,23.972,56.086,120
206,Vabalninkas,24.747,55.98,172
172,Gedrimai,22.123,56.071,100
144,Betygala,23.369,55.363,100
206,Dercekliai,21.282,55.581,100
120,Plikiai,21.282,55.788,100
206,Laizuva,22.564,56.381,100
172,Ylakiai,21.855,56.28,144
120,Venta,22.695,56.193,100
144,Duseikiai,22.46,55.979,100
144,Veivirzenai,21.595,55.597,100
172,Zarenai,22.207,55.839,120
206,Luoke,22.529,55.892,100
144,Staciunai,23.632,55.939,120
144,Panara,24.111,54.104,100
247,Pumpenai,24.336,55.935,120
120,Zlibinai,22.005,55.882,100
172,Simonys,25.141,55.738,120
247,Kamajai,25.507,55.821,144
144,Boniskiai,24.03,55.077,120
144,Stabintiskes,24.599,54.904,100
144,Verstaminai,23.545,54.296,100
120,Alizava,25.003,55.971,120
355,Uztilte,25.834,55.739,172
172,Skapiskis,25.202,55.895,120
206,Subacius,24.744,55.765,120
120,Ramygala,24.308,55.51,120
206,Krekenava,24.097,55.543,206
206,Ariogala,23.484,55.263,0
120,Kisiniai,21.35,55.636,100
172,Labanoras,25.776,55.267,100
120,Sena Pasamine,26.057,55.21,100
144,Zalavas,25.974,54.972,100
172,Magunai,25.762,54.89,100
172,Kalote,21.125,55.789,100
120,Lapiai,21.464,55.772,100
296,Vilkija,23.58,55.045,206
120,Veiveriai,23.725,54.765,100
120,Obeliai,25.795,55.941,120
172,Balbieriskis,23.889,54.517,100
144,Vyzuonos,25.494,55.582,100
144,Rozalimas,23.881,55.893,100
206,Grinkiskis,23.635,55.554,100
206,Zeimelis,23.999,56.272,206
172,Zagare,23.257,56.358,0
120,Siluva,23.227,55.531,100
296,Gruzdziai,23.249,56.097,144
120,Seduva,23.758,55.754,0
120,Meskuiciai,23.474,56.069,120
144,Aukstelke,23.213,55.877,100
172,Siaulenai,23.402,55.677,100
206,Tytuvenai,23.197,55.597,144
120,Gegrenai,21.922,56.093,100
120,Reibiniai,23.371,56.289,100
120,Jurdaiciai,23.363,56.228,120
296,Liepalotai,23.247,54.948,100
120,Zemale,22.159,56.263,100
120,Ruzgai,22.177,56.349,100
172,Sveksna,21.622,55.517,172
355,Sumskas,25.722,54.609,206
172,Antazave,25.927,55.812,100
172,Bazilionai,23.139,55.795,100
172,Uzventis,22.653,55.783,144
172,Seirijai,23.817,54.228,144
172,Dieveniskes,25.625,54.195,172
172,Tauragnai,25.818,55.443,120
120,Kintai,21.265,55.423,100
120,Alove,24.173,54.349,100
120,Udrija,23.877,54.439,100
247,Kavarskas,24.929,55.434,120
120,Joniskelis,24.169,56.024,120
206,Dukstas,26.324,55.519,100
172,Svedasai,25.367,55.682,172
247,Salantai,21.571,56.06,172
206,Pandelys,25.229,56.023,206
355,Baisogala,23.734,55.639,120
206,Uzusiliai,24.746,56.293,100
296,Skaudvile,22.585,55.407,172
247,Varniai,22.372,55.742,206
144,Turmantas,26.462,55.694,100
206,Balenos,22.319,56.2,100
206,Salociai,24.404,56.229,172
172,Veisiejai,23.695,54.102,120
144,Vidukle,22.901,55.405,120
296,Eisiskes,25.001,54.184,206
426,Rietavas,21.93,55.724,172
144,Skaidiskes,25.393,54.614,100
355,Kupiskis,24.982,55.835,296
735,Telsiai,22.232,55.98,355
426,Ukmerge,24.771,55.247,247
1058,Kaunas,23.979,54.913,735
355,Varena,24.581,54.215,296
1826,Druskininkai,23.975,54.018,426
613,Moletai,25.415,55.226,247
296,Kalvarija,23.225,54.415,144
355,Jurbarkas,22.747,55.082,296
2629,Klaipeda,21.167,55.697,1826
172,Vilkaviskis,23.035,54.652,0
172,Plikiskiai,23.665,56.337,100
144,Udekai,24.023,56.154,100
206,Laukuva,22.234,55.619,120
144,Kraziai,22.69,55.603,144
120,Kvedarna,21.994,55.556,120
120,Naujoji Vilnia,25.42,54.688,100
120,Kaišiadorys,24.459,54.86,120
355,Širvintos,24.958,55.043,172
172,Balsiai,25.35,54.775,100
735,Šalčininkai,25.386,54.307,296
120,Šakiai,23.045,54.955,0
296,Pakruojis,23.856,55.98,206
