rmax,name,lon,lat
1269,Troisvierges,6.002,50.122
144,Troine,5.881,50.063
172,Clervaux,6.031,50.055
120,Harlange,5.787,49.93
120,Echternach,6.419,49.812
120,Perle,5.763,49.809
172,Redange,5.886,49.763
144,Remerschen,6.349,49.488
296,Wiltz,5.93,49.967
100000,Luxembourg,6.123,49.609
247,Esch-sur-Alzette,5.988,49.501
613,Diekirch / Ettelbruck,6.12,49.847
247,Mersch,6.104,49.751
172,Remich,6.367,49.543
247,Mertert,6.496,49.712
