rmax,name,lon,lat
100000,Podgorica,19.272,42.442
735,Niksic,18.954,42.773
882,Bar-Stari Bar,19.105,42.1
2191,Pljevlja,19.349,43.357
1058,Беране,19.872,42.843
426,Bijelo Polje,19.744,43.035
735,Topla,18.527,42.457
426,Budva,18.842,42.286
296,Golubovci,19.224,42.336
172,Cetinje-Humci,18.919,42.395
296,Muo,18.768,42.432
296,Rožaje,20.168,42.843
426,Ulcinj,19.209,41.925
511,Prnjavor-Ribare,19.939,42.603
