cc,rs,name,lon,lat,r1
SE,1027,Halmstad,12.899,56.675,496
SE,345,Föllinge,14.61,63.672,288
SE,714,Helsingborg,12.719,56.042,288
SE,414,Svenstavik,14.433,62.765,345
DE,856,Ulm,9.99,48.398,414
CH,414,Bellinzona,9.03,46.194,200
DE,345,Wittenberge,11.751,52.994,288
CH,414,Lugano,8.951,46.004,200
DE,496,Ilmenau,10.916,50.689,200
DE,1027,Erfurt,11.027,50.977,496
SE,240,Oskarström,12.976,56.797,200
DE,1478,Rostock,12.136,54.089,714
SE,345,Hackås,14.512,62.935,200
DE,240,Sömmerda,11.119,51.159,200
SE,1027,Sveg,14.359,62.035,496
DE,345,Osterburg (Altmark),11.754,52.788,200
AT,345,Feldkirch,9.586,47.255,200
IT,240,Busto Arsizio,8.848,45.613,200
SE,414,Ängelholm,12.877,56.253,200
DE,288,Sangerhausen,11.299,51.474,240
NO,595,Fauske,15.394,67.26,288
DE,496,Güstrow,12.176,53.794,240
SE,345,Landskrona,12.84,55.875,200
IT,856,Alessandria,8.619,44.913,288
NO,345,Rognan,15.395,67.102,200
SE,345,Ulricehamn,13.418,57.789,200
IT,496,Albenga,8.215,44.053,200
DE,1027,Magdeburg,11.633,52.126,496
CH,1027,Chur,9.531,46.851,345
DE,345,Ansbach,10.577,49.304,240
DE,714,Coburg,10.964,50.258,288
IT,714,Como,9.087,45.806,200
IT,288,Vigevano,8.861,45.314,200
SE,345,Hyltebruk,13.241,57.005,200
DE,1027,Stendal,11.862,52.611,414
DE,345,Günzburg,10.281,48.454,200
DE,345,Ribnitz,12.432,54.243,200
NO,345,Oppeid,15.627,68.082,240
SE,345,Vansbro,14.216,60.509,200
DE,714,Bamberg,10.887,49.893,345
IT,240,Chiavenna,9.396,46.318,200
SE,1027,Tärnaby,15.288,65.713,414
SE,345,Lit,14.854,63.321,200
IT,414,Savona,8.474,44.308,240
SE,595,Mariestad,13.821,58.704,240
SE,240,Smålandsstenar,13.411,57.161,200
DE,595,Memmingen,10.185,47.988,200
DE,288,Burg,11.855,52.27,200
IT,345,Novi Ligure,8.793,44.76,200
SE,240,Malmö,13.009,55.597,200
DE,240,Dillingen a.d.Donau,10.497,48.577,200
SE,856,Filipstad,14.168,59.708,240
SE,714,Skövde,13.85,58.399,496
IT,7615,Milano,9.175,45.473,2127
DE,345,Saalfeld/Saale,11.361,50.648,240
SE,288,Gislaved,13.565,57.302,200
AT,345,Schruns,9.92,47.081,200
SE,240,Örkelljunga,13.281,56.284,200
SE,2127,Mora,14.537,61,414
IT,240,Monza,9.274,45.583,200
IT,240,Voghera,9.001,44.991,200
IT,345,Lecco,9.404,45.856,200
CH,345,Davos,9.836,46.804,200
SE,345,Fredriksberg,14.375,60.139,200
SE,240,Väring,13.964,58.509,200
SE,240,Orsa,14.634,61.109,200
IT,288,Pavia,9.16,45.184,240
DE,496,Jena,11.592,50.93,288
SE,345,Storfors,14.275,59.535,200
DE,595,Kempten (Allgäu),10.318,47.724,496
DE,414,Genthin,12.155,52.406,200
NO,714,Andenes,16.12,69.319,414
SE,595,Trelleborg,13.154,55.377,200
DE,288,Loburg,12.073,52.116,200
DE,240,Gnoien,12.71,53.969,200
DE,414,Donauwörth,10.778,48.719,288
DE,1478,Nürnberg,11.075,49.451,1027
SE,414,Ytterhogdal,14.942,62.18,200
SE,240,Perstorp,13.399,56.136,200
DE,288,Kyritz,12.397,52.941,200
IT,2127,Genova,8.904,44.421,714
DE,414,Wittstock/Dosse,12.486,53.163,200
DE,345,Oberstdorf,10.276,47.408,240
DE,240,Zerbst/Anhalt,12.085,51.964,200
DE,496,Weißenburg i.Bay.,10.972,49.03,200
SE,345,Hova,14.216,58.853,200
IT,240,Casella,9.002,44.532,200
DE,345,Rathenow,12.333,52.608,240
DE,414,Roth,11.091,49.245,200
SE,240,Markaryd,13.601,56.459,200
DE,288,Halle (Saale),11.971,51.482,200
IT,240,Varzi,9.191,44.824,200
DE,345,Kulmbach,11.456,50.108,200
DE,240,Waren (Müritz),12.686,53.513,240
SE,595,Hammerdal,15.356,63.584,240
DE,240,Ziesar,12.29,52.267,200
DE,240,Bad Lobenstein,11.64,50.45,200
DE,288,Kaufbeuren,10.621,47.88,200
IT,1232,Sondrio,9.877,46.169,288
IT,414,Bergamo,9.668,45.694,240
IT,345,Treviglio,9.592,45.524,200
IT,345,Lodi,9.503,45.314,200
CH,345,Scuol,10.294,46.796,200
DE,240,Eichstätt,11.185,48.891,200
DE,288,Pegnitz,11.544,49.756,200
NO,2127,Harstad,16.541,68.8,714
DE,496,Augsburg,10.898,48.368,345
DE,595,Dessau,12.246,51.835,288
SE,714,Kristianstad,14.168,56.026,496
DE,240,Boek,12.792,53.393,200
SE,288,Hjo,14.276,58.301,200
SE,414,Höör,13.548,55.936,200
SE,345,Mjölby,15.13,58.333,200
DE,288,Weißenfels,11.967,51.2,200
SE,240,Traryd,13.74,56.577,200
DE,414,Demmin,13.038,53.906,200
SE,496,Vaggeryd,14.149,57.497,200
NO,345,Sulitjelma,16.063,67.139,200
AT,714,Imst,10.741,47.237,200
SE,345,Kopparberg,15.02,59.867,200
SE,714,Älmhult,14.137,56.55,240
SE,345,Karlskoga,14.532,59.334,288
DE,414,Stralsund,13.09,54.314,200
DE,288,Altenburg,12.437,50.987,200
DE,496,Amberg,11.856,49.445,200
IT,714,Borgo Val di Taro,9.77,44.486,288
SE,240,Bodafors,14.705,57.505,200
DE,240,Stavenhagen,12.907,53.697,200
DE,595,Jessen (Elster),12.955,51.79,200
SE,2127,Strömsund,15.562,63.853,595
DE,595,Luckenwalde,13.173,52.089,200
DE,496,Bayreuth,11.575,49.944,345
SE,1232,Jönköping,14.16,57.755,595
SE,240,Skurup,13.501,55.48,200
SE,288,Rottne,14.894,57.024,200
DE,240,Hersbruck,11.43,49.508,200
SE,595,Los,15.168,61.735,288
SE,595,Värnamo,14.041,57.185,345
SE,496,Ljungby,13.943,56.833,288
IT,288,Rapallo,9.226,44.353,200
SE,414,Bräcke,15.42,62.752,200
SE,240,Hässleholm,13.774,56.16,200
DE,345,Füssen,10.7,47.57,200
DE,288,Au,11.121,48.573,200
SE,496,Leksand,15.008,60.732,200
DE,414,Penzing,10.927,48.075,200
NO,595,Kjøpsvik,16.374,68.099,200
DE,240,Münchberg,11.79,50.192,200
DE,288,Bitterfeld-Wolfen,12.325,51.625,200
SE,345,Furudal,15.125,61.17,200
IT,240,Tirano,10.165,46.216,200
DE,345,Neuruppin,12.806,52.923,345
DE,345,Neumarkt i.d.OPf.,11.459,49.279,200
SE,240,Laxå,14.62,58.982,200
DE,856,Gera,12.08,50.876,240
SE,595,Sjöbo,13.701,55.636,200
SE,288,Karlsborg,14.52,58.529,200
SE,414,Stugun,15.601,63.168,200
DE,288,Tarmow,12.805,52.796,200
AT,595,Pfunds,10.542,46.967,240
DE,414,Hof,11.914,50.317,200
DE,345,Bad Belzig,12.587,52.141,240
CH,288,Valchava,10.404,46.602,200
IT,496,Piacenza,9.706,45.045,345
IT,288,Bormio,10.37,46.469,200
SE,345,Osby,14.001,56.385,200
SE,345,Gränna,14.468,58.025,200
DE,414,Neustrelitz,13.062,53.363,200
IT,240,Curon Venosta,10.543,46.808,200
SE,496,Boda,15.219,61.002,200
DE,2552,Leipzig,12.378,51.338,1027
IT,345,Darfo Boario Terme,10.183,45.883,240
DE,240,Berkau,12.641,51.968,200
DE,496,Ingolstadt,11.423,48.765,345
DE,856,Greifswald,13.38,54.096,414
SE,345,Ystad,13.816,55.435,288
DE,1027,Plauen,12.135,50.496,200
SE,1232,Ånge,15.67,62.524,496
DE,595,Neubrandenburg,13.26,53.557,595
IT,345,Sellero,10.35,46.052,200
IT,288,Bardi,9.729,44.63,200
FR,345,Galéria,8.648,42.409,200
SE,595,Ludvika,15.198,60.145,288
DE,414,Sassnitz,13.634,54.513,240
FR,496,Calvi,8.757,42.568,240
SE,595,Askersund,14.911,58.89,200
IT,345,Villa,10.279,45.719,200
IT,345,Manerbio,10.135,45.355,200
SE,414,Degeberga,14.085,55.826,200
IT,595,Brescia,10.221,45.525,414
DE,496,Garmisch-Partenkirchen,11.086,47.492,200
FR,414,Cargèse,8.595,42.135,200
IT,288,Alseno,9.962,44.898,200
IT,414,Silandro,10.771,46.628,345
NO,240,Ballangen,16.828,68.341,200
SE,240,Bjursås,15.45,60.738,200
SE,288,Lönsboda,14.318,56.396,200
AT,288,Telfs,11.076,47.311,200
SE,240,Vislanda,14.454,56.786,200
SE,856,Borlänge,15.43,60.476,714
SE,288,Lammhult,14.582,57.17,200
SE,345,Lindesberg,15.224,59.601,240
SE,345,Hoting,16.205,64.114,200
DE,240,Wurzen,12.735,51.37,200
DE,288,Zwickau,12.496,50.719,200
SE,240,Sävsjö,14.663,57.395,200
SE,288,Kumla,15.141,59.129,200
SE,240,Löderup,14.114,55.438,200
SE,345,Aneby,14.808,57.835,200
NO,288,Gryllefjord,17.05,69.361,288
DE,240,Grimma,12.727,51.235,200
IT,496,Cusiano,10.746,46.311,200
SE,1027,Örebro,15.206,59.278,496
SE,288,Kivik,14.221,55.687,200
DE,496,Weiden i.d.OPf.,12.16,49.676,288
IT,240,Pontremoli,9.879,44.375,200
SE,414,Motala,15.041,58.547,240
SE,288,Kälarne,16.083,62.979,200
DE,3062,München,11.576,48.138,2552
DE,414,Anklam,13.693,53.855,200
DE,414,Geretsried,11.482,47.856,240
IT,240,Stintino,8.219,40.954,200
CZ,496,Cheb,12.374,50.08,240
FR,2552,Ajaccio,8.739,41.919,1027
SE,595,Tranås,14.976,58.037,345
SE,240,Rossön,16.321,63.929,200
SE,288,Falun,15.623,60.605,200
DE,414,Templin,13.499,53.121,200
IT,714,La Spezia,9.85,44.114,496
DE,288,Pfreimd,12.182,49.494,200
DE,288,Freising,11.748,48.404,200
SE,240,Frövi,15.365,59.471,200
SE,345,Edsbyn,15.818,61.376,200
SE,496,Dorotea,16.415,64.263,288
DE,240,Torgau,13.004,51.559,200
NO,240,Grov,17.125,68.674,200
SE,496,Simrishamn,14.343,55.552,240
NO,288,Ibestad,17.171,68.78,200
SE,414,Eksjö,14.971,57.668,200
AT,345,Neustift im Stubaital,11.308,47.11,200
DE,288,Werbig,13.194,51.93,200
DE,856,Regensburg,12.102,49.015,595
DE,10965,Berlin,13.406,52.518,6346
SE,288,Backe,16.413,63.81,200
SE,345,Fränsta,16.166,62.499,200
DE,345,Lenggries,11.577,47.683,200
AT,1773,Innsbruck,11.403,47.268,714
SE,1773,Växjö,14.798,56.894,714
IT,714,Parma,10.329,44.803,345
FR,856,Corte,9.149,42.31,288
SE,345,Hammarstrand,16.346,63.109,345
IT,240,Porto Torres,8.4,40.836,200
SE,345,Tjällmo,15.354,58.716,200
SE,856,Vilhelmina,16.66,64.625,714
IT,595,Mantova,10.773,45.153,240
IT,345,Alghero,8.321,40.557,200
SE,595,Ljusdal,16.097,61.829,414
DE,414,Prenzlau,13.862,53.316,240
IT,240,Vetto,10.339,44.484,240
CZ,288,Tachov,12.634,49.795,200
CZ,345,Mariánské Lázně,12.701,49.965,200
SE,240,Korsberga,15.125,57.301,200
DE,240,Rötz,12.531,49.342,200
DE,288,Nieska,13.359,51.429,200
IT,414,Capraia Isola,9.844,43.048,288
DE,288,Mittweida,12.976,50.987,200
DE,496,Chemnitz,12.922,50.834,414
DE,240,Lengefeld,13.193,50.72,200
IT,240,Romana,8.586,40.484,200
SE,496,Ramsele,16.474,63.534,345
FR,595,Ghisonaccia,9.404,42.017,240
SE,240,Hjortkvarn,15.439,58.897,200
DE,595,Rosenheim,12.129,47.856,288
FR,714,Porto-Vecchio,9.279,41.591,345
SE,240,Delsbo,16.555,61.805,200
SE,345,Rejmyre,15.924,58.831,200
FR,288,Propriano,8.904,41.676,200
SE,345,Svärdsjö,15.906,60.742,200
SE,414,Urshult,14.818,56.533,200
SE,240,Kilafors,16.566,61.231,200
SE,240,Mjällby,14.678,56.046,200
PL,288,Dziwnów,14.752,54.023,200
SE,345,Lingbo,16.688,61.05,200
SE,496,Vetlanda,15.085,57.415,414
SE,288,Holmsjö,15.539,56.421,200
FR,1478,Bastia,9.452,42.702,595
AT,345,Mariahilf,12.298,46.914,345
IT,345,Vipiteno,11.431,46.891,200
DE,414,Döbeln,13.121,51.122,200
SE,345,Fagersta,15.809,60.002,200
DE,414,Landshut,12.152,48.537,345
SE,288,Österbymo,15.273,57.827,200
DE,288,Grafing b.München,11.966,48.045,200
DE,288,Pasewalk,13.99,53.505,200
IT,414,Rovereto,11.045,45.886,200
IT,496,Trento,11.132,46.076,345
IT,288,Ala,11,45.759,200
IT,345,Ligonchio,10.342,44.315,200
IT,1478,Bolzano,11.334,46.493,595
IT,3062,Sassari,8.55,40.73,1232
NO,714,Narvik,17.426,68.436,288
FR,345,Penta-di-Casinca,9.459,42.466,200
SE,345,Karlshamn,14.856,56.174,288
DE,288,Paindlkofen,12.27,48.685,200
DE,345,Königs Wusterhausen,13.624,52.299,200
DE,714,Sehma,12.996,50.538,200
DE,714,Eberswalde,13.82,52.835,288
CZ,595,Karlovy Vary,12.886,50.221,345
AT,240,Jenbach,11.769,47.395,200
DE,496,Riesa,13.305,51.303,240
CZ,240,Chodov,12.863,50.069,200
PL,496,Świnoujście,14.243,53.905,345
DE,288,Drahnsdorf,13.576,51.916,200
FR,288,Cervione,9.491,42.331,200
IT,1773,Verona,10.997,45.434,714
NO,240,Bjerkvik,17.557,68.552,200
SE,240,Ingatorp,15.413,57.639,200
SE,2127,Linköping,15.621,58.404,714
DE,345,Strausberg,13.882,52.58,200
SE,240,Arbrå,16.378,61.468,200
DK,1232,Rønne,14.709,55.093,414
SE,240,Stöde,16.587,62.419,200
SE,288,Lenhovda,15.272,56.995,200
DE,414,Cham,12.667,49.219,288
SE,856,Bollnäs,16.372,61.348,345
SE,856,Storuman,17.116,65.094,414
SE,345,Junsele,16.862,63.697,200
IT,496,Bressanone,11.657,46.709,200
SE,240,Falla,15.748,58.682,200
SE,240,Åseda,15.353,57.167,200
DE,288,Straubing,12.572,48.876,240
FR,345,Sari-Solenzara,9.396,41.859,200
FR,240,Conca,9.335,41.734,200
FR,345,Bonifacio,9.156,41.387,200
SE,345,Köping,15.997,59.513,200
DE,240,Cölln,13.487,51.162,200
SE,414,Kisa,15.635,57.984,200
SE,595,Avesta,16.178,60.14,345
AT,345,Wörgl,12.066,47.486,288
SE,240,Näsåker,16.902,63.443,200
SE,414,Hofors,16.29,60.55,288
IT,714,Livorno,10.326,43.547,496
DE,595,Waldkraiburg,12.4,48.208,240
DE,240,Göhra,13.589,51.268,200
IT,496,Lucca,10.501,43.86,240
SE,240,Hassela,16.691,62.115,200
NO,288,Tennevoll,17.807,68.748,200
SE,496,Kosta,15.397,56.843,200
CZ,240,Domažlice,12.929,49.441,200
IT,288,Benabbio,10.605,43.999,200
IT,414,Modena,10.918,44.656,240
DE,288,Klingenberg,13.533,50.919,200
SE,288,Äsköping,16.064,59.147,200
DE,496,Schwedt/Oder,14.288,53.055,200
IT,496,Macomer,8.766,40.262,288
IT,345,Quarantoli,11.098,44.92,200
IT,240,Luogosanto,9.205,41.046,200
IT,1478,Oristano,8.594,39.902,414
NO,345,Sommarøy,18.006,69.635,240
NO,1027,Finnsnes,17.982,69.232,345
SE,288,Horndal,16.411,60.299,200
IT,414,Ozieri,9.002,40.584,200
DE,240,Reichenau,13.575,50.793,200
IT,288,Oschiri,9.102,40.72,200
IT,414,Legnago,11.308,45.19,200
PL,1773,Szczecin,14.54,53.433,714
IT,595,La Maddalena,9.412,41.221,240
PL,288,Stepnica,14.631,53.653,200
NO,288,Gibostad,18.075,69.356,200
IT,288,Ghilarza,8.837,40.123,200
DE,1027,Dresden,13.737,51.052,714
SE,595,Sorsele,17.533,65.527,345
DE,240,Worin,14.271,52.522,200
IT,414,Terralba,8.638,39.718,200
SE,414,Vimmerby,15.847,57.669,288
PL,288,Moryń,14.395,52.852,200
IT,345,Mezzano,11.809,46.154,240
SE,414,Åtvidaberg,15.998,58.198,200
SE,414,Katrineholm,16.205,58.992,345
DK,345,Svaneke,15.144,55.139,200
IT,496,Cecina,10.519,43.314,200
AT,288,Sankt Johann in Tirol,12.425,47.522,200
SE,856,Åsele,17.352,64.163,345
CZ,345,Žatec,13.546,50.327,200
IT,240,Portoferraio,10.314,42.811,200
SE,345,Ockelbo,16.719,60.892,200
CZ,414,Most,13.636,50.503,200
DE,240,Beeskow,14.247,52.172,200
SE,414,Norrköping,16.179,58.591,240
CZ,856,Plzeň,13.377,49.748,496
IT,496,Iglesias,8.537,39.313,345
IT,414,Vergato,11.113,44.285,200
DE,595,Regen,13.126,48.97,240
CZ,496,Klatovy,13.294,49.396,288
IT,414,Sant'Antioco,8.454,39.063,200
IT,288,Samugheo,8.941,39.948,200
SE,595,Sollefteå,17.281,63.166,414
SE,414,Sala,16.58,59.918,200
DE,240,Burghausen,12.831,48.169,240
SE,496,Bergsjö,17.059,61.98,200
SE,595,Karlskrona,15.624,56.198,414
SE,240,Ilsbo,17.05,61.856,200
SE,595,Västerås,16.543,59.618,414
IT,856,Olbia,9.505,40.923,595
IT,496,Piombino,10.527,42.922,345
IT,288,San Candido,12.279,46.733,200
IT,288,Villacidro,8.738,39.458,200
SE,345,Eskilstuna,16.503,59.371,200
SE,856,Arjeplog,17.862,66.046,496
IT,288,Este,11.656,45.225,200
PL,288,Maszewo,15.059,53.497,200
SE,1478,Hudiksvall,17.116,61.729,595
SE,345,Nybro,15.906,56.745,200
IT,856,Nuoro,9.311,40.318,496
IT,2127,Bologna,11.342,44.494,1232
NO,714,Setermoen,18.351,68.861,288
PL,414,Dębno,14.701,52.74,200
IT,288,Pieve di Cadore,12.366,46.423,200
AT,240,Zell am See,12.794,47.326,200
DE,345,Eisenhüttenstadt,14.631,52.146,200
IT,288,Bagno di Gavorrano,10.887,42.938,200
IT,288,Poggibonsi,11.146,43.472,200
IT,240,Conegliano,12.295,45.877,200
CZ,345,Zlonice,14.092,50.288,200
DE,345,Waldkirchen,13.6,48.731,200
PL,240,Resko,15.403,53.769,200
CZ,496,Příbram,14.01,49.691,345
SE,288,Enköping,17.086,59.639,200
SE,288,Högsby,16.025,57.169,200
DE,856,Cottbus,14.335,51.759,595
SE,240,Söderhamn,17.056,61.309,240
IT,856,Tortolì,9.666,39.929,288
AT,595,Sankt Johann im Pongau,13.204,47.35,345
DE,240,Turnow,14.387,51.872,200
SE,856,Nyköping,17.023,58.757,345
DE,714,Frankfurt (Oder),14.551,52.342,345
SE,3062,Sundsvall,17.296,62.397,1232
SE,345,Bredbyn,18.102,63.451,200
DE,496,Hoyerswerda,14.244,51.439,240
CZ,288,Prášily,13.378,49.105,200
PL,414,Świdwin,15.774,53.778,200
SE,288,Kristineberg,18.577,65.061,200
IT,345,Pomarance,10.871,43.298,200
PL,288,Bogatynia,14.961,50.902,200
SE,288,Löttorp,17.003,57.164,200
SE,414,Överum,16.307,57.99,200
DE,345,Bischofswerda,14.18,51.128,240
IT,714,Ferrara,11.619,44.836,288
IT,856,Padova,11.881,45.413,496
IT,240,Desulo,9.226,40.01,200
IT,345,Belluno,12.217,46.151,240
SE,240,Mogata,16.448,58.453,200
PL,288,Pyrzyce,14.892,53.146,200
IT,240,Monterenzio,11.405,44.325,200
CZ,496,Ústí nad Labem,14.04,50.661,288
IT,288,Auronzo,12.42,46.562,240
IT,288,San Teodoro,9.672,40.775,200
IT,496,Rovigo,11.793,45.08,200
PL,288,Myślibórz,14.867,52.924,200
PL,288,Gryfice,15.193,53.907,288
SE,496,Tärnsjö,16.926,60.154,200
AT,240,Kals am Großglockner,12.647,47.002,200
PL,496,Nowogard,15.129,53.665,200
PL,345,Stargard,15.029,53.339,240
NO,288,Andselv,18.522,69.07,200
SE,345,Vallvik,17.18,61.186,200
SE,288,Hjorted,16.309,57.623,200
SE,240,Norrsundet,17.138,60.933,200
IT,1478,Firenze,11.249,43.787,595
SE,345,Malmköping,16.724,59.135,200
SE,496,Torsås,16.001,56.412,200
AT,1027,Salzburg,13.034,47.81,714
SE,3062,Gävle,17.122,60.69,714
IT,496,Siniscola,9.692,40.572,240
DE,345,Pocking,13.31,48.4,200
DE,240,Berchtesgaden,13.003,47.633,200
SE,288,Morgongåva,16.964,59.933,200
IT,288,Dorgali,9.588,40.293,200
IT,345,Urzulei,9.508,40.093,200
SE,288,Valdemarsvik,16.596,58.21,240
IT,595,Treviso,12.24,45.674,200
DE,714,Passau,13.458,48.573,345
AT,856,Lienz,12.77,46.829,288
DE,240,Keune,14.661,51.718,200
IT,288,Dolianova,9.178,39.379,200
CZ,240,Kladno,14.103,50.147,200
IT,3674,Cagliari,9.116,39.23,2127
IT,345,Pula,9,39.009,200
CZ,288,Beroun,14.071,49.965,200
SE,1027,Oskarshamn,16.432,57.257,414
SE,288,Nävekvarn,16.798,58.633,200
CZ,240,Blatná,13.882,49.425,200
SE,414,Kramfors,17.777,62.928,200
IT,345,Bubano,11.783,44.412,200
SE,240,Strängnäs,17.019,59.373,200
SE,856,Västervik,16.626,57.755,496
SE,288,Mönsterås,16.441,57.042,200
SE,1232,Kalmar,16.34,56.677,714
CZ,414,Chřibská,14.483,50.863,200
SE,288,Loftahammar,16.687,57.902,200
IT,496,Siena,11.334,43.32,288
SE,240,Figeholm,16.549,57.374,200
CZ,414,Štětí,14.374,50.453,200
IT,1027,Grosseto,11.107,42.771,595
SE,240,Ramvik,17.864,62.81,200
NO,5289,Tromsø,18.956,69.651,2127
IT,414,Chioggia,12.278,45.196,240
IT,496,Tertenia,9.577,39.697,200
PL,595,Gorzów Wielkopolski,15.229,52.738,496
AT,288,Bad Gastein,13.134,47.116,200
IT,414,Pordenone,12.651,45.961,240
SE,240,Älvkarleby,17.454,60.57,200
AT,240,Großarl,13.201,47.237,200
SE,595,Härnösand,17.907,62.631,200
PL,240,Drzewce,15.106,52.24,200
PL,595,Choszczno,15.422,53.169,200
DE,240,Wegscheid,13.789,48.601,200
SE,288,Degerhamn,16.417,56.354,200
IT,288,San Donà di Piave,12.565,45.636,200
PL,345,Ińsko,15.55,53.436,200
CZ,288,Prachatice,13.997,49.014,200
IT,496,Comacchio,12.181,44.696,240
IT,240,Montiano,11.223,42.645,200
CZ,2552,Praha,14.417,50.085,1478
IT,345,Porto Santo Stefano,11.123,42.433,288
IT,288,Muravera,9.574,39.421,240
CZ,496,Písek,14.147,49.31,240
SE,714,Tierp,17.52,60.345,240
IT,345,Goro,12.3,44.855,200
IT,496,Tolmezzo,13.016,46.406,288
IT,496,Forlì,12.053,44.222,288
AT,414,Gosau,13.524,47.58,200
IT,345,Villasimius,9.517,39.145,200
IT,414,Ravenna,12.203,44.416,200
SE,414,Fredrika,18.403,64.074,288
IT,345,Portogruaro,12.839,45.777,200
IT,240,Pila,12.483,44.967,200
PL,496,Żary,15.142,51.641,240
DE,856,Görlitz,14.988,51.155,288
NO,496,Storsteinnes,19.218,69.237,200
CZ,240,Brandýs nad Labem-Stará Boleslav,14.663,50.188,200
AT,496,Gmunden,13.799,47.919,200
PL,414,Białogard,15.991,54.007,200
IT,595,Arezzo,11.866,43.472,288
SE,240,Nordingrå,18.287,62.931,200
SE,1232,Uppsala,17.634,59.851,414
SE,288,Docksta,18.328,63.055,200
PL,288,Iłowa,15.2,51.503,200
NO,414,Skjold,19.295,69.027,200
SE,595,Malå,18.742,65.185,288
SE,240,Storvreta,17.705,59.958,200
AT,288,Malta,13.507,46.955,200
SE,1027,Lycksele,18.666,64.594,595
IT,414,Abbadia San Salvatore,11.676,42.878,345
CZ,345,Český Krumlov,14.315,48.812,200
PL,414,Międzyrzecz,15.587,52.435,200
CZ,856,České Budějovice,14.474,48.975,595
PL,414,Świebodzin,15.531,52.247,240
AT,288,Wels,14.03,48.168,200
PL,1478,Koszalin,16.171,54.19,714
CZ,414,Mladá Boleslav,14.903,50.412,288
IT,240,Oro,12.161,42.991,200
IT,240,Orvieto,12.108,42.718,200
AT,345,Spittal an der Drau,13.496,46.796,345
IT,345,Gorizia,13.614,45.934,200
PL,240,Bobolice,16.591,53.955,200
SE,345,Järna,17.562,59.094,200
CZ,496,Benešov,14.687,49.782,240
CZ,414,Jindřichův Hradec,15.002,49.145,200
CZ,288,Votice,14.639,49.64,200
CZ,856,Liberec,15.058,50.771,496
PL,414,Złocieniec,16.008,53.53,200
CZ,240,Žirovnice,15.188,49.253,200
PL,714,Słupsk,17.028,54.466,414
AT,496,Sankt Martin,13.654,47.1,240
IT,1773,Trieste,13.803,45.634,414
SE,288,Trosa,17.546,58.899,200
PL,240,Dretyń,16.982,54.104,200
SE,345,Glommersträsk,19.633,65.261,200
PL,240,Połczyn-Zdrój,16.099,53.764,200
PL,414,Szamotuły,16.584,52.613,200
PL,1232,Zielona Góra,15.503,51.936,714
PL,595,Legnica,16.162,51.205,345
SE,288,Bergshamra,18.629,59.637,200
AT,345,Berndorf,14.216,48.431,200
IT,856,Udine,13.244,46.066,345
PL,288,Drezdenko,15.831,52.842,200
SE,240,Björna,18.599,63.551,200
CZ,856,Tábor,14.658,49.414,345
SE,288,Köpmanholmen,18.573,63.171,200
AT,240,Gröbming,13.903,47.444,200
NO,496,Hansnes,19.613,69.962,288
SE,288,Rusksele,18.895,64.814,200
SE,345,Märsta,17.847,59.627,200
AT,2127,Linz,14.307,48.268,856
IT,240,Canino,11.753,42.467,200
IT,288,Città di Castello,12.233,43.469,200
SE,1027,Örnsköldsvik,18.688,63.317,496
PL,240,Międzychód,15.906,52.606,200
PL,345,Borowina,15.584,51.635,200
IT,1027,Rimini,12.577,44.049,714
SE,345,Alunda,18.085,60.066,200
SE,1232,Arvidsjaur,19.18,65.592,595
IT,345,Tarquinia,11.757,42.248,200
PL,345,Bolesławiec,15.559,51.262,288
CZ,345,Semily,15.336,50.602,200
SI,345,Soča,13.667,46.342,200
SE,240,Segersäng,17.93,59.027,200
AT,414,Steyr,14.428,48.045,200
AT,496,Liezen,14.242,47.565,288
CZ,496,Kolín,15.2,50.028,288
PL,240,Rudki,16.367,53.402,200
IT,414,Civitavecchia,11.801,42.092,345
SE,345,Täby,18.075,59.448,200
AT,345,Windischgarsten,14.328,47.722,200
SE,496,Nynäshamn,17.944,58.905,288
SE,288,Gideå,18.972,63.483,200
CZ,240,Byňov,14.799,48.816,200
SI,496,Tolmin,13.732,46.183,200
SE,15789,Stockholm,18.091,59.27,5289
IT,595,Fermignano,12.642,43.686,240
IT,2127,Perugia,12.379,43.099,714
SE,595,Östhammar,18.361,60.26,288
SE,595,Moskosel,19.452,65.873,240
IT,414,Viterbo,12.107,42.425,288
SE,240,Jordbro,18.127,59.145,200
PL,240,Wałcz,16.472,53.273,200
SE,288,Rånäs,18.304,59.804,200
AT,240,Rennweg,14.127,46.784,200
PL,288,Jelenia Góra,15.736,50.902,288
SE,496,Bjurholm,19.22,63.932,240
PL,1027,Szczecinek,16.692,53.71,345
SE,345,Åmsele,19.344,64.53,240
AT,414,Königswiesen,14.841,48.408,200
PL,414,Kępice,16.889,54.241,200
IT,288,Todi,12.406,42.78,200
PL,496,Głogów,16.075,51.649,200
SE,714,Norsjö,19.489,64.913,288
SE,496,Porjus,19.815,66.957,240
SI,240,Dutovlje,13.833,45.756,200
PL,414,Lubasz,16.522,52.847,200
AT,288,Leopoldsdorf,15.138,48.948,200
AT,288,Oberland,14.746,47.9,200
AT,595,Amstetten,14.871,48.123,240
NO,496,Lyngseidet,20.217,69.572,200
SE,414,Hallstavik,18.599,60.054,200
SE,1232,Jokkmokk,19.85,66.601,496
PL,496,Miastko,16.973,53.996,240
HR,414,Rovinj,13.641,45.08,414
AT,414,Klagenfurt am Wörthersee,14.305,46.625,414
CZ,288,Dvůr Králové nad Labem,15.814,50.432,200
NO,345,Skibotn,20.274,69.392,200
PL,1232,Piła,16.765,53.152,595
IT,496,Fabriano,12.903,43.341,288
IT,240,Civita Castellana,12.408,42.295,200
AT,414,Zwettl-Niederösterreich,15.168,48.606,288
PL,414,Lubin,16.204,51.396,200
CZ,414,Trutnov,15.912,50.562,200
CZ,1232,Pardubice,15.78,50.039,595
IT,414,Spoleto,12.714,42.748,200
SE,595,Norrtälje,18.697,59.762,288
IT,1027,Terni,12.638,42.566,414
SE,595,Nordmaling,19.503,63.569,240
PL,496,Chojnice,17.565,53.694,414
SE,1773,Kiruna,20.245,67.854,1232
AT,288,Weiz,15.63,47.216,200
IT,240,Acilia-Castel Fusano-Ostia Antica,12.348,41.769,200
HR,288,Brod Moravice,14.971,45.464,200
HR,595,Medulin,13.938,44.821,414
IT,288,Visso,13.086,42.933,200
IT,288,Tolentino,13.291,43.213,240
PL,345,Jawor,16.189,51.05,200
CZ,856,Jihlava,15.591,49.396,496
PL,240,Barnowiec,17.236,54.216,200
IT,240,Senigallia,13.218,43.71,200
PL,345,Główczyce,17.368,54.619,200
PL,595,Śrem,17.015,52.089,240
AT,414,Sankt Pölten,15.63,48.201,414
NO,856,Skjervøy,20.967,70.031,496
PL,345,Gostyń,17.004,51.879,200
AT,345,Eisenerz,14.891,47.543,200
PL,240,Sępólno Krajeńskie,17.534,53.443,200
SI,345,Kranj,14.358,46.243,200
CZ,240,Česká Třebová,16.447,49.902,200
IT,595,Portocivitanova,13.721,43.307,240
AT,2552,Graz,15.434,47.078,856
SE,288,Bygdsiljum,20.504,64.351,200
PL,240,Czersk,17.973,53.774,200
HR,240,Baška,14.755,44.971,200
SE,288,Klintehamn,18.202,57.387,200
SE,595,Burträsk,20.644,64.513,200
SI,496,Novo mesto,15.165,45.806,345
SE,714,Vindeln,19.719,64.2,288
SI,345,Postojna,14.21,45.774,240
PL,496,Złotów,17.048,53.361,200
PL,496,Leszno,16.569,51.841,240
SE,1478,Visby,18.314,57.639,856
CZ,240,Jemnice,15.57,49.019,240
IT,15789,Roma,12.497,41.891,7615
IT,240,Cingoli,13.209,43.376,200
PL,240,Małowice,16.472,51.406,200
PL,714,Łeba,17.568,54.765,288
IT,345,Monterotondo,12.625,42.057,200
PL,288,Antoniny,17.061,53.058,200
PL,856,Wałbrzych,16.287,50.742,345
SE,414,Burgsvik,18.277,57.033,200
PL,240,Lipka,17.246,53.494,200
SE,345,Jörn,20.034,65.056,200
SI,496,Ljubljana,14.512,46.056,496
AT,595,Wolfsberg,14.845,46.84,288
IT,345,Rieti,12.869,42.406,200
PL,2552,Poznań,16.918,52.407,1027
IT,345,Leonessa,12.96,42.566,200
AT,240,Wolfsbach,15.662,48.85,200
HR,595,Labin,14.124,45.086,200
AT,595,Leoben,15.092,47.374,240
SE,856,Hemse,18.383,57.239,345
IT,345,Norcia,13.097,42.79,240
CZ,288,Broumov,16.332,50.586,200
CZ,240,Zámrsk,16.129,49.986,200
CZ,345,Svratka,16.032,49.711,200
IT,856,Ancona,13.506,43.588,595
PL,345,Buków,16.585,50.985,200
PL,240,Topola,17.358,53.285,200
PL,595,Wągrowiec,17.204,52.803,200
CZ,345,Vamberk,16.291,50.118,200
AT,240,Langenlois,15.678,48.473,200
CZ,288,Pohledec,16.1,49.579,200
HR,595,Rijeka,14.407,45.34,345
PL,414,Rawicz,16.907,51.629,200
FI,714,Kilpisjärvi,20.87,69.018,288
AT,414,Lilienfeld,15.598,48.013,200
CZ,288,Jevišovice,15.99,48.987,200
SE,1478,Gällivare,20.655,67.139,595
SE,345,Slite,18.795,57.712,200
SE,240,Ljugarn,18.707,57.333,200
NO,496,Storslett,21.025,69.767,200
SE,240,Botsmark,20.245,64.254,200
HR,240,Martinšćica,14.351,44.819,200
SE,414,Tjautjas/Cavccas,20.735,67.325,200
SE,288,Vidsel,20.516,65.833,200
PL,288,Iwno,17.272,52.404,200
AT,240,Zellerndorf,15.955,48.696,200
AT,288,Reidling,15.82,48.32,200
PL,240,Linia,17.934,54.45,200
SE,345,Vuollerim,20.624,66.431,288
SE,345,Boliden,20.38,64.866,240
CZ,714,Znojmo,16.049,48.856,288
SE,2127,Umeå,20.241,63.833,1773
PL,288,Kłodzko,16.659,50.433,240
AT,288,Sankt Peter im Sulmtal,15.251,46.758,240
IT,288,Subiaco,13.09,41.925,200
SI,240,Velenje,15.106,46.353,200
IT,856,Latina,12.898,41.465,345
PL,288,Bystrzyca Kłodzka,16.646,50.284,200
IT,288,Fermo,13.73,43.166,200
CZ,496,Svitavy,16.468,49.757,240
HR,496,Krk,14.575,45.026,200
SI,345,Kočevje,14.862,45.641,200
AT,496,Mürzzuschlag,15.676,47.604,288
IT,595,L'Aquila,13.396,42.364,240
PL,288,Kościerzyna,17.984,54.117,288
HR,288,Crikvenica,14.689,45.175,200
AT,288,Hollabrunn,16.08,48.563,240
SE,595,Fårösund,19.05,57.859,200
PL,2127,Wrocław,17.031,51.108,1232
SE,240,Holmsund,20.367,63.707,200
HR,1773,Mali Lošinj,14.476,44.528,714
HR,288,Mrkopalj,14.854,45.315,200
PL,496,Gniezno,17.596,52.536,288
SI,714,Celje,15.264,46.231,288
PL,288,Żnin,17.732,52.85,240
PL,288,Kartuzy,18.197,54.329,200
AT,345,Wenigzell,15.787,47.426,200
IT,496,Teramo,13.714,42.662,240
IT,1027,Avezzano,13.427,42.031,345
PL,240,Strzelin,17.068,50.784,200
IT,1027,San Benedetto del Tronto,13.881,42.934,345
PL,345,Koronowo,17.941,53.31,200
PL,414,Jarocin,17.506,51.968,240
AT,240,Gleisdorf,15.713,47.106,200
CZ,345,Boskovice,16.66,49.488,200
PL,345,Krotoszyn,17.439,51.701,288
IT,414,Frosinone,13.351,41.639,288
CZ,2127,Brno,16.61,49.193,856
PL,714,Puck,18.401,54.713,200
FI,414,Ödkarby,19.967,60.309,200
HR,496,Rab,14.762,44.755,200
SE,414,Harads,20.958,66.082,240
AT,496,Feldbach,15.889,46.953,240
HR,595,Brinje,15.124,44.998,240
CZ,240,Hustopeče,16.738,48.941,200
PL,240,Grodków,17.386,50.694,200
IT,1478,Ponza,12.965,40.894,345
PL,414,Węgierki,17.675,52.322,200
PL,345,Starogard Gdański,18.514,53.948,200
HR,288,Verunić,14.858,44.143,200
HR,240,Cerovnik,15.3,45.15,200
PL,288,Kleczew,18.178,52.369,200
SE,414,Hakkas,21.567,66.915,345
FI,240,Vårdö,20.375,60.245,200
PL,345,Chełmża,18.609,53.185,240
PL,856,Grudziądz,18.754,53.488,345
SK,414,Malacky,17.018,48.436,240
SE,240,Ullatti,21.818,67.017,200
IT,345,Terracina,13.228,41.287,200
PL,1773,Bydgoszcz,18.001,53.123,595
HR,240,Dugo Selo,16.233,45.806,200
IT,240,Giulianova,13.958,42.757,200
PL,240,Oleśnica,17.389,51.207,200
AT,288,Natschbach,16.1,47.712,200
SI,288,Slovenska Bistrica,15.568,46.39,200
SI,1027,Maribor,15.647,46.562,414
SE,414,Älvsbyn,21.004,65.674,200
FI,1027,Mariehamn,19.937,60.096,496
CZ,714,Šumperk,16.971,49.965,288
AT,345,Baden,16.245,48.004,200
AT,4408,Wien,16.376,48.212,3674
PL,240,Karmin,17.689,51.837,200
PL,345,Gdynia,18.541,54.515,200
IT,288,Vestea,13.884,42.39,200
SI,345,Krško,15.497,45.958,200
SE,595,Robertsfors,20.849,64.192,345
CZ,345,Úsov,17.011,49.798,200
HR,1232,Ogulin,15.226,45.266,414
SE,288,Bygdeå,20.859,64.062,200
CZ,240,Jeseník,17.205,50.229,200
SE,1478,Skellefteå,20.996,64.757,714
PL,414,Brzeg,17.47,50.855,240
PL,595,Nysa,17.337,50.467,288
PL,240,Czarże,18.271,53.223,200
PL,3674,Gdańsk,18.648,54.347,1478
AT,240,Hornstein,16.443,47.879,200
PL,345,Osiek,18.493,53.723,200
IT,414,Sulmona,13.928,42.048,288
SI,288,Rogašovci,16.035,46.805,200
PL,345,Strzelno,18.166,52.628,200
HR,240,Velika Plana,15.15,44.671,200
PL,240,Hel,18.793,54.613,200
HR,414,Duga Resa,15.501,45.447,288
PL,595,Inowrocław,18.263,52.8,240
SE,414,Byske,21.211,64.954,200
IT,1478,Pescara,14.21,42.46,856
SE,714,Vittangi,21.639,67.678,414
SE,595,Övre Soppero,21.697,68.09,288
HR,595,Krapina,15.867,46.162,288
IT,496,Ventotene,13.43,40.796,288
IT,714,Formia,13.668,41.258,288
CZ,714,Olomouc,17.251,49.594,345
IT,345,Cassino,13.831,41.493,200
PL,496,Tczew,18.779,54.095,200
PL,345,Ostrzeszów,17.931,51.424,240
SI,414,Murska Sobota,16.164,46.658,288
FI,240,Föglö,20.387,60.03,200
PL,288,Prudnik,17.583,50.319,200
PL,1027,Kalisz,18.084,51.758,595
PL,1027,Konin,18.255,52.228,414
NO,414,Burfjord,22.052,69.939,240
SE,714,Piteå,21.456,65.322,240
SE,345,Lövånger,21.315,64.368,200
AT,240,Marchegg,16.908,48.28,200
HR,595,Gospić,15.377,44.545,595
IT,345,Castel di Sangro,14.104,41.775,200
NO,595,Hasvik,22.168,70.486,200
CZ,595,Hodonín,17.132,48.849,288
SE,345,Jävre,21.49,65.154,200
HR,345,Zadar,15.228,44.113,345
HR,2552,Zagreb,15.977,45.813,1478
SE,414,Boden,21.676,65.824,200
HR,288,Marija Bistrica,16.118,46.007,200
NO,240,Breivikbotn,22.294,70.59,200
PL,856,Opole,17.924,50.666,414
FI,595,Korsnäs,21.187,62.785,240
PL,496,Kwidzyn,18.931,53.703,200
SE,240,Rosvik,21.685,65.429,200
PL,288,Sztutowo,19.169,54.326,200
HR,345,Varaždin,16.336,46.307,345
IT,345,Isernia,14.24,41.6,240
NO,414,Øksfjord,22.354,70.237,288
CZ,288,Uherské Hradiště,17.46,49.07,200
SK,856,Bratislava,17.119,48.154,414
FI,345,Kumlinge,20.779,60.259,200
PL,595,Kluczbork,18.213,50.973,288
HR,714,Biograd na Moru,15.452,43.941,595
CZ,288,Hranice,17.734,49.549,200
HR,240,Glina,16.091,45.338,200
IT,714,Marsala,12.49,37.821,496
PL,496,Braniewo,19.823,54.368,200
IT,345,Vasto,14.708,42.125,200
HR,288,Lovinac,15.687,44.392,200
HR,414,Daruvar,17.224,45.594,414
FI,496,Närpes,21.339,62.482,345
FI,595,Brändö,21.049,60.411,240
CZ,345,Opava,17.902,49.939,200
IT,595,Campobasso,14.668,41.56,414
IT,1773,Pantelleria,11.946,36.829,714
PL,288,Izbica Kujawska,18.767,52.42,200
CZ,714,Zlín,17.666,49.227,288
IT,288,Valderice,12.622,38.043,200
HR,414,Šibenik,15.896,43.734,345
PL,414,Dobra,18.615,51.916,240
PL,414,Rybnik,18.528,50.083,200
NO,1232,Guovdageaidnu,23.039,69.014,595
IT,288,San Vito lo Capo,12.734,38.172,200
PL,240,Szarnoś,19.143,53.465,200
HR,414,Obrovac,15.682,44.201,240
IT,714,Ribera,13.265,37.5,414
IT,345,Montella,15.018,40.844,200
HR,288,Komiža,16.09,43.045,288
SK,714,Nové Zámky,18.165,47.985,240
FI,496,Kökar,20.9,59.933,240
PL,595,Elbląg,19.404,54.156,345
HR,288,Petrinja,16.279,45.44,288
PL,288,Dzierzgoń,19.352,53.922,200
IT,345,Mazara del Vallo,12.58,37.662,200
IT,414,Caserta,14.344,41.068,200
PL,288,Susz,19.336,53.715,200
PL,414,Złoczew,18.611,51.407,200
PL,414,Wieluń,18.558,51.221,240
IT,2127,Napoli,14.276,40.859,1027
IT,1232,Ustica,13.192,38.711,414
FI,1232,Vaasa,21.682,63.091,595
FI,414,Lappfjärd,21.522,62.248,200
PL,496,Sieradz,18.721,51.596,345
PL,414,Włocławek,19.066,52.649,345
SK,414,Trnava,17.589,48.38,240
FI,240,Horonkylä,21.628,62.596,200
HR,240,Prokljuvani,16.565,45.758,200
IT,345,Telese,14.528,41.218,200
PL,496,Ujazd,18.35,50.389,240
FI,414,Merikarvia,21.504,61.861,200
PL,414,Lipno,19.179,52.848,200
IT,288,Salemi,12.806,37.823,200
IT,595,Capri,14.243,40.55,240
SE,2127,Luleå,22.223,65.587,1027
SE,345,Junosuando,22.498,67.426,288
CZ,414,Kopřivnice,18.145,49.6,200
IT,345,Alcamo,12.962,37.983,240
SE,345,Råneå,22.293,65.859,200
HR,856,Koprivnica,16.832,46.163,496
IT,856,Termoli,14.999,41.989,240
PL,414,Brodnica,19.4,53.25,345
FI,240,Teuva,21.741,62.479,200
CZ,1232,Ostrava,18.281,49.835,856
HR,595,Popovača,16.628,45.568,414
SK,856,Piešťany,17.831,48.595,200
FI,595,Uusikaupunki,21.41,60.805,288
SK,240,Dunajská Streda,17.614,47.997,200
PL,240,Młynary,19.729,54.187,200
FI,714,Rauma,21.512,61.127,288
PL,345,Rypin,19.409,53.068,200
HR,414,Bjelovar,16.841,45.901,414
FI,240,Lokalahti,21.464,60.682,200
HR,1027,Dugopolje,16.194,44.333,240
PL,345,Lubliniec,18.685,50.669,200
SK,595,Trenčín,18.06,48.899,240
PL,240,Nowe Miasto Lubawskie,19.594,53.417,200
SE,288,Kuttainen,22.814,68.381,240
FI,240,Laihia,22.026,62.976,200
FI,288,Jurva,21.989,62.685,200
SK,345,Šaľa,17.874,48.152,200
HR,345,Rogoznica,15.968,43.529,200
HR,345,Knin,16.195,44.038,345
FI,1478,Pori,21.777,61.479,714
IT,7615,Palermo,13.337,38.11,2127
PL,714,Kutno,19.356,52.232,288
FI,240,Isojoki,21.955,62.119,200
FI,240,Noormarkku,21.86,61.599,200
PL,288,Gostynin,19.465,52.426,200
PL,414,Morąg,19.93,53.911,200
FI,240,Korpo,21.562,60.163,200
IT,345,Corleone,13.298,37.817,240
SE,345,Morjärv,22.702,66.066,200
IT,240,Montecalvo Irpino,15.033,41.195,200
SK,595,Nitra,18.085,48.308,496
PL,595,Sierpc,19.662,52.849,240
IT,496,Salerno,14.792,40.68,345
IT,414,Villaggio San Domino,15.49,42.116,240
FI,345,Vörå,22.255,63.136,200
PL,288,Lidzbark,19.824,53.262,200
PL,345,Ostróda,19.96,53.7,240
NO,1773,Alta,23.257,69.966,1232
HR,345,Novska,16.979,45.341,345
FI,1478,Kauhajoki,22.176,62.426,345
IT,414,San Severo,15.377,41.686,200
SE,288,Överkalix,22.848,66.324,240
PL,1478,Częstochowa,19.121,50.812,414
FI,240,Oravais,22.38,63.304,200
PL,1027,Płock,19.699,52.548,595
PL,1478,Łódź,19.457,51.767,714
SK,345,Partizánske,18.374,48.625,200
PL,345,Żuromin,19.904,53.064,200
IT,240,Troia,15.313,41.364,200
PL,288,Ustroń,18.813,49.703,200
IT,345,San Nicandro Garganico,15.565,41.838,200
PL,288,Gierzwałd,20.089,53.543,200
PL,595,Katowice,19.025,50.259,414
SE,288,Korpilombolo,23.051,66.849,288
FI,345,Nykarleby,22.536,63.521,200
SK,240,Hurbanovo,18.192,47.873,200
FI,240,Mynämäki,21.986,60.679,200
HR,595,Virovitica,17.384,45.833,414
IT,1027,Agropoli,14.996,40.347,200
PL,595,Radomsko,19.439,51.069,240
IT,345,Termini Imerese,13.696,37.984,240
HR,414,Sinj,16.638,43.704,200
FI,414,Kurikka,22.39,62.616,200
SK,414,Čadca,18.786,49.437,200
FI,345,Harjavalta,22.138,61.314,200
IT,1478,Lampedusa,12.61,35.5,1232
LV,1773,Liepāja,21.007,56.51,595
IT,240,Eboli,15.058,40.614,200
FI,595,Nagu,21.906,60.193,240
PL,414,Mława,20.376,53.116,200
HR,288,Davor,17.516,45.111,200
IT,240,Polla,15.5,40.515,200
IT,240,Vieste,16.176,41.883,240
SK,1232,Žilina,18.74,49.224,496
IT,288,Gangi,14.204,37.796,200
HR,1773,Split,16.447,43.516,1027
SK,288,Šahy,18.947,48.07,200
FI,288,Kolari,23.789,67.332,200
FI,414,Eura,22.154,61.131,240
FI,345,Sieppijärvi,23.986,67.151,200
HR,414,Korčula,17.137,42.956,288
FI,240,Ylistaro,22.528,62.945,200
SK,345,Prievidza,18.626,48.773,240
IT,1232,Foggia,15.549,41.461,714
LV,288,Pāvilosta,21.193,56.886,200
LV,345,Nīca,21.062,56.346,200
PL,345,Dobre Miasto,20.394,53.981,200
PL,288,Zawada,19.425,50.938,200
FI,414,Jakobstad,22.697,63.671,200
PL,595,Bielsko-Biała,19.051,49.823,345
FI,595,Kankaanpää,22.386,61.809,288
NO,1478,Hammerfest,23.696,70.666,595
HR,288,Mirca,16.521,43.377,200
IT,288,Cairano,15.371,40.896,200
HR,714,Hvar,16.441,43.173,288
PL,496,Piotrków Trybunalski,19.678,51.415,288
SE,714,Kalix,23.151,65.859,288
HR,595,Nova Gradiška,17.378,45.259,414
IT,288,Ascoli Satriano,15.564,41.202,200
SE,1027,Pajala,23.36,67.215,414
HR,240,Novo Zvečevo,17.513,45.544,200
PL,240,Lipowa,19.111,49.68,200
LT,496,Palanga,21.077,55.928,200
IT,240,Scillato,13.907,37.857,200
LV,288,Rucava,21.161,56.162,200
PL,240,Doziny,20.249,53.014,200
SK,496,Levice,18.607,48.219,200
PL,1478,Olsztyn,20.486,53.774,856
PL,288,Milówka,19.096,49.55,200
SK,288,Martin,18.921,49.065,200
PL,496,Zawiercie,19.429,50.484,200
FI,288,Karvia,22.566,62.137,200
IT,714,Linosa,12.862,35.86,288
PL,856,Nidzica,20.419,53.351,200
FI,1773,Turku,22.278,60.451,1027
IT,345,Alicudi Porto,14.36,38.536,345
LV,1478,Ventspils,21.568,57.393,714
FI,288,Alahärmä,22.854,63.25,200
IT,345,Manfredonia,15.91,41.625,200
PL,288,Laski,19.46,50.318,200
PL,288,Chrzanów,19.398,50.137,200
FI,1232,Enontekiö,23.64,68.385,345
HR,345,Nova Sela,16.796,43.524,200
IT,240,Vallo della Lucania,15.262,40.23,200
PL,414,Rzewin,20.277,52.725,200
LT,1773,Klaipėda,21.167,55.697,1027
FI,414,Lavia,22.589,61.597,200
FI,240,Jalasjärvi,22.768,62.49,200
PL,288,Koniecpol,19.675,50.775,240
HR,288,Voštane,16.901,43.649,200
IT,240,Sacco,15.38,40.377,200
HR,288,Jelsa,16.692,43.161,288
FI,856,Seinäjoki,22.85,62.787,496
LV,240,Alsunga,21.557,56.982,200
IT,288,Canicattì,13.851,37.36,200
PL,1027,Bartoszyce,20.815,54.253,414
FI,714,Muonio,23.684,67.955,414
NO,288,Kvalsund,23.985,70.5,200
PL,595,Skierniewice,20.143,51.96,345
PL,240,Maluszyn,19.797,50.913,200
PL,414,Sochaczew,20.238,52.229,200
IT,414,Lavello,15.793,41.048,288
HR,414,Selca,16.851,43.297,240
FI,2552,Kokkola,23.134,63.839,714
IT,595,Caltanissetta,14.047,37.49,345
LV,496,Aizpute,21.613,56.718,240
FI,288,Kauhava,23.038,63.101,200
FI,414,Lapua,23.013,62.965,200
LT,414,Skuodas,21.518,56.269,240
SK,856,Banská Bystrica,19.147,48.736,345
FI,496,Aura,22.587,60.647,200
IT,496,Sala Consilina,15.599,40.391,200
SE,714,Övertorneå,23.641,66.39,414
IT,288,Mistretta,14.361,37.929,200
PL,856,Ciechanów,20.605,52.883,345
PL,414,Rawa Mazowiecka,20.255,51.762,200
IT,288,Licata,13.951,37.104,200
HR,240,Gdinj,16.942,43.132,200
LT,240,Salantai,21.571,56.06,200
IT,595,Potenza,15.811,40.643,414
SE,345,Hedenäset,23.687,66.224,200
SK,345,Liptovská Lúžna,19.331,48.935,200
HR,414,Pasadur,16.823,42.766,200
IT,240,Minervino Murge,16.077,41.084,200
PL,240,Żyrardów,20.444,52.056,200
FI,496,Parkano,23.016,62.002,200
FI,288,Paimio,22.699,60.45,200
FI,240,Nedervetil,23.338,63.702,200
HR,345,Donji Miholjac,18.161,45.761,240
LV,345,Ance,22.023,57.513,200
FI,496,Sastamala,22.901,61.35,288
SK,288,Tvrdošín,19.555,49.337,200
IT,496,Sapri,15.629,40.075,200
LT,595,Šilutė,21.473,55.349,240
HR,288,Našice,18.093,45.491,288
IT,345,Leonforte,14.397,37.642,240
SE,414,Juoksengi,23.843,66.565,200
IT,288,Spinazzola,16.091,40.967,200
PL,345,Szczytno,20.987,53.557,288
LV,240,Ugāle,22.021,57.277,200
PL,345,Chorzele,20.898,53.254,240
SE,345,Seskarö,23.741,65.736,200
LV,856,Kuldīga,21.965,56.97,288
FI,240,Kimito,22.729,60.166,200
LV,240,Dzelda,21.893,56.573,200
FI,345,Kihniö,23.178,62.202,200
IT,595,Andria,16.295,41.227,345
FI,856,Pello,23.966,66.776,288
PL,414,Miechów,20.036,50.351,240
PL,4408,Kraków,19.938,50.055,1773
IT,595,Lipari,14.954,38.464,414
FI,240,Marttila,22.894,60.586,200
SK,345,Detva,19.42,48.56,200
SK,288,Liptovský Mikuláš,19.613,49.084,288
IT,1027,Gela,14.243,37.07,496
IT,345,Panarea,15.076,38.637,200
IT,240,Aidone,14.445,37.416,200
FI,345,Evijärvi,23.477,63.368,200
LV,240,Skrunda,22.009,56.674,200
FI,414,Raattama,24.22,68.138,200
PL,345,Końskie,20.411,51.189,240
FI,240,Äkäslompolo,24.167,67.603,200
LT,240,Plungė,21.846,55.911,200
FI,288,Himanka,23.651,64.062,200
PL,240,Dobczyce,20.103,49.877,200
IT,1027,Stromboli,15.238,38.804,288
PL,288,Kadzidło,21.462,53.235,200
FI,345,Loimaa,23.043,60.853,240
FI,345,Karunki,24.025,66.035,240
FI,240,Karis,23.666,60.072,200
NO,414,Havøysund,24.663,70.998,288
HR,240,Beli Manastir,18.606,45.767,200
IT,345,Belvedere Marittimo,15.846,39.629,200
LV,345,Pampāļi,22.213,56.537,200
PL,496,Mrągowo,21.303,53.864,200
EE,240,Emmaste,22.597,58.705,200
EE,856,Kuressaare,22.493,58.258,714
HR,240,Ivankovo,18.688,45.289,200
FI,240,Urjala,23.557,61.079,200
IT,345,Scalea,15.796,39.811,240
HR,414,Županja,18.696,45.072,345
FI,345,Somero,23.524,60.625,200
FI,345,Killinkoski,23.889,62.398,200
FI,288,Pyhäjoki,24.258,64.468,200
IT,1478,Messina,15.55,38.191,595
PL,240,Łososina Dolna,20.618,49.753,200
IT,345,Augusta,15.238,37.252,200
FI,240,Kaukonen,24.906,67.481,200
IT,496,Gioia Tauro,15.896,38.431,200
PL,856,Nowy Sącz,20.71,49.591,345
FI,288,Kuortane,23.508,62.807,200
FI,496,Tervola,24.811,66.087,288
IT,414,Pachino,15.094,36.716,240
FI,345,Sievi,24.514,63.908,200
IT,496,Melito di Porto Salvo,15.772,37.923,200
PL,496,Ostrów Mazowiecka,21.899,52.802,200
SK,496,Rožňava,20.53,48.658,240
IT,345,Caltagirone,14.516,37.217,200
PL,345,Legionowo,20.937,52.408,200
IT,345,Bronte,14.835,37.789,240
EE,496,Kärdla,22.745,58.995,345
LT,414,Rietavas,21.93,55.724,200
FI,496,Kaustinen,23.708,63.554,240
EE,288,Leisi,22.683,58.571,200
FI,414,Hanko,22.978,59.831,200
LT,288,Vainutas,21.866,55.365,200
HR,595,Đakovo,18.415,45.314,200
IT,240,Molfetta,16.597,41.201,200
PL,345,Mszana Dolna,20.087,49.679,200
IT,345,Ramacca,14.692,37.388,200
PL,414,Zakopane,19.963,49.29,200
IT,345,Stigliano,16.231,40.401,200
EE,345,Käina,22.776,58.828,200
PL,414,Nowy Targ,20.035,49.478,345
FI,595,Salo,23.134,60.388,345
PL,288,Proszowice,20.295,50.192,200
PL,345,Grójec,20.868,51.866,240
PL,6346,Warszawa,20.998,52.233,3674
FI,345,Alavus,23.61,62.585,288
FI,345,Perniö,23.132,60.204,200
SK,714,Lučenec,19.666,48.329,345
IT,288,Quasano,16.575,40.967,200
LV,414,Kolka,22.587,57.743,200
IT,288,San Severino Lucano,16.139,40.019,200
LV,240,Kabile,22.398,56.954,200
SK,240,Utekáč,19.806,48.604,200
FI,288,Kalajoki,23.952,64.255,240
IT,595,Altamura,16.548,40.828,240
PL,856,Kielce,20.631,50.871,496
FI,240,Lankojärvi,24.365,66.735,200
EE,288,Valjala,22.795,58.41,200
PL,240,Topola,20.447,50.305,200
FI,345,Kannus,23.927,63.895,200
FI,345,Ullava,23.896,63.705,200
PL,714,Pińczów,20.527,50.52,288
HR,1773,Osijek,18.676,45.56,714
FI,345,Vimpeli,23.826,63.16,200
IT,345,Senise,16.289,40.147,240
FI,595,Alajärvi,23.813,63,288
HR,595,Metković,17.649,43.051,240
LV,240,Valdemārpils,22.592,57.372,200
LT,714,Telšiai,22.232,55.98,288
PL,288,Węgorzewo,21.746,54.208,200
LV,496,Talsi,22.576,57.246,288
LT,595,Mažeikiai,22.342,56.305,496
PL,414,Bochnia,20.431,49.97,288
IT,345,Matera,16.603,40.668,200
IT,414,Castrovillari,16.203,39.812,288
IT,595,Ragusa,14.716,36.929,345
PL,288,Łyse,21.56,53.364,200
IT,240,Giarratana,14.795,37.047,200
LV,496,Saldus,22.494,56.665,288
PL,414,Giżycko,21.772,54.041,288
LT,496,Šilalė,22.186,55.493,200
FI,345,Virrat,23.773,62.24,240
IT,496,Giarre,15.186,37.724,200
IT,5289,Bari,16.879,41.113,1478
IT,240,Paola,16.039,39.358,200
FI,288,Kuru,23.723,61.879,200
IT,1773,Catania,15.087,37.502,1232
HR,414,Ston,17.697,42.838,200
NO,856,Lakselv,24.947,70.053,414
PL,288,Ostrołęka,21.572,53.083,240
SK,345,Revúca,20.115,48.686,240
PL,240,Warka,21.177,51.782,200
LV,595,Roja,22.811,57.504,240
SK,240,Rimavská Sobota,20.019,48.384,200
PL,496,Wyszków,21.447,52.591,240
EE,414,Orissaare,23.082,58.559,288
LT,240,Varniai,22.372,55.742,200
PL,240,Halinów,21.352,52.226,200
FI,1027,Forssa,23.615,60.812,288
FI,288,Meltosjärvi,24.623,66.534,240
PL,414,Pisz,21.808,53.629,240
SK,856,Poprad,20.31,49.055,496
FI,2552,Tampere,23.769,61.5,1027
IT,414,Bernalda,16.69,40.412,200
FI,288,Levi,24.801,67.805,200
PL,240,Bieliny,20.939,50.849,200
FI,856,Ekenäs,23.458,59.974,288
LT,714,Tauragė,22.29,55.252,595
IT,414,Amantea,16.075,39.13,200
LV,240,Kandava,22.774,57.042,200
FI,345,Lempäälä,23.755,61.336,200
FI,240,Halsua,24.174,63.457,200
PL,1232,Radom,21.152,51.401,714
FI,1232,Kemi,24.572,65.741,496
IT,414,Policoro,16.67,40.209,345
IT,856,Cosenza,16.245,39.309,345
MT,4408,Birkirkara,14.465,35.897,856
SK,288,Dobšiná,20.365,48.82,200
FI,856,Kittilä,24.911,67.655,595
FI,856,Raahe,24.504,64.69,345
FI,288,Toijala,23.862,61.172,200
IT,240,Bagnara Calabra,15.804,38.288,200
FI,240,Soini,24.213,62.873,200
PL,414,Kolno,21.939,53.402,200
FI,288,Ruovesi,24.072,61.983,200
IT,496,Vibo Valentia,16.095,38.673,288
IT,856,Siracusa,15.273,37.084,345
SK,240,Plešivec,20.405,48.547,200
SK,288,Stará Ľubovňa,20.691,49.303,240
SK,240,Spišská Nová Ves,20.568,48.943,200
LV,240,Mērsrags,23.124,57.337,200
PL,496,Gołdap,22.307,54.303,240
LV,345,Auce,22.903,56.462,200
EE,714,Ruhnu,23.243,57.804,288
FI,714,Ylivieska,24.546,64.072,496
FI,240,Myllymäki,24.278,62.522,200
IT,595,Rossano Stazione,16.634,39.599,240
LT,288,Naujoji Akmenė,22.89,56.316,240
IT,496,Monopoli,17.296,40.952,288
PL,240,Szczucin,21.086,50.309,200
PL,856,Tarnów,20.984,50.012,496
EE,856,Haapsalu,23.543,58.941,345
PL,496,Staszów,21.174,50.556,200
FI,288,Perho,24.423,63.214,200
FI,345,Hailuoto,24.734,65.016,200
PL,496,Garwolin,21.625,51.901,288
HR,595,Dubrovnik,18.097,42.65,496
IT,288,Longobucco,16.611,39.448,200
PL,288,Kozienice,21.558,51.58,200
PL,856,Łomża,22.071,53.177,496
EE,240,Panga,23.583,58.829,200
PL,345,Ostrowiec Świętokrzyski,21.387,50.945,345
LV,496,Tukums,23.158,56.969,240
LT,288,Eržvilkas,22.709,55.263,200
IT,288,San Giovanni in Fiore,16.698,39.254,288
FI,595,Lohja,24.082,60.248,345
IT,240,Francavilla Fontana,17.584,40.533,200
PL,496,Łuków,22.387,51.924,200
LT,345,Jurbarkas,22.747,55.082,240
LV,414,Engure,23.225,57.16,200
IT,288,Siderno,16.297,38.279,288
FI,240,Renko,24.291,60.894,200
IT,288,Soverato Marina,16.546,38.69,200
LT,345,Kybartai,22.766,54.64,240
FI,496,Karstula,24.803,62.878,345
PL,496,Sokołów Podlaski,22.233,52.407,200
PL,496,Puławy,21.971,51.419,345
LT,240,Kuršėnai,22.953,55.998,200
SK,496,Bardejov,21.276,49.292,240
FI,345,Hauho,24.567,61.17,200
PL,240,Mazanów,21.914,51,200
IT,345,Martina Franca,17.341,40.701,200
IT,595,Taranto,17.233,40.473,496
PL,414,Rozstajne,21.423,49.495,200
PL,714,Ełk,22.356,53.824,288
PL,288,Poniatowa,22.067,51.194,200
IT,496,Crotone,17.125,39.08,345
SK,2552,Košice,21.26,48.724,1027
LV,714,Jelgava,23.713,56.651,288
PL,496,Augustów,22.978,53.843,200
PL,240,Góry,22.268,51.36,200
FI,288,Kyyjärvi,24.563,63.045,200
FI,288,Kannonkoski,25.265,62.977,200
HR,496,Ilok,19.379,45.222,240
FI,288,Riipi,26.039,67.339,200
FI,288,Lammi,25.008,61.08,200
IT,414,Nardò,18.031,40.179,200
PL,288,Wilamowo,22.277,53.414,200
EE,1478,Pärnu,24.523,58.38,856
PL,414,Włostów,21.441,50.747,200
FI,3062,Helsinki,24.939,60.17,2552
NO,1232,Kárášjohka,25.513,69.474,414
FI,240,Pälkäne,24.275,61.333,200
IT,240,Bruzzano Zeffirio,16.082,38.013,200
FI,240,Ingå,24.008,60.052,200
FI,414,Oulainen,24.825,64.27,200
FI,496,Orivesi,24.356,61.68,200
LT,595,Kelmė,22.943,55.631,200
LV,240,Slampe,23.294,56.848,200
PL,288,Łęki,21.955,52.125,200
IT,1478,Catanzaro,16.599,38.89,595
PL,345,Zambrów,22.241,52.985,200
PL,288,Gorlice,21.159,49.656,240
PL,240,Wólka,22.606,54.203,200
PL,345,Grajewo,22.455,53.647,200
FI,345,Pakkala,24.39,61.452,200
FI,414,Karkkila,24.229,60.534,240
PL,288,Telaki,22.165,52.555,200
PL,240,Kisielsk,21.97,51.922,200
EE,496,Lihula,23.835,58.686,200
FI,345,Vihanti,24.995,64.483,200
PL,496,Mielec,21.451,50.274,240
IT,288,Mesoraca,16.789,39.077,200
FI,496,Asemakylä,25.207,65.604,200
PL,345,Dębica,21.414,50.052,200
LT,345,Gruzdžiai,23.249,56.097,200
FI,414,Mänttä,24.619,62.032,200
FI,345,Siikajoki,25.107,64.66,200
FI,345,Reisjärvi,24.935,63.606,200
FI,496,Hämeenlinna,24.444,60.998,345
FI,288,Muurola,25.382,66.378,200
LT,496,Raseiniai,23.114,55.382,288
IT,414,Monasterace Marina,16.571,38.435,200
FI,595,Keuruu,24.706,62.258,288
SK,288,Moldava nad Bodvou,21.001,48.614,200
LT,1232,Šiauliai,23.316,55.934,714
NO,1027,Honningsvåg,25.979,70.982,496
FI,288,Kinnula,24.968,63.368,200
FI,345,Multia,24.797,62.41,200
IT,288,Cirò Marina,17.126,39.373,240
IT,345,Manduria,17.635,40.399,200
PL,856,Siedlce,22.277,52.168,595
PL,240,Żerdź,22.08,51.521,200
FI,240,Veikkola,24.422,60.276,200
SK,595,Prešov,21.24,48.998,200
EE,288,Tõstamaa,23.994,58.335,200
LT,240,Plokščiai,23.165,55.08,200
LT,240,Acokavai,23.349,55.727,200
FI,288,Haukipudas,25.347,65.175,200
FI,288,Ii,25.374,65.318,200
PL,288,Chwałowice,21.888,50.766,200
PL,240,Ciechanowiec,22.498,52.678,200
PL,1773,Suwałki,22.927,54.106,714
LV,240,Jūrmala,23.715,56.958,200
EE,595,Lemsi,24.007,58.13,200
FI,240,Längelmäki,24.789,61.729,200
EE,414,Turba,24.236,59.08,200
FI,240,Kivijärvi,25.077,63.12,200
EE,240,Koonga,24.153,58.582,200
PL,496,Mońki,22.794,53.404,200
FI,240,Masala,24.53,60.156,200
LT,345,Joniškis,23.614,56.239,240
IT,496,Brindisi,17.938,40.628,200
FI,288,Liminka,25.434,64.809,200
LV,496,Eleja,23.684,56.411,200
FI,6346,Oulu,25.48,65.01,3062
FI,3062,Rovaniemi,25.717,66.499,1232
EE,288,Keila,24.415,59.31,200
FI,288,Haapavesi,25.361,64.14,200
FI,496,Haapajärvi,25.326,63.752,345
PL,345,Strzyżów,21.784,49.871,200
LT,288,Kalvarija,23.225,54.415,200
PL,1027,Stalowa Wola,22.06,50.568,288
PL,595,Krosno,21.764,49.695,240
LT,240,Ariogala,23.484,55.263,200
EE,288,Märjamaa,24.42,58.9,200
PL,345,Kock,22.442,51.641,200
PL,345,Łapy,22.883,52.99,200
SK,288,Stropkov,21.652,49.202,200
LT,345,Marijampolė,23.345,54.551,345
FI,240,Petäjävesi,25.179,62.26,200
PL,1027,Rzeszów,21.998,50.035,856
LT,288,Šeduva,23.758,55.754,200
LT,240,Kazlų Rūda,23.494,54.748,200
FI,240,Rantsila,25.648,64.51,200
FI,856,Jämsä,25.196,61.866,345
EE,856,Tallinn,24.693,59.42,595
LT,288,Pakruojis,23.859,55.979,200
PL,240,Radzyń Podlaski,22.646,51.78,200
LV,3674,Rīga,24.127,56.959,3062
PL,240,Siemiatycze,22.866,52.423,240
LV,240,Ainaži,24.359,57.863,200
FI,345,Yli-Ii,25.835,65.371,200
IT,1773,Lecce,18.178,40.357,595
FI,240,Kuhmoinen,25.176,61.559,200
LV,414,Salacgrīva,24.358,57.753,200
EE,345,Võiste,24.48,58.216,200
PL,414,Lubartów,22.609,51.46,200
PL,288,Osmola,22.959,52.575,200
PL,288,Janów Lubelski,22.417,50.703,200
EE,240,Haabneeme,24.816,59.516,200
PL,414,Sanok,22.198,49.561,240
PL,1773,Lublin,22.559,51.248,856
PL,240,Krynki,23.776,53.261,200
PL,345,Krasnystaw,23.171,50.987,200
FI,345,Pihtipudas,25.568,63.369,200
PL,1773,Białystok,23.158,53.136,856
PL,414,Parczew,22.901,51.641,200
EE,240,Häädemeeste,24.5,58.081,200
PL,240,Krasne,22.95,51.426,200
FI,714,Viitasaari,25.859,63.077,414
FI,2127,Sodankylä,26.589,67.418,856
LV,414,Ogre,24.605,56.817,240
PL,414,Jarosław,22.674,50.016,200
FI,1027,Ranua,26.516,65.927,414
FI,345,Laukaa,25.951,62.414,200
PL,345,Dąbrowa Białostocka,23.351,53.643,200
LT,288,Lazdijai,23.521,54.23,200
LV,288,Dzērumi,24.195,56.73,200
LV,288,Tūja,24.387,57.493,200
FI,288,Utajärvi,26.418,64.76,200
FI,345,Orimattila,25.733,60.805,200
UA,414,Великий Березний,22.459,48.893,240
PL,595,Przemyśl,22.768,49.788,414
PL,714,Stawce-Kolonia,22.515,50.901,288
LT,240,Merkinė,24.191,54.165,200
LV,240,Suntaži,24.929,56.904,200
LT,595,Biržai,24.756,56.196,414
PL,240,Terespol,23.608,52.073,240
FI,288,Vantaa,25.043,60.292,200
FI,240,Leivonmäki,26.122,61.914,200
FI,595,Järvenpää,25.087,60.475,200
PL,856,Włodawa,23.547,51.546,288
IT,345,Casarano,18.164,40.015,200
FI,496,Heinola,26.035,61.205,200
PL,414,Lubaczów,23.122,50.165,200
EE,496,Loksa,25.719,59.582,240
FI,414,Padasjoki,25.276,61.356,200
EE,345,Võhma,25.558,58.632,200
FI,240,Kärsämäki,25.763,63.98,200
LV,345,Iecava,24.204,56.598,200
LT,345,Elektrėnai,24.646,54.776,240
EE,595,Rapla,24.804,58.999,200
SK,595,Humenné,21.908,48.937,240
LV,414,Bauska,24.192,56.405,240
LT,240,Simnas,23.648,54.382,200
PL,288,Dynów,22.225,49.815,200
LV,240,Saulkrasti,24.416,57.267,200
FI,240,Pulkkila,25.863,64.266,200
PL,240,Markowa,22.308,50.023,200
PL,714,Bielsk Podlaski,23.191,52.769,288
IT,240,Maglie,18.299,40.117,200
IT,240,Borgagne,18.377,40.24,200
FI,288,Kärkölä,25.273,60.869,200
PL,414,Leżajsk,22.423,50.253,200
FI,414,Muhos,25.992,64.806,200
PL,1232,Zubeńsko,22.096,49.232,240
LT,345,Kėdainiai,23.985,55.286,200
FI,414,Korpilahti,25.558,62.016,200
PL,595,Sokółka,23.503,53.406,240
FI,414,Mäntsälä,25.321,60.636,200
FI,714,Äänekoski,25.708,62.608,288
PL,240,Policzyzna,22.797,51.047,200
PL,240,Łęczna,22.883,51.305,200
SK,240,Pichne,22.122,49.035,200
FI,414,Ylikiiminki,26.143,65.03,200
PL,595,Biała Podlaska,23.124,52.02,414
LT,1027,Kaunas,23.979,54.913,595
IT,714,Castrignano del Capo,18.352,39.832,200
EE,240,Lelle,25.006,58.863,200
LT,288,Prienai,23.94,54.636,200
FI,288,Pyhäjärvi,25.972,63.677,240
PL,496,Czeremcha,23.345,52.518,200
PL,345,Biłgoraj,22.712,50.524,240
LV,414,Limbaži,24.717,57.512,288
FI,240,Asikkala,25.539,61.174,200
FI,1773,Jyväskylä,25.748,62.242,714
LT,288,Pumpėnai,24.336,55.935,200
EE,414,Vändra,25.033,58.653,240
FI,240,Luhanka,25.701,61.796,200
LT,345,Pasvalys,24.401,56.061,200
EE,345,Kose,25.163,59.183,200
PL,288,Horodyszcze,23.18,51.754,200
EE,414,Kilingi-Nõmme,24.952,58.151,200
FI,496,Sysmä,25.686,61.504,200
LT,714,Panevėžys,24.365,55.734,496
PL,288,Michałowo,23.607,53.037,240
LT,414,Ramygala,24.308,55.51,200
LT,240,Piliuona,24.119,54.782,200
LT,856,Alytus,24.022,54.414,414
PL,240,Hola,23.19,51.537,200
FI,1232,Lahti,25.656,60.983,595
FI,240,Kestilä,26.276,64.351,200
FI,1027,Utsjoki,27.015,69.896,345
LT,714,Druskininkai,23.975,54.018,345
LT,414,Jonava,24.277,55.081,200
EE,414,Kehra,25.333,59.332,240
LV,345,Skaistkalne,24.646,56.381,200
LV,595,Sigulda,24.856,57.153,200
UA,856,Ужгород,22.298,48.619,595
PL,414,Ustrzyki Dolne,22.59,49.43,240
EE,240,Kuusalu,25.433,59.444,200
FI,595,Pyhäntä,26.338,64.102,200
FI,414,Inari,27.028,68.906,200
LV,288,Mālpils,24.961,57.011,200
EE,240,Kõpu,25.307,58.327,200
FI,288,Luosto,26.917,67.157,200
FI,240,Hartola,26.021,61.58,200
NO,414,Kjøllefjord,27.35,70.944,345
FI,240,Myrskylä,25.85,60.671,200
FI,595,Joutsa,26.108,61.742,240
PL,345,Zamość,23.262,50.723,345
LV,496,Rūjiena,25.332,57.897,288
EE,1027,Paide,25.569,58.887,414
FI,240,Vesanto,26.412,62.93,200
PL,345,Chełm,23.478,51.131,345
LV,414,Cēsis,25.28,57.31,200
LT,714,Ukmergė,24.771,55.247,200
FI,288,Kiuruvesi,26.615,63.652,240
LT,288,Anykščiai,25.108,55.524,240
LV,414,Viesīte,25.557,56.348,200
PL,345,Tomaszów Lubelski,23.416,50.446,200
NO,496,Deanušaldi,28.191,70.199,414
FI,288,Hankasalmi,26.434,62.39,200
LV,288,Seda,25.75,57.65,200
UA,496,Рудки,23.487,49.654,240
EE,595,Viljandi,25.604,58.37,414
LV,414,Ērgļi,25.636,56.897,240
LT,345,Kupiškis,24.982,55.835,240
LV,1478,Valmiera,25.416,57.535,595
FI,1232,Iisalmi,27.19,63.565,496
LT,288,Pagiriai,25.195,54.581,200
UA,345,Мукачево,22.719,48.442,240
LT,595,Rokiškis,25.585,55.955,345
UA,496,Берегове,22.638,48.202,200
FI,288,Vaala,26.842,64.562,200
UA,1027,Хуст,23.296,48.177,345
UA,240,Воля,23.068,49.408,200
FI,595,Sukeva,27.434,63.87,200
LT,496,Varėna,24.581,54.215,240
EE,345,Otepää,26.492,58.06,200
MK,595,Кичево,20.956,41.516,200
FI,1027,Pudasjärvi,26.999,65.36,414
FI,496,Saariselkä,27.416,68.42,200
EE,414,Järva-Jaani,25.884,59.039,200
PL,240,Rachanie,23.556,50.538,200
EE,288,Tapa,25.961,59.262,200
UA,240,Немирів,23.434,50.103,200
FI,496,Pielavesi,26.753,63.236,200
FI,3062,Ivalo,27.539,68.66,1027
LT,345,Širvintos,24.953,55.043,200
UA,288,Шацьк,23.931,51.498,200
LT,240,Rūdiškės,24.827,54.516,200
UA,240,Новий Калинів,23.306,49.56,200
LV,240,Nereta,25.304,56.202,200
NO,288,Mehamn,27.851,71.035,200
UA,288,Свалява,22.994,48.545,200
LV,240,Rauna,25.609,57.333,200
LT,345,Dubičiai,24.747,54.02,200
FI,714,Kemijärvi,27.397,66.721,496
FI,496,Kangasniemi,26.64,61.989,288
LV,345,Vecbebri,25.485,56.723,200
FI,288,Jaala,26.474,61.053,200
UA,240,Рава-Руська,23.626,50.227,200
FI,288,Vieremä,27.005,63.745,200
FI,414,Pelkosenniemi,27.516,67.111,288
UA,345,Гута,24.129,51.627,200
UA,288,Вовчухи,23.534,49.781,200
FI,345,Otanmäki,27.107,64.11,200
UA,496,Любомль,24.034,51.224,288
GR,288,Ερεικούσσα,19.578,39.88,240
UA,240,Головне,24.076,51.335,200
EE,345,Tõrva,25.922,58.002,200
LT,240,Svėdasai,25.367,55.682,200
FI,345,Karttula,26.968,62.896,200
UA,856,Дрогобич,23.512,49.351,414
LV,288,Smiltene,25.902,57.422,240
LT,345,Tausiūnai,25.058,54.145,200
EE,496,Rakvere,26.364,59.345,345
FI,496,Kouvola,26.701,60.87,288
LT,288,Juodupė,25.606,56.085,200
MK,496,Дебар,20.523,41.524,240
LT,7615,Vilnius,25.257,54.706,1773
EE,714,Valga,26.049,57.782,240
UA,595,Сколе,23.51,49.035,240
UA,414,Славське,23.443,48.837,200
LT,414,Molėtai,25.415,55.226,200
FI,595,Mäntyharju,26.879,61.417,240
FI,414,Suonenjoki,27.119,62.626,240
UA,595,Нововолинськ,24.17,50.733,288
UA,414,Жовква,23.978,50.056,200
MK,345,Луково,20.591,41.348,200
EE,595,Jõgeva,26.397,58.745,240
UA,414,Стара Вижівка,24.433,51.439,200
LV,714,Jēkabpils,25.866,56.497,414
LT,1027,Utena,25.611,55.501,414
LV,288,Jaunpiebalga,26.053,57.179,200
FI,288,Pieksämäki,27.149,62.299,240
UA,714,Міжгір'я,23.523,48.522,288
FI,345,Lapinlahti,27.386,63.36,200
MK,414,Тетово,20.967,42.006,200
UA,288,Володимир-Волинський,24.321,50.852,200
FI,496,Puolanka,27.657,64.874,345
UA,3062,Львів,24.014,49.835,1773
LT,714,Šalčininkai,25.387,54.311,288
MK,414,Гостивар,20.91,41.794,200
GR,856,Κέρκυρα,19.919,39.622,595
UA,1027,Червоноград,24.228,50.387,496
EE,345,Elva,26.415,58.227,200
MK,595,Струга,20.678,41.179,345
FI,288,Sonkajärvi,27.525,63.669,200
FI,240,Tuohikotti,27.06,61.09,200
LV,288,Zasa,25.981,56.292,200
FI,1027,Kotka,26.947,60.468,595
UA,240,Драгово,23.547,48.237,200
UA,414,Бобли,24.502,51.006,200
EE,345,Tabivere,26.599,58.548,200
FI,595,Savukoski,28.158,67.292,200
FI,595,Mikkeli,27.272,61.69,496
LV,856,Madona,26.217,56.853,288
FI,1773,Kajaani,27.726,64.225,856
FI,288,Kurkimäki,27.501,62.779,200
UA,345,Тячів,23.572,48.014,200
UA,288,Долина,24.001,48.973,200
EE,4408,Tartu,26.72,58.374,1027
GR,288,Κτίσματα,20.397,39.898,200
UA,240,Датинь,24.756,51.523,200
GR,345,Ηγουμενίτσα,20.264,39.505,240
LT,714,Pabradė,25.766,54.983,200
MK,1773,Скопје,21.439,41.999,856
LV,288,Atašiene,26.4,56.546,200
FI,714,Varkaus,27.856,62.318,414
LT,595,Visaginas,26.439,55.6,240
UA,414,Новий Розділ,24.128,49.471,288
MK,1478,Битола,21.328,41.031,856
GR,288,Νεστόριον,21.059,40.416,200
UA,856,Ковель,24.703,51.217,414
UA,288,Кам'янка-Бузька,24.348,50.103,200
FI,288,Lemi,27.806,61.062,200
MK,496,Велес,21.772,41.714,240
FI,414,Paltamo,27.832,64.406,200
EE,414,Misso,27.228,57.601,200
EE,345,Tudu,26.854,59.179,200
EE,496,Mehikoorma,27.469,58.236,200
FI,345,Siilinjärvi,27.665,63.074,200
FI,288,Hamina,27.193,60.569,200
EE,240,Avinurme,26.863,58.985,200
FI,595,Posio,28.167,66.111,345
FI,3674,Kuopio,27.681,62.893,714
UA,345,Камінь-Каширський,24.963,51.623,345
LT,414,Švenčionėliai,26.001,55.16,200
MK,345,Ресен,21.015,41.09,200
EE,345,Mustvee,26.941,58.848,200
UA,595,Дубове,23.893,48.193,200
GR,240,Οζιάς,20.19,39.188,200
UA,288,Лопухів,23.987,48.368,200
UA,240,Радехів,24.643,50.279,200
LV,595,Ape,26.693,57.54,200
FI,714,Taivalkoski,28.237,65.576,345
UA,288,Куткір,24.541,49.907,200
LT,496,Ignalina,26.161,55.339,240
UA,345,Горохів,24.762,50.5,200
MK,240,Утово,21.193,41.183,200
UA,288,Верхи,25.101,51.459,200
FI,240,Anttola,27.647,61.584,200
LT,240,Vidutinė,26.152,55.025,200
UA,345,Перемишляни,24.559,49.67,200
GR,414,Κόνιτσα,20.747,40.045,240
UA,345,Калуш,24.365,49.039,200
FI,414,Luumäki,27.562,60.922,200
GR,595,Πάργα,20.401,39.285,200
FI,288,Ristijärvi,28.213,64.504,200
LV,856,Gulbene,26.756,57.173,414
FI,288,Joroinen,27.824,62.181,200
EE,288,Koosa,27.079,58.526,200
UA,345,Поворськ,25.129,51.263,200
EE,595,Järve,27.28,59.403,345
GR,288,Λευκών,21.139,40.79,200
EE,240,Rõuge,26.917,57.73,200
LV,345,Lubāna,26.723,56.902,200
EE,288,Võnnu,27.051,58.283,200
UA,240,Торчин,25.001,50.765,200
GR,288,Μονοδένδριον,20.747,39.883,200
LV,414,Kalupe,26.543,56.097,200
EE,496,Kallaste,27.162,58.662,200
LT,288,Mažėnai,26.401,55.444,200
FI,345,Nilsiä,28.085,63.204,200
LV,2552,Daugavpils,26.518,55.871,1027
FI,714,Juva,27.858,61.896,200
NO,345,Berlevåg,29.09,70.862,200
EE,1027,Võru,27.013,57.838,414
EE,345,Põlva,27.066,58.058,200
EE,595,Iisaku,27.311,59.1,240
FI,496,Salla,28.671,66.831,345
UA,240,Брахівка,24.838,50.006,200
UA,288,Бурштин,24.627,49.259,200
FI,595,Miehikkälä,27.696,60.668,200
MK,714,Прилеп,21.556,41.347,288
MK,345,Добрушево,21.482,41.169,200
LV,496,Preiļi,26.725,56.292,240
UA,345,Ясіня,24.351,48.264,240
UA,714,Любешів,25.501,51.762,240
FI,345,Sotkamo,28.388,64.133,240
LV,414,Alūksne,27.048,57.418,240
FI,414,Hyrynsalmi,28.48,64.68,200
GR,1232,Ιωάννινα,20.853,39.665,856
FI,345,Rautavaara,28.295,63.496,240
UA,595,Золочів,24.897,49.806,240
GR,345,Καστοριά,21.263,40.522,240
UA,288,Пнів,24.526,48.614,200
GR,496,Φλώρινα,21.414,40.783,200
UA,240,Галич,24.73,49.125,200
LT,240,Adutiškis,26.585,55.158,240
FI,240,Juankoski,28.327,63.062,200
UA,856,Івано-Франківськ,24.712,48.916,595
UA,345,Яремче,24.568,48.461,200
UA,856,Луцьк,25.34,50.747,496
EE,240,Vastseliina,27.283,57.732,200
UA,345,Бережани,24.94,49.445,288
UA,595,Броди,25.153,50.078,345
GR,496,Πρέβεζα,20.751,38.958,200
FI,288,Ylämaa,28.01,60.798,200
GR,288,Λευκάς,20.707,38.833,200
FI,496,Puumala,28.177,61.524,240
FI,240,Rantasalmi,28.299,62.07,200
GR,496,Μηλέα,21.23,39.852,200
LV,240,Aglona,27.008,56.13,200
LV,345,Balvi,27.259,57.127,200
MK,240,Крива Паланка,22.329,42.201,200
GR,856,Αργοστόλιον,20.487,38.179,288
MK,414,Кавадарци,22.01,41.436,200
GR,288,Ματσούκιον,21.163,39.568,200
GR,1027,Άρτα,20.987,39.161,414
FI,2552,Lappeenranta,28.192,61.057,1027
GR,856,Γρεβενά,21.428,40.083,200
LV,288,Strūžāni,27.235,56.697,200
UA,595,Колки,25.673,51.099,200
UA,288,Борове,25.835,51.617,200
MK,288,Цера,22.529,42.044,200
GR,240,Σκάλα,20.798,38.073,200
MK,414,Штип,22.195,41.739,240
FI,288,Sulkava,28.37,61.785,200
MK,288,Делчево,22.774,41.967,200
FI,1478,Savonlinna,28.863,61.869,595
GR,496,Ζάκυνθος,20.896,37.783,345
FI,856,Suomussalmi,28.906,64.883,496
GR,496,Κατοχή,21.255,38.413,200
MK,714,Струмица,22.642,41.437,496
UA,496,Теребовля,25.702,49.299,200
GR,414,Πτολεμαΐς,21.679,40.513,200
GR,345,Καρδίτσα,21.922,39.365,200
GR,345,Ανδραβίδα,21.271,37.906,200
UA,496,Заліщики,25.736,48.651,200
FI,414,Ruka,29.131,66.167,200
GR,414,Ιθάκη,20.718,38.364,200
EE,496,Värska,27.634,57.958,200
UA,856,Вараш,25.85,51.345,496
MK,345,Конопиште,22.076,41.248,200
LV,345,Krāslava,27.17,55.894,288
NO,1027,Båtsfjord,29.704,70.631,414
LV,1478,Rēzekne,27.339,56.507,595
GR,240,Κανδήλα,20.949,38.705,200
FI,1478,Kuusamo,29.185,65.967,1027
FI,414,Heinävesi,28.632,62.425,240
MK,288,Оризари,22.446,41.922,200
UA,240,Почаїв,25.508,50.004,200
UA,714,Коломия,25.039,48.535,288
GR,345,Αριδαία,22.061,40.974,200
GR,414,Κοζάνη,21.789,40.3,240
NO,4408,Vadsø,29.75,70.076,1773
GR,345,Τρικοκκιά,21.62,39.877,200
GR,345,Έδεσσα,22.05,40.801,200
GR,414,Αμφιλοχία,21.166,38.863,200
UA,595,Дубно,25.745,50.4,240
UA,345,Цумань,25.883,50.834,240
UA,288,Осова,25.978,51.087,200
MK,345,Радовиш,22.462,41.637,200
LV,288,Viļaka,27.672,57.184,200
UA,414,Косів,25.088,48.318,200
UA,496,Серники,26.231,51.822,200
EE,1773,Narva,28.187,59.374,1027
GR,288,Καλαμπάκα,21.626,39.705,200
LV,288,Baltinava,27.644,56.945,200
UA,414,Бучач,25.379,49.065,240
UA,496,Кременець,25.734,50.097,240
LV,288,Kaunata,27.548,56.332,200
UA,856,Тернопіль,25.601,49.555,714
LV,714,Kārsava,27.689,56.784,200
LV,714,Dagda,27.534,56.095,200
UA,856,Путила,25.1,47.994,240
UA,288,Жорнів,25.954,50.524,200
UA,414,Колодне,25.722,49.754,200
GR,288,Βλάσιον,21.581,39.29,200
GR,288,Τρίκλινον,21.445,38.973,200
FI,595,Nurmes,29.139,63.543,345
GR,288,Γρανίτσα,21.511,39.101,200
FI,345,Outokumpu,29.024,62.725,288
LV,240,Ludza,27.72,56.542,200
FI,496,Enonkoski,28.919,62.088,200
GR,414,Βέροια,22.206,40.521,200
GR,595,Τρίκαλα,21.768,39.556,414
FI,414,Imatra,28.759,61.172,200
UA,288,Кідри,26.334,51.451,200
MK,595,Гевгелија,22.504,41.143,240
UA,240,Шепіт,25.145,47.804,200
FI,240,Ruokolahti,28.819,61.292,200
NO,595,Kirkenes,30.042,69.728,240
UA,345,Степань,26.302,51.131,200
GR,496,Αγρίνιον,21.409,38.627,288
GR,240,Ριζώματα,22.211,40.35,200
GR,414,Γιαννιτσά,22.411,40.793,240
MK,595,Берово,22.855,41.707,200
GR,345,Λιβάδι,22.157,40.127,200
FI,496,Juuka,29.254,63.241,240
UA,288,Кути,26.073,50.198,200
UA,2127,Рівне,26.244,50.617,856
UA,288,Дубровиця,26.573,51.57,200
UA,288,Товсте,25.727,48.847,200
FI,856,Kuhmo,29.518,64.127,414
GR,496,Ελασσών,22.189,39.895,200
UA,496,Чортків,25.799,49.011,414
UA,345,Ланівці,26.088,49.867,240
FI,240,Savonranta,29.204,62.175,200
UA,595,Костопіль,26.444,50.879,240
GR,288,Βάρδα,21.364,38.031,200
GR,414,Καρπενήσιον,21.794,38.914,288
UA,714,Сарни,26.608,51.333,345
FI,240,Polvijärvi,29.376,62.857,200
UA,240,Копичинці,25.912,49.108,200
LV,345,Šķaune,28.002,56.135,200
GR,856,Κατερίνη,22.511,40.269,345
LV,496,Zilupe,28.117,56.392,200
GR,240,Κάτω Αχαΐα,21.552,38.144,200
FI,240,Mätäsvaara,29.581,63.445,200
UA,240,Зносичі,26.692,51.212,200
GR,288,Κιλκίς,22.876,40.995,240
UA,345,Сторожинець,25.711,48.161,200
GR,345,Λιτόχωρον,22.505,40.105,200
UA,240,Заставна,25.844,48.521,200
UA,288,Тучин,26.569,50.7,200
UA,414,Волочиськ,26.209,49.536,345
FI,288,Rääkkylä,29.625,62.313,240
GR,345,Αίγιον,22.081,38.248,240
GR,496,Φιλιατρά,21.587,37.157,345
GR,240,Πηγάδια,21.606,38.021,200
GR,496,Άμφισσα,22.379,38.527,240
GR,856,Πύργος,21.439,37.672,496
UA,414,Білогір'я,26.414,50.002,200
FI,240,Punkaharju,29.396,61.753,200
UA,345,Березне,26.739,50.997,200
GR,2127,Πάτραι,21.735,38.245,1232
GR,288,Κάτω Νευροκόπιον,23.867,41.344,200
UA,345,Борщів,26.04,48.802,200
UA,496,Дунаївці,26.854,48.889,200
FI,714,Rautjärvi,29.36,61.434,200
GR,240,Ναύπακτος,21.831,38.394,200
GR,3062,Λάρισα,22.419,39.639,856
UA,240,Теофіполь,26.413,49.84,200
GR,345,Πυργετός,22.59,39.919,200
UA,2552,Чернівці,25.938,48.303,1027
GR,345,Τερψιθέα,21.974,38.564,200
GR,1478,Θεσσαλονίκη,22.944,40.636,1027
UA,345,Нетішин,26.64,50.339,240
GR,240,Ανατολή,22.126,38.771,200
FI,288,Parikkala,29.502,61.555,200
GR,496,Φάρσαλα,22.385,39.296,288
GR,288,Λαγκαδάς,23.067,40.75,200
UA,595,Старе Село,27.133,51.612,240
GR,414,Ξυλόπολις,23.179,40.927,200
FI,1232,Joensuu,29.76,62.6,856
UA,345,Чемерівці,26.348,49.013,200
UA,240,Летава,26.313,48.907,200
GR,345,Ζαχάρω,21.649,37.484,200
FI,345,Kontiolahti,29.853,62.754,200
GR,240,Μέλισσα,22.646,39.555,200
UA,345,Клішківці,26.264,48.424,200
GR,1478,Λαμία,22.434,38.9,414
FI,1478,Lieksa,30.05,63.312,595
UA,345,Рокитне,27.215,51.272,240
GR,288,Ανάβρα,22.55,39.073,200
GR,288,Γαλαρινός,23.183,40.46,200
UA,240,Карпилівка,27.201,51.155,200
FI,414,Kesälahti,29.829,61.892,200
UA,496,Городок,26.58,49.166,240
GR,414,Καλάβρυτα,22.111,38.032,200
UA,288,Блажове,27.339,51.425,200
GR,1027,Σέρραι,23.55,41.09,414
UA,240,Нігин,26.569,48.838,200
GR,288,Κλειτορία,22.125,37.894,200
NO,496,Vardø,31.104,70.371,345
UA,345,Корець,27.159,50.619,240
GR,345,Αλμυρός,22.76,39.183,200
GR,288,Γαλαξίδιον,22.384,38.377,200
UA,856,Шепетівка,27.064,50.183,414
UA,856,Кам'янець-Подільський,26.58,48.683,414
GR,595,Νέα Μουδανιά,23.288,40.24,288
GR,595,Βόλος,22.947,39.363,345
FI,345,Uimaharju,30.261,62.914,200
FI,856,Kitee,30.135,62.1,345
UA,288,Кам'яне,27.616,51.534,200
UA,856,Хмельницький,26.991,49.417,856
GR,288,Μεγαλόπολις,22.135,37.401,200
GR,345,Λεβίδιον,22.297,37.683,200
GR,240,Κασσάνδρεια,23.413,40.049,200
UA,345,Гриців,27.223,49.973,200
GR,414,Σταυρός,23.701,40.663,345
UA,714,Олевськ,27.649,51.226,414
UA,595,Старокостянтинів,27.211,49.753,288
FI,288,Tohmajärvi,30.336,62.226,200
GR,496,Κορώνη,21.958,36.796,200
GR,2552,Καλαμάτα,22.111,37.041,856
GR,1027,Τρίπολις,22.372,37.51,414
GR,240,Λουτρά Αιδηψού,23.043,38.856,200
GR,240,Σκαλωτή,24.283,41.412,200
FI,496,Tuupovaara,30.618,62.485,200
GR,345,Νέος Μαρμαράς,23.784,40.095,240
GR,595,Λεβάδεια,22.874,38.436,288
GR,288,Μηλίνα,23.22,39.171,200
GR,345,Άργος,22.729,37.635,200
UA,414,Новоград-Волинський,27.624,50.59,414
GR,288,Άστρος,22.722,37.404,200
GR,496,Αταλάντη,22.995,38.655,200
GR,595,Καβάλα,24.406,40.938,240
GR,240,Μαντούδιον,23.477,38.798,240
GR,496,Ιστιαία,23.152,38.953,200
GR,414,Λυγουριό,23.039,37.613,200
GR,345,Δράμα,24.147,41.15,200
GR,856,Χαλκίς,23.597,38.46,345
GR,240,Σπέτσαι,23.157,37.264,200
GR,288,Νεμέα,22.662,37.822,200
GR,496,Ιερισσός,23.876,40.397,200
UA,496,Ємільчине,27.808,50.872,240
UA,288,Віньківці,27.234,49.034,200
UA,240,Кикова,27.713,50.464,200
UA,414,Баранівка,27.665,50.296,240
GR,345,Θίσβη,22.97,38.258,200
GR,288,Σπάρτη,22.43,37.075,200
UA,288,Нова Ушиця,27.272,48.835,200
UA,288,Осівка,27.972,50.98,200
UA,240,Деражня,27.438,49.27,200
GR,1027,Σκίαθος,23.489,39.163,345
GR,714,Κόρινθος,22.928,37.939,414
GR,240,Κιβέριον,22.731,37.523,200
GR,240,Αθίκια,22.931,37.82,200
GR,240,Παρανέστιον,24.502,41.266,200
UA,240,Бараші,28.029,50.716,200
UA,345,Летичів,27.619,49.389,200
FI,595,Ilomantsi,30.932,62.67,414
GR,414,Γύθειον,22.565,36.76,240
GR,345,Θήβαι,23.318,38.323,200
MD,595,Edineţ,27.303,48.171,288
GR,414,Κοσμάς,22.742,37.094,200
UA,240,Лядова,27.572,48.948,200
GR,595,Κοκκάλα,22.476,36.523,200
UA,288,Словечне,28.355,51.38,240
GR,345,Καρυαί,24.246,40.257,240
UA,288,Лучанки,28.45,51.548,200
UA,496,Бар,27.68,49.077,240
UA,240,Горщик,28.304,50.897,200
UA,345,Хмільник,27.953,49.558,345
GR,595,Λιμενάρια,24.575,40.627,200
GR,288,Χρυσοχώριον,24.712,40.932,200
UA,240,Пулини,28.265,50.467,200
GR,345,Θάσος,24.709,40.779,200
GR,288,Σκούρτα,23.552,38.214,200
GR,414,Κρανίδιον,23.158,37.381,288
GR,1027,Ξάνθη,24.885,41.138,595
MD,240,Rîscani,27.548,47.954,200
UA,345,Вендичани,27.796,48.616,200
MD,288,Glodeni,27.512,47.772,200
GR,414,Αίγινα,23.429,37.747,240
UA,240,Іванопіль,28.214,49.857,200
GR,714,Ρειχέα,23.005,36.846,240
GR,288,Μέθανα,23.389,37.581,200
UA,414,Літин,28.083,49.325,200
UA,414,Могилів-Подільський,27.808,48.445,288
UA,1232,Коростень,28.629,50.96,595
UA,240,Ігнатпіль,28.732,51.144,200
UA,714,Овруч,28.806,51.325,288
UA,288,Прилуки,28.864,51.462,200
UA,496,Жмеринка,28.106,49.04,200
GR,13158,Αθήναι,23.728,37.984,3674
MD,414,Drochia,27.809,48.037,200
GR,856,Νεάπολη Βοιών,23.061,36.509,345
GR,414,Κομοτηνή,25.403,41.119,288
GR,414,Ποταμός,22.961,36.3,200
UA,595,Шаргород,28.076,48.756,240
UA,345,Іршанськ,28.721,50.751,200
GR,240,Φανάριον,25.132,40.962,200
MD,595,Soroca,28.29,48.146,345
GR,496,Άγιος Ευστράτιος,24.989,39.539,288
GR,496,Κύμη,24.104,38.635,200
GR,714,Ποταμός,23.289,35.881,240
MD,496,Falesti,27.707,47.576,200
UA,345,Андрушівка,29.022,50.024,200
UA,345,Черняхів,28.664,50.453,200
GR,595,Κορησσία,24.312,37.658,240
UA,288,Тульчин,28.851,48.672,200
GR,414,Αλιβέριον,24.038,38.41,288
UA,288,Погребище,29.266,49.488,240
MD,414,Leova,28.256,46.48,200
GR,240,Άνω Λιβάδιον,22.984,36.182,200
UA,1232,Житомир,28.671,50.265,856
UA,714,Бердичів,28.596,49.896,288
MD,1232,Bălţi,27.905,47.767,496
UA,414,Калинівка,28.527,49.455,200
GR,288,Άρτεμη,24.008,37.975,200
UA,288,Народичі,29.08,51.203,200
UA,3062,Вінниця,28.474,49.232,1232
GR,288,Ξυλαγανή,25.422,40.974,200
MD,240,Bezeni,28.122,47.972,200
GR,288,Νέα Στύρα,24.208,38.181,200
UA,288,Тиврів,28.506,49.014,200
GR,1773,Σκύρος,24.566,38.906,288
GR,1773,Μύρινα,25.063,39.874,714
GR,345,Οργάνη,25.684,41.253,200
UA,288,Козятин,28.833,49.716,200
UA,240,Івниця,29.038,50.149,200
GR,856,Καμαριώτισσα,25.474,40.476,345
UA,414,Малин,29.265,50.769,345
UA,240,Межиліска,29.368,51.055,200
GR,714,Κάρυστος,24.419,38.016,240
UA,714,Радомишль,29.242,50.493,240
MD,414,Sipoteni,28.198,47.278,288
GR,345,Παναγία,25.406,39.981,200
GR,240,Αμυγδαλέα,24.575,38.121,200
GR,3062,Αλεξανδρούπολις,25.874,40.845,856
UA,240,Брацлав,28.947,48.818,200
MD,345,Camenca,28.696,48.032,240
UA,414,Радинка,29.719,51.194,200
GR,496,Κύθνος,24.431,37.413,200
UA,595,Крижопіль,28.868,48.386,240
UA,288,Брусилів,29.525,50.286,200
MD,345,Cantemir,28.204,46.276,200
UA,288,Попільня,29.46,49.944,200
UA,496,Іллінці,29.207,49.108,200
GR,856,Ορεστιάς,26.532,41.503,595
UA,288,Корнин,29.538,50.086,200
UA,288,Ладижин,29.237,48.687,200
MD,1027,Rîbniţa,29.031,47.759,595
UA,345,Чечельник,29.35,48.214,200
GR,288,Λιβάδιον,24.512,37.142,200
UA,240,Бершадь,29.53,48.371,200
UA,496,Болград,28.613,45.684,240
GR,288,Φολέγανδρος,24.92,36.628,240
UA,1027,Біла Церква,30.117,49.802,595
MD,496,Cahul,28.198,45.906,345
GR,345,Πέπλος,26.265,40.957,200
UA,595,Гайворон,29.849,48.347,345
GR,595,Νάξος,25.376,37.106,345
GR,345,Μάρμαρον,26.108,38.544,200
GR,345,Κώμη,26.046,38.202,200
UA,714,Іванків,29.894,50.937,288
MD,345,Colibaşi,28.181,45.718,200
GR,496,Άνδρος,24.936,37.837,288
GR,345,Διδυμότειχον,26.498,41.35,200
GR,595,Παλαιοχώρα,23.681,35.231,288
UA,345,Макарів,29.812,50.459,200
GR,1027,Αδάμας,24.445,36.726,496
MD,595,Orhei,28.829,47.338,240
UA,288,Кодима,29.127,48.096,200
UA,345,Сквира,29.66,49.733,200
UA,714,Гайсин,29.387,48.811,414
GR,1232,Ερμούπολις,24.941,37.445,714
GR,496,Απολλωνία,24.723,36.972,240
GR,1232,Χανιά,24.02,35.514,714
MD,1478,Chişinău,28.859,47.017,1027
MD,414,Jura,29.04,47.516,200
UA,414,Тетіїв,29.679,49.37,240
UA,496,Фастів,29.914,50.078,200
MD,856,Comrat,28.651,46.27,345
UA,414,Горностайпіль,30.257,51.07,200
GR,714,Ψαρά,25.563,38.54,345
MD,496,Cimişlia,28.783,46.517,200
UA,240,Сичівка,30.308,50.948,200
GR,595,Ερεσός,25.934,39.167,288
MD,414,Taraclia,28.668,45.902,200
GR,288,Ανώπολις,24.094,35.217,240
UA,414,Володарка,29.914,49.526,200
UA,240,Ірпінь,30.244,50.52,200
MD,414,Doroţcaia,29.201,47.174,200
UA,345,Монастирище,29.808,48.991,200
MD,345,Ceadîr-Lunga,28.827,46.055,200
UA,288,Радуль,30.716,51.83,200
UA,288,Боярка,30.293,50.328,200
GR,1478,Καστρίον,24.086,34.835,288
UA,414,Окни,29.461,47.539,200
UA,414,Подільськ,29.537,47.748,288
UA,345,Васильків,30.325,50.185,200
UA,345,Славутич,30.727,51.523,288
UA,345,Тужар,30.64,51.17,200
UA,595,Балта,29.624,47.935,200
GR,595,Ρέθυμνον,24.476,35.369,345
UA,714,Жашків,30.113,49.241,345
UA,714,Ізмаїл,28.841,45.353,496
UA,15789,Київ,30.547,50.449,9138
UA,414,Тарутине,29.148,46.188,200
UA,288,Жукин,30.691,50.811,200
GR,714,Ίος,25.282,36.723,288
GR,345,Πλωμάριον,26.369,38.976,200
MD,496,Căuşeni,29.421,46.634,200
UA,345,Гончарівське,30.926,51.3,200
UA,414,Ріпки,31.091,51.803,200
GR,1773,Χίος,26.136,38.37,595
UA,1478,Умань,30.219,48.749,856
UA,288,Добрянка,31.177,52.061,200
MD,240,Lazo,29.575,46.488,200
GR,288,Ηράκλεια,25.456,36.837,200
GR,496,Άγιος Κήρυκος,26.294,37.614,240
UA,240,Троїцьке,30.287,47.637,200
GR,240,Ανάφη,25.768,36.352,200
UA,595,Бобровиця,31.384,50.75,200
UA,288,Бакша,29.983,48.013,200
UA,288,Захарівка,29.758,47.332,200
UA,288,Березна,31.784,51.57,200
GR,3062,Μυτιλήνη,26.555,39.104,1232
GR,714,Αστυπάλαια (Χώρα),26.352,36.547,345
MD,595,Tiraspol,29.633,46.852,414
UA,345,Саврань,30.084,48.13,200
UA,288,Ромашки,30.601,49.73,200
UA,240,Українка,30.743,50.145,200
UA,414,Велика Димерка,30.908,50.592,200
UA,288,Ананьїв,29.995,47.715,200
UA,288,Благовіщенське,30.233,48.329,200
UA,240,Роїще,31.263,51.653,200
UA,414,Кілія,29.255,45.466,200
GR,496,Δονούσα,25.794,37.101,200
GR,1478,Εμπορείον,25.445,36.357,595
UA,288,Калита,31.024,50.751,200
UA,496,Велика Михайлівка,29.853,47.076,200
GR,288,Καρκινάγριον,26.02,37.518,200
UA,2552,Чернігів,31.282,51.504,856
UA,714,Фараонівка,29.621,46.322,200
UA,240,Козелець,31.116,50.914,200
UA,414,Бориспіль,30.956,50.359,240
GR,496,Μοίραι,24.876,35.051,240
UA,288,Тупичів,31.436,51.775,200
UA,496,Халча,30.896,49.95,200
UA,595,Любашівка,30.259,47.836,240
GR,5289,Ηράκλειον,25.131,35.339,1773
UA,345,Медвин,30.782,49.39,200
UA,1478,Татарбунари,29.611,45.843,345
GR,496,Αμοργός,25.899,36.832,345
UA,496,Богуслав,30.874,49.544,240
MD,345,Dnestrovsc,29.911,46.622,200
UA,288,Лемешівка,31.633,52.077,200
UA,595,Ширяєве,30.192,47.384,240
UA,496,Городня,31.597,51.892,345
UA,496,Тальне,30.703,48.889,200
UA,288,Миронівка,30.989,49.661,200
UA,288,Роздільна,30.077,46.848,240
UA,345,Вилкове,29.592,45.4,200
UA,240,Орлівка,31.544,51.287,200
GR,288,Αρκαλοχώριον,25.265,35.149,200
UA,240,Приморське,29.794,45.692,200
UA,714,Звенигородка,30.962,49.069,345
UA,345,Носівка,31.581,50.934,200
GR,1027,Νέον Καρλοβάσιον,26.704,37.791,414
GR,496,Σκάλα,26.544,37.323,200
UA,288,Стрюкове,30.573,47.374,200
UA,496,Переяслав-Хмельницький,31.449,50.074,288
UA,414,Вільшанка,30.881,48.235,200
UA,288,Тузли,30.092,45.866,200
UA,1232,Первомайськ,30.844,48.039,496
UA,240,Вертіївка,31.852,51.166,200
UA,714,Канів,31.449,49.745,240
UA,714,Ніжин,31.879,51.044,414
UA,345,Білгород-Дністровський,30.33,46.187,200
GR,345,Άγιος Νικόλαος,25.716,35.191,200
UA,345,Згурівка,31.782,50.497,200
UA,714,Корюківка,32.264,51.777,414
UA,288,Южноукраїнськ,31.176,47.823,200
GR,240,Λειψοί,26.769,37.295,200
UA,345,Доброслав,30.943,46.82,200
UA,496,Ічня,32.382,50.856,200
UA,496,Золотоноша,32.047,49.667,200
UA,240,Парафіївка,32.643,50.879,200
UA,288,Сергіївка,30.369,46.026,200
GR,496,Ιεράπετρα,25.739,35.008,414
UA,240,Хлистунівка,31.447,49.216,200
UA,496,Яготин,31.78,50.259,200
GR,414,Μεγάλο Χωριό,26.972,37.458,200
UA,240,Перелюб,32.329,51.98,200
UA,496,Мена,32.214,51.525,200
GR,345,Αγία Μαρίνα,26.855,37.155,345
UA,288,Погреби,31.96,50.622,200
UA,714,Березівка,30.917,47.201,345
UA,345,Чорноморськ,30.654,46.303,200
UA,5289,Одеса,30.718,46.473,2127
UA,345,Мошни,31.735,49.519,200
UA,240,Гельмязів,31.835,49.823,200
GR,288,Φαρμακονήσιον,27.085,37.291,200
GR,240,Σητεία,26.106,35.208,200
UA,240,Арбузинка,31.314,47.906,200
UA,345,Новомиргород,31.643,48.792,345
GR,414,Κέφαλος,26.96,36.746,200
UA,414,Новоукраїнка,31.525,48.32,345
UA,345,Холми,32.603,51.875,200
UA,288,Капітанівка,31.717,48.914,200
UA,595,Борзна,32.427,51.252,200
UA,345,Веселинове,31.237,47.356,200
UA,714,Вознесенськ,31.324,47.571,345
UA,496,Сміла,31.882,49.216,200
UA,240,Драбів,32.136,49.958,240
UA,496,Южне,31.101,46.624,200
UA,1478,Прилуки,32.39,50.588,345
UA,1773,Черкаси,32.053,49.423,1027
GR,1478,Κως,27.288,36.893,714
GR,240,Πάλοι,27.171,36.618,200
UA,414,Пирятин,32.51,50.241,240
UA,240,Бахмач,32.831,51.18,200
UA,345,Короп,32.954,51.565,200
UA,345,Нечаяне,31.552,46.944,240
UA,414,Олександрівка,32.243,48.96,240
UA,496,Єланець,31.855,47.698,240
GR,496,Λιβάδια,27.385,36.416,240
UA,595,Грем'яч,33.288,52.336,345
UA,714,Очаків,31.543,46.619,240
UA,345,Нова Одеса,31.785,47.297,240
UA,288,Чорнухи,32.939,50.272,200
GR,288,Χάλκη,27.611,36.222,200
UA,714,Кролевець,33.382,51.552,200
UA,414,Кошари,33.232,51.015,200
GR,496,Όλυμπος,27.173,35.74,200
UA,288,Слобода,33.62,51.187,200
GR,3674,Ρόδος,28.228,36.444,1773
UA,714,Кропивницький,32.255,48.516,714
UA,345,Верблюжка,32.906,48.364,288
UA,345,Срібне,32.919,50.664,240
UA,345,Озерне,31.938,47.511,200
UA,414,Оржиця,32.697,49.792,240
UA,595,Бобринець,32.163,48.054,288
UA,414,Вереміївка,32.592,49.398,200
UA,1232,Конотоп,33.202,51.237,856
GR,1478,Κάρπαθος,27.212,35.507,714
UA,496,Тіньки,32.622,49.188,240
GR,496,Σύμη,27.839,36.613,288
UA,714,Шостка,33.488,51.865,496
UA,1478,Миколаїв,32.008,46.945,595
UA,345,Галицинове,31.957,46.791,200
UA,856,Лубни,32.987,50.016,414
UA,345,Геройське,31.893,46.511,200
UA,240,Плоске,32.674,48.849,240
UA,240,Тишки,33.115,50.114,200
UA,496,Лохвиця,33.263,50.36,288
GR,714,Κατταβία,27.768,35.954,200
UA,240,Мозоліївка,32.972,49.31,200
UA,856,Новий Буг,32.508,47.691,414
UA,595,Баштанка,32.44,47.405,240
UA,414,Ромни,33.485,50.742,345
UA,345,Хорол,33.263,49.783,200
UA,345,Свеса,33.932,51.947,200
GR,496,Αρχάγγελος,28.118,36.214,200
UA,3674,Середина-Буда,34.035,52.186,200
UA,414,Глухів,33.911,51.68,240
UA,595,Глобине,33.261,49.389,200
UA,240,Черкащани,33.521,50.18,200
UA,345,Казанка,32.824,47.837,200
UA,595,Олександрія,33.098,48.664,414
UA,240,Есмань,34.07,51.775,200
UA,595,Миргород,33.61,49.965,345
UA,240,Бокове,33.075,48.206,200
UA,345,Недригайлів,33.876,50.833,200
UA,288,Гола Пристань,32.524,46.524,200
UA,288,Радивонівка,33.544,49.643,200
UA,496,Херсон,32.612,46.656,414
UA,288,Терни,33.967,50.985,200
UA,345,Білопілля,34.302,51.152,288
UA,1027,Кременчук,33.434,49.078,595
UA,288,Петрівка,33.564,49.482,200
UA,414,Снігурівка,32.801,47.073,345
UA,345,Нова Слобода,34.126,51.373,200
UA,288,Олександрівка,32.762,46.837,200
UA,240,Тарханкут,33.085,45.544,200
UA,414,Диканька,34.533,49.822,200
UA,496,Сопич,34.361,51.847,200
UA,345,Затон,33.768,49.766,200
UA,345,Зибкове,33.47,48.768,200
UA,856,Гадяч,33.989,50.37,345
UA,240,Великі Сорочинці,33.945,50.024,200
UA,288,Капустинці,34.151,50.628,200
UA,345,Широке,33.266,47.688,200
UA,414,Жовті Води,33.508,48.357,288
UA,240,Раденськ,32.924,46.55,200
UA,345,Оленівка,32.534,45.377,200
UA,1027,Кривий Ріг,33.395,47.92,714
UA,288,Шишаки,34.005,49.877,200
UA,240,Велика Олександрівка,33.3,47.322,240
UA,1027,Скадовськ,32.912,46.118,345
UA,288,Кам'яне,34.292,50.462,200
UA,414,Чорноморське,32.704,45.503,414
UA,288,Решетилівка,34.074,49.563,240
UA,288,Ободи,34.63,51.219,200
UA,345,Межиріч,34.493,50.7,200
UA,345,Зіньків,34.364,50.208,240
UA,345,Лихівка,33.918,48.677,200
UA,1027,Нова Каховка,33.357,46.749,345
UA,288,Світлогірське,34.072,48.892,200
UA,345,Зеленодольськ,33.654,47.557,200
UA,496,Кобеляки,34.197,49.148,345
UA,414,Каланчак,33.292,46.254,200
UA,496,Софіївка,33.893,48.073,200
UA,496,Вільногірськ,34.022,48.481,240
UA,240,Мирний,33.022,45.313,200
UA,1773,Суми,34.807,50.908,1027
UA,288,Опішня,34.609,49.964,200
UA,1478,Полтава,34.539,49.597,714
UA,414,Горностаївка,33.732,47.007,200
UA,345,Чаплинка,33.535,46.363,200
UA,240,Кринички,34.462,48.372,200
UA,496,Краснопілля,35.269,50.773,240
UA,288,Царичанка,34.471,48.943,200
GR,1478,Μεγίστη,29.591,36.149,856
UA,414,Богодухів,35.527,50.164,345
UA,496,Котельва,34.758,50.068,200
UA,496,Роздольне,33.489,45.77,200
UA,714,Басівка,35.086,51.186,288
UA,414,Крута Балка,34.677,49.325,200
UA,240,Лошкарівка,34.155,47.936,200
UA,414,Боромля,34.972,50.619,200
UA,496,Солоне,34.872,48.2,200
UA,288,Покров,34.079,47.658,200
UA,288,Зачепилівка,35.244,49.196,200
UA,1027,Охтирка,34.9,50.31,414
UA,240,Преображенка,33.6,46.187,200
UA,240,Велика Білозерка,34.704,47.274,200
UA,345,Новомосковськ,35.222,48.634,200
UA,414,Велика Лепетиха,33.943,47.171,240
UA,1773,Джанкой,34.393,45.711,595
UA,595,Євпаторія,33.365,45.203,414
UA,240,Іванівка,34.57,48.726,200
UA,240,Кам'янське,34.609,48.506,200
UA,496,Яни Капу,33.793,45.955,414
UA,288,Тур'я,35.354,50.892,200
UA,714,Нікополь,34.372,47.58,345
UA,345,Східне,34.433,47.744,200
UA,240,Мезенівка,35.315,50.632,200
UA,240,Степне,33.775,45.651,200
UA,345,Новопокровка,34.612,48.055,200
UA,595,Магдалинівка,34.913,48.917,200
UA,414,Чутове,35.167,49.715,200
UA,345,Ямне,35.394,50.403,200
UA,288,Чумаки,34.872,48.654,200
UA,240,Карлівка,35.124,49.454,200
UA,345,Агаймани,34.248,46.673,200
UA,1027,Севастополь,33.54,44.592,414
UA,345,Нижні Сірогози,34.377,46.841,240
UA,240,Томаківка,34.747,47.816,200
UA,288,Новотроїцьке,34.333,46.355,288
UA,3674,Дніпро,35.018,48.468,1478
UA,345,Бахчисарай,33.863,44.751,200
UA,288,Гвардійське,34.011,45.116,200
UA,345,Біюк-Онлар,34.126,45.292,200
UA,414,Красноград,35.453,49.373,345
UA,414,Перещепине,35.361,49.015,288
UA,414,Валки,35.617,49.839,240
UA,3674,Сімферополь,34.104,44.955,1478
UA,496,Курман,34.294,45.495,200
UA,240,Чонгар,34.544,46.031,200
UA,496,Петрівка,34.677,46.487,200
UA,714,Павлоград,35.885,48.528,414
UA,414,Ялта,34.158,44.501,345
UA,1232,Запоріжжя,35.154,47.85,414
UA,240,Сімеїз,34.014,44.409,200
UA,414,Веселе,34.908,47.016,200
UA,414,Юр'ївка,36.016,48.736,200
UA,1478,Лозова,36.312,48.888,345
UA,288,Старовірівка,35.724,49.546,200
UA,414,Золочів,35.97,50.278,200
UA,240,Кушугум,35.216,47.712,200
UA,856,Генічеськ,34.803,46.177,414
UA,496,Синельникове,35.516,48.321,240
UA,288,Вільнянськ,35.429,47.942,200
UA,288,Михайлівка,35.224,47.272,240
UA,288,Щасливцеве,34.835,46.033,200
UA,414,Мерефа,36.056,49.814,200
UA,345,Алушта,34.403,44.668,200
UA,414,Кам'янське,35.371,47.539,200
UA,288,Сахновщина,35.874,49.151,200
UA,240,Стрілкове,34.881,45.896,200
UA,414,Білогірськ,34.601,45.056,240
UA,414,Якимівка,35.163,46.697,200
UA,345,Чкалове,34.829,45.605,200
UA,345,Пруди,34.707,45.238,200
UA,5289,Харків,36.269,49.982,3062
UA,288,Стрілеча,36.398,50.302,200
UA,3062,Мелітополь,35.361,46.849,714
UA,496,Первомайський,36.218,49.378,345
UA,595,Ічкі,34.932,45.344,288
UA,595,Кирилівка,35.346,46.366,240
UA,856,Токмак,35.706,47.249,345
UA,288,Васильківка,36.026,48.207,200
UA,345,Астраханка,35.649,46.952,200
UA,288,Судак,34.975,44.854,240
UA,345,Єлизаветівка,36.386,49.168,200
UA,345,Степанівка Перша,35.546,46.479,200
UA,414,Чугуїв,36.683,49.835,240
UA,288,Новокостянтинівка,35.682,46.598,200
UA,414,Зарічне,36.843,50.103,200
UA,345,Хороше,36.478,48.555,200
UA,856,Феодосія,35.38,45.046,496
UA,414,Покровське,36.235,47.985,200
UA,856,Вовчанськ,36.942,50.288,345
UA,345,Більмак,36.648,47.358,240
UA,345,Першотравенськ,36.402,48.349,288
UA,345,Гуляйполе,36.268,47.662,200
UA,345,Балаклія,36.846,49.46,240
UA,714,Пологи,36.266,47.476,288
UA,414,Чернігівка,36.206,47.192,200
UA,345,Гаврилівка,36.526,48.079,200
UA,345,Варварівка,37.341,50.372,200
UA,496,Щолкіне,35.814,45.427,345
UA,288,Єди-Кую,35.773,45.296,200
UA,345,Барвінкове,37.02,48.906,288
UA,288,Приморськ,36.357,46.728,200
UA,240,Олексіївка,36.532,47.233,200
UA,345,Великий Бурлук,37.389,50.051,200
UA,240,Любимівка,36.693,47.649,200
UA,1027,Ізюм,37.281,49.205,288
UA,288,Криниці,37.124,48.661,200
UA,240,Марфівка,36.09,45.199,200
UA,496,Покровськ,37.175,48.282,288
UA,1232,Куп'янськ,37.613,49.71,414
UA,856,Бердянськ,36.789,46.765,414
UA,288,Красна Поляна,37.065,47.562,200
UA,288,Темрюк,36.974,47.269,200
UA,414,Шахове,37.353,48.463,200
UA,496,Борова,37.638,49.38,200
UA,288,Розівка,37.069,47.393,200
UA,240,Вільшана,37.791,49.783,200
CY,714,Πάφος,32.406,34.78,414
UA,345,Курахове,37.276,47.988,200
UA,240,Костянтинівка,37.702,48.523,200
UA,345,Докучаєвськ,37.679,47.757,200
UA,240,Вугледар,37.248,47.78,200
CY,345,Μόρφου,33.019,35.215,240
UA,240,Макіївка,37.96,48.054,200
UA,856,Горлівка,38.067,48.328,240
UA,496,Завітне,36.395,45.116,200
UA,1773,Керч,36.473,45.338,1027
UA,496,Краматорськ,37.568,48.722,345
UA,414,Бойківське,38.012,47.411,200
UA,240,Осовини,36.592,45.431,200
CY,595,Αργάκα,32.493,35.067,240
UA,496,Урзуф,37.107,46.914,200
UA,595,Лиман,37.805,48.988,240
UA,288,Миколаївка,37.77,48.851,200
UA,288,Мангуш,37.307,47.058,200
CY,240,Φάλεια,32.59,34.86,200
UA,856,Волноваха,37.489,47.597,345
UA,288,Терни,37.963,49.095,200
UA,345,Покровське,38.221,49.736,200
UA,414,Сватове,38.158,49.412,288
UA,714,Троїцьке,38.304,49.908,288
UA,2552,Донецьк,37.778,47.98,1232
UA,240,Бахмут,37.999,48.597,200
UA,856,Маріуполь,37.569,47.125,714
UA,345,Красноріченське,38.208,49.214,200
UA,240,Соледар,38.072,48.691,200
CY,10965,Λεμεσός,33.015,34.711,5289
UA,240,Моспине,38.063,47.879,200
UA,240,Кальміуське,38.075,47.669,200
UA,496,Сєвєродонецьк,38.479,48.948,288
CY,1027,Στρόβολος,33.363,35.125,414
UA,240,Дебальцеве,38.418,48.341,200
CY,288,Λάρνακα,33.633,34.898,240
UA,345,Новоазовськ,38.081,47.116,288
UA,288,Білолуцьк,39.022,49.698,200
CY,240,Λύση,33.682,35.106,200
UA,856,Старобільськ,38.921,49.278,345
UA,595,Амвросіївка,38.485,47.797,200
UA,345,Чистякове,38.627,48.036,200
UA,496,Алчевськ,38.793,48.476,240
UA,595,Новопсков,39.113,49.532,240
CY,288,Τρίκωμο,33.892,35.286,200
UA,240,Новобіла,39.186,49.767,200
UA,240,Кряківка,38.901,48.769,200
UA,288,Новоайдар,39.005,48.966,240
CY,240,Άγιος Θεόδωρος,34.029,35.367,200
CY,496,Αμμόχωστος,33.956,35.116,414
UA,288,Григорівка,38.78,47.856,200
CY,240,Αιγιαλούσα,34.189,35.536,200
UA,595,Хрустальний,38.924,48.137,240
CY,2552,Ριζοκάρπασο,34.379,35.598,496
UA,240,Марківка,39.56,49.523,200
UA,2127,Луганськ,39.329,48.567,714
UA,345,Біловодськ,39.579,49.201,288
UA,288,Станиця Луганська,39.474,48.665,200
UA,3062,Мілове,40.137,49.374,240
UA,496,Широкий,39.644,48.833,200
UA,240,Липове,39.725,48.413,200
UA,414,Довжанськ,39.656,48.075,288
UA,414,Діброва,40.102,49.584,200
UA,414,Сорокине,39.745,48.294,200
UA,240,Талове,39.96,48.86,200
UA,345,Довжанське,39.755,47.858,200
GE,2552,დემერჩენცი,40.091,43.511,1232
GE,240,ვაკე,40.124,43.375,240
GE,345,ზვანდრიფში,40.569,43.162,345
GE,288,რიკზა,40.786,43.389,288
GE,240,აიბღა,40.258,43.583,240
GE,288,რიწა,40.535,43.471,288
GE,595,ნაოჩი,41.356,42.778,345
GE,414,აძიბჟარა,40.968,43.202,414
GE,288,ნაა,41.298,42.942,288
GE,240,ვარჩა,41.146,42.835,240
GE,496,არღუნია,41.487,43.053,345
GE,2552,ბათუმი,41.64,41.646,1773
GE,414,ქობულეთი,41.776,41.82,200
GE,1027,ფოთი,41.675,42.142,345
GE,288,სენაკი,42.06,42.269,200
GE,714,ზუგდიდი,41.872,42.506,496
GE,288,სარფი,41.55,41.522,200
GE,496,იდლიანი,42.091,42.93,200
GE,345,წალენჯიხა,42.068,42.61,200
GE,345,ოზურგეთი,42,41.926,200
GE,288,ზედა ჩხუტუნეთი,41.858,41.488,200
GE,1027,ჩუბარი,42.45,43.072,414
GE,414,სამტრედია,42.348,42.164,200
GE,345,ხონი,42.422,42.325,200
GE,496,ქვემო ვაშლოვანი,42.295,41.637,240
GE,414,ზოტი,42.451,41.895,200
GE,595,ცაგერი,42.768,42.647,200
GE,1773,ქუთაისი,42.701,42.27,714
GE,345,ლამფალაში,43.026,42.803,288
GE,240,ტყიბული,42.997,42.348,200
GE,414,ჭიათურა,43.279,42.287,200
GE,288,სარიტათა,43.808,42.469,200
GE,414,ზეკარი,42.91,41.942,200
GE,240,ხოტევი,43.134,42.465,200
GE,345,ზესტაფონი,43.038,42.107,240
GE,1027,ახალციხე,42.99,41.638,345
GE,1027,ონი,43.443,42.584,288
GE,345,გონა,43.545,42.799,200
GE,414,ბორჯომი,43.378,41.84,200
GE,345,პერევი,43.601,42.365,200
GE,414,ხაშური,43.598,41.997,288
GE,414,ახალქალაქი,43.485,41.408,288
GE,496,ბანცური,44.699,42.324,200
GE,595,დუშეთი,44.696,42.085,240
GE,240,აბუხალო,43.752,41.818,200
GE,240,გორელოვკა,43.694,41.215,200
GE,288,ასფარა,43.78,41.452,200
GE,414,მერეთი,44.079,42.224,200
GE,414,ოქიანი,44.045,41.79,200
GE,856,გორი,44.112,41.981,496
GE,345,წალკა,44.091,41.595,200
GE,288,ირგანჩაი,44.141,41.207,200
GE,496,დმანისი,44.203,41.332,200
GE,240,ათნოხი,44.708,42.456,240
GE,595,ბოლნისი,44.539,41.45,240
GE,496,კარწაულთა,44.949,42.488,345
GE,288,სადახლო,44.79,41.243,200
GE,240,ხომი,44.93,42.379,200
GE,345,ვეძისხევი,45.484,42.419,345
GE,39285,თბილისი,44.801,41.693,7615
GE,240,ველები,44.963,42.035,200
GE,288,ანდაქი,45.206,42.538,288
GE,240,რუსთავი,45.011,41.544,200
GE,414,საგარეჯო,45.324,41.736,200
GE,856,თელავი,45.471,41.919,345
GE,496,უდაბნო,45.378,41.505,200
GE,240,თულარი,45.551,41.578,200
GE,288,ყვარელი,45.814,41.948,200
GE,714,დედოფლისწყარო,46.11,41.464,345
GE,714,ლაგოდეხი,46.273,41.827,288
GE,414,ერისიმედი,46.314,41.599,200
YT,10965,Mamoudzou,45.232,-12.78,9138
YT,345,Chirongui,45.15,-12.935,200
RE,100000,Saint-Denis,55.448,-20.878,32738
RE,414,Saint-Paul,55.27,-21.009,200
RE,240,Saint-Benoît,55.713,-21.033,240
RE,288,La Plaine-des-Palmistes,55.626,-21.134,200
RE,856,Saint-Pierre,55.478,-21.341,200
RE,240,Saint-Philippe,55.768,-21.358,200
AL,1773,Tiranë,19.801,41.344,1773
AL,288,Durrës,19.468,41.321,200
AL,1478,Vlorë,19.487,40.463,714
AL,414,Elbasan,20.08,41.114,200
AL,714,Shkodra,19.51,42.069,288
AL,1027,Korçë,20.78,40.618,414
AL,595,Fier,19.559,40.726,200
AL,496,Berat,19.95,40.705,240
AL,496,Pogradec,20.663,40.896,200
AL,414,Lushnja,19.704,40.94,200
AL,240,Kavajë,19.558,41.186,200
AL,595,Lezhë,19.644,41.781,240
AL,496,Sarandë,20.008,39.873,200
AL,414,Gjirokastër,20.14,40.078,200
AL,345,Kukës,20.424,42.078,200
AL,414,Mat,20.009,41.61,240
AL,288,Laç,19.714,41.636,200
AL,240,Fushë-Krujë,19.723,41.478,200
AL,345,Gramsh,20.184,40.866,200
AL,240,Mallakastër,19.736,40.597,200
AL,288,Tropojë,20.074,42.362,200
AL,240,Bulqizë,20.216,41.499,200
AL,345,Përmet,20.358,40.236,200
AL,240,Peqin,19.751,41.047,200
BA,2127,Sarajevo,18.363,43.849,1027
BA,1773,Banja Luka,17.204,44.79,714
BA,1232,Mostar,17.814,43.338,414
BA,1027,Tuzla,18.682,44.539,595
BA,714,Zenica,17.923,44.2,288
BA,345,Bijeljina,19.212,44.757,288
BA,714,Bihać-Centar,15.871,44.815,288
BA,414,Prijedor,16.72,44.981,288
BA,414,Doboj-Usora,18.083,44.726,345
BA,288,Modriča,18.298,44.96,200
BA,288,Bardaci,17.849,44.596,200
BA,240,Sanski Most-Muhići,16.663,44.765,200
BA,240,Pirota,17.652,44.226,200
BA,414,Bugojno,17.446,44.057,200
BA,414,Foča-Foca,18.777,43.505,288
BA,345,Mali Zvornik,19.099,44.385,200
BA,288,Ozrakovići,18.177,43.991,200
BA,288,Goražde-Vinarići,18.979,43.666,200
BA,414,Livno-Žabljak,17.006,43.824,200
BA,595,Kupusnica,16.024,45.074,200
BA,414,Potkleče,18.143,44.439,200
BA,496,Konjic,17.961,43.65,200
BA,414,Posušje,17.326,43.47,288
BA,240,Šamac,18.473,45.063,200
BA,288,Nevesinje,18.121,43.257,200
BA,345,Mrkonjić Grad-Kasimovac,17.085,44.416,288
BA,240,Klašnice,17.301,44.895,200
BA,240,Rapatnica-Bare,18.483,44.708,200
BA,288,Vučine,19.295,43.786,200
BA,288,Bileća-Bileca,18.429,42.872,200
BA,288,Hanke,18.521,44.407,200
BA,240,Okolica-Jug II,17.657,44.869,200
BA,288,Šipovo,17.086,44.283,200
BA,288,Bratunac-Danići,19.331,44.183,200
BA,288,Vlasenica,18.945,44.183,200
BA,240,Topovina-Krajšina,17.948,43.08,200
BA,240,Sokolac-Đurkovića Brdo,18.798,43.939,200
BA,714,Gacko,18.535,43.167,240
BG,4408,Sofia,23.32,42.687,1773
BG,1478,Plovdiv,24.755,42.142,856
BG,1773,Varna,27.898,43.224,1232
BG,1232,Ruse,25.968,43.842,496
BG,1478,Burgas,27.464,42.511,595
BG,856,Stara Zagora,25.621,42.424,496
BG,1232,Pleven,24.618,43.413,595
BG,714,Dobrich,27.833,43.568,288
BG,714,Sliven,26.332,42.677,345
BG,345,Yambol,26.511,42.483,200
BG,856,Shumen,26.932,43.273,496
BG,714,Haskovo,25.551,41.935,414
BG,288,Pazardzhik,24.331,42.191,240
BG,595,Veliko Tarnovo,25.619,43.079,496
BG,1027,Blagoevgrad,23.098,42.008,595
BG,856,Vratsa,23.552,43.208,414
BG,240,Asenovgrad,24.876,42.013,200
BG,345,Kazanlak,25.398,42.623,200
BG,856,Vidin,22.875,43.992,496
BG,856,Kardzhali,25.37,41.636,240
BG,496,Gabrovo,25.315,42.878,200
BG,345,Montana,23.222,43.408,240
BG,414,Kyustendil,22.688,42.282,288
BG,240,Pernik,23.038,42.604,200
BG,414,Razgrad,26.526,43.524,288
BG,496,Lovech,24.714,43.144,200
BG,288,Dupnitsa,23.119,42.262,200
BG,595,Svishtov,25.353,43.614,288
BG,414,Petrich,23.208,41.398,240
BG,595,Samokov,23.559,42.336,240
BG,345,Sandanski,23.28,41.56,200
BG,288,Dimitrovgrad,25.594,42.059,200
BG,595,Smolyan,24.71,41.576,345
BG,288,Nova Zagora,26.007,42.492,200
BG,240,Sevlievo,25.101,43.027,200
BG,288,Aytos,27.25,42.702,200
BG,714,Karlovo,24.806,42.639,240
BG,714,Gotse Delchev,23.73,41.57,288
BG,414,Lom,23.235,43.821,240
BG,345,Peshtera,24.308,42.035,200
BG,240,Velingrad,23.99,42.029,200
BG,496,Troyan,24.71,42.888,200
BG,496,Panagyurishte,24.187,42.506,240
BG,714,Kozloduy,23.718,43.781,288
BG,240,Kostinbrod,23.205,42.819,200
BG,240,Chirpan,25.335,42.2,200
BG,240,Razlog,23.465,41.887,240
BG,595,Botevgrad,23.794,42.906,200
BG,240,Novi pazar,27.196,43.345,200
BG,496,Knezha,24.08,43.498,240
BG,288,Balchik,28.167,43.419,200
BG,345,Cherven bryag,24.085,43.276,200
BG,414,Svilengrad,26.208,41.771,240
BG,288,Parvomay,25.235,42.101,200
BG,414,Sredets,27.181,42.347,200
BG,414,Dulovo,27.13,43.813,288
BG,288,Berkovitsa,23.129,43.237,200
BG,288,Ihtiman,23.813,42.439,200
BG,240,Kostenets,23.864,42.315,200
BG,240,Pavlikeni,25.308,43.239,200
BG,240,Galabovo,25.864,42.137,200
BG,288,Isperih,26.832,43.715,200
BG,496,Svoge,23.34,42.959,200
BG,288,Pirdop,24.179,42.703,200
BG,288,Veliki Preslav,26.814,43.161,200
BG,595,Kubrat,26.5,43.798,200
BG,345,Provadia,27.441,43.177,200
BG,240,Dryanovo,25.473,42.979,200
BG,345,Zlatograd,25.093,41.383,240
BG,345,General Toshevo,28.032,43.702,200
BG,288,Elin Pelin,23.6,42.669,200
BG,288,Hisarya,24.711,42.507,200
BG,288,Dolni chiflik,27.715,42.993,200
BG,595,Elhovo,26.571,42.17,240
BG,714,Popovo,26.226,43.348,200
BG,345,Rakovski,24.963,42.285,200
BG,288,Tervel,27.406,43.75,200
BG,595,Tsarevo,27.846,42.169,288
BG,345,Teteven,24.261,42.916,200
BG,414,Kotel,26.443,42.89,200
BG,240,Simitli,23.118,41.889,200
BG,345,Devin,24.398,41.743,200
BG,288,Straldzha,26.69,42.602,200
BG,414,Omurtag,26.417,43.11,200
BG,240,Topolovgrad,26.337,42.085,200
BG,414,Nesebar,27.727,42.661,200
BG,345,Byala,25.737,43.459,240
BG,288,Chepelare,24.681,41.724,200
HU,3062,Budapest,19.093,47.492,1478
HU,856,Debrecen,21.63,47.532,345
HU,1478,Miskolc,20.765,48.096,496
HU,1027,Szeged,20.155,46.254,714
HU,1478,Gyõr,17.643,47.68,345
HU,1027,Pécs,18.226,46.081,414
HU,714,Székesfehérvár,18.432,47.196,345
HU,714,Nyíregyháza,21.726,47.961,345
HU,595,Kecskemét,19.689,46.912,414
HU,1027,Szombathely,16.619,47.235,496
HU,496,Tatabánya,18.395,47.579,288
HU,856,Szolnok,20.188,47.18,240
HU,240,Érd,18.907,47.394,200
HU,345,Veszprém,17.915,47.096,288
HU,856,Sopron,16.584,47.683,345
HU,496,Eger,20.378,47.9,200
HU,496,Kaposvár,17.789,46.358,288
HU,856,Zalaegerszeg,16.838,46.837,288
HU,288,Dunakeszi-Fenyves (Toboz),19.16,47.631,200
HU,1027,Békéscsaba,21.09,46.676,414
HU,414,Dunaújváros,18.932,46.966,288
HU,345,Hódmezővásárhely,20.327,46.42,200
HU,595,Nagykanizsa,16.999,46.458,240
HU,345,Gyöngyös,19.928,47.781,240
HU,714,Baja,18.958,46.182,345
HU,595,Vác,19.134,47.783,200
HU,288,Szekszárd,18.701,46.346,200
HU,345,Cegléd,19.798,47.172,200
HU,288,Kazincbarcika,20.624,48.252,200
HU,240,Esztergom,18.739,47.792,200
HU,345,Mosonmagyaróvár,17.272,47.869,200
HU,496,Pápa,17.471,47.326,288
HU,414,Kiskunfélegyháza,19.85,46.713,200
HU,240,Komló,18.253,46.193,200
HU,240,Hajdúböszörmény,21.513,47.668,200
HU,414,Ajka,17.554,47.105,200
HU,240,Jászberény,19.915,47.499,240
HU,414,Kiskunhalas,19.486,46.429,240
HU,240,Hajdúszoboszló,21.395,47.443,200
HU,595,Karcag,20.924,47.318,240
HU,288,Dunaharaszti,19.099,47.353,200
HU,288,Makó,20.48,46.219,200
HU,240,Keszthely,17.242,46.768,240
HU,288,Nagykőrös,19.782,47.034,200
HU,714,Siófok-Belváros,18.052,46.902,200
HU,345,Orosháza,20.673,46.56,200
HU,414,Paks,18.853,46.624,240
HU,414,Dabas,19.31,47.191,200
HU,414,Mohács,18.682,45.991,200
HU,595,Balassagyarmat,19.296,48.074,240
HU,496,Sátoraljaújhely,21.658,48.398,240
HU,345,Mezőtúr,20.626,47.002,240
HU,288,Tiszaújváros,21.039,47.932,200
HU,345,Újfehértó,21.682,47.803,200
HU,240,Bátonyterenye,19.831,47.996,200
HU,288,Szerencs-Szerencsi Ipari Park,21.191,48.158,200
HU,240,Dombóvár,18.133,46.376,200
HU,496,Ózd,20.281,48.218,200
HU,345,Tapolca,17.44,46.883,200
HU,345,Mátészalka,22.323,47.957,200
HU,240,Pilis,19.548,47.284,200
HU,240,Sárbogárd,18.619,46.881,200
HU,240,Nyírbátor,22.13,47.839,200
HU,496,Tiszafüred,20.761,47.616,240
HU,240,Mezőkövesd,20.569,47.809,200
HU,288,Szarvas,20.556,46.862,200
HU,240,Siklós,18.293,45.86,200
HU,288,Kőszeg,16.541,47.388,200
HU,240,Tiszakécske,20.094,46.933,200
HU,345,Szeghalom,21.17,47.023,200
HU,240,Túrkeve,20.744,47.104,200
HU,345,Mór,18.207,47.373,200
HU,288,Jánoshalma,19.329,46.3,200
HU,345,Kiskőrös,19.285,46.622,200
HU,240,Kisújszállás,20.754,47.215,200
HU,240,Berettyóújfalu,21.534,47.227,200
HU,414,Kapuvár,17.028,47.593,240
HU,288,Heves,20.283,47.596,200
HU,345,Nagyatád,17.365,46.225,240
HU,240,Encs-Abaújdevecser,21.106,48.327,200
HU,345,Körmend,16.6,47.014,200
HU,240,Létavértes,21.882,47.384,200
HU,496,Tamási,18.284,46.633,200
HU,288,Szigetvár,17.8,46.05,200
HU,345,Zirc,17.873,47.264,200
HU,288,Páty,18.829,47.515,200
HU,240,Kompolt,20.249,47.745,200
HU,240,Bácsalmás,19.336,46.128,200
HU,240,Kistelek,19.981,46.474,200
HU,288,Mezőberény,21.026,46.829,200
HU,288,Polgárdi,18.304,47.065,200
HU,288,Marcali,17.411,46.582,200
HU,414,Jánoshida,20.081,47.376,200
