rs,name,lon,lat,r1
345,Galéria,8.648,42.409,200
496,Calvi,8.757,42.568,240
414,Cargèse,8.595,42.135,200
3062,Ajaccio,8.739,41.919,1478
856,Corte,9.149,42.31,288
595,Ghisonaccia,9.404,42.017,240
714,Porto-Vecchio,9.279,41.591,345
288,Propriano,8.904,41.676,200
1478,Bastia,9.452,42.702,595
345,Penta-di-Casinca,9.459,42.466,200
288,Cervione,9.491,42.331,200
345,Sari-Solenzara,9.396,41.859,200
240,Conca,9.335,41.734,200
414,Bonifacio,9.156,41.387,200
100000,Paris,2.363,48.828,100000
6346,Lyon,4.853,45.743,2552
4408,Bordeaux,-0.593,44.829,3062
3062,Toulouse,1.412,43.611,1232
1027,Nice,7.225,43.693,1027
5289,Strasbourg,7.746,48.574,2127
3674,Nantes,-1.551,47.219,2127
1232,Grenoble,5.733,45.177,496
1478,Rouen,1.093,49.433,595
414,Cergy-Pontoise,2.063,49.019,200
2127,Tours,0.694,47.379,1027
414,Toulon,5.951,43.129,345
1478,Nancy,6.18,48.689,856
1478,Reims,4.027,49.251,856
595,Le Havre,0.136,49.505,496
2552,Dijon,5.032,47.32,1027
595,Saint-Etienne,4.393,45.443,288
856,Clermont-Ferrand,3.096,45.787,714
1773,Mulhouse,7.333,47.767,595
1232,Orléans,1.911,47.905,714
414,Lens,2.857,50.42,200
856,Metz,6.179,49.113,345
856,Angers,-0.549,47.465,595
2552,Caen,-0.355,49.178,288
1478,Le Mans,0.198,47.994,496
240,Cannes,7.01,43.563,200
856,Dunkerque,2.364,51.03,345
595,Avignon,4.818,43.951,288
2552,Pau,-0.37,43.311,1027
595,Valenciennes,3.514,50.362,240
1478,Troyes,4.069,48.293,714
1478,Poitiers,0.348,46.581,595
856,Bayonne,-1.506,43.489,595
595,Melun,2.657,48.534,240
714,Valence,4.9,44.934,414
856,La Rochelle,-1.15,46.159,856
714,Chambery,5.926,45.576,240
1478,Lorient,-3.362,47.754,595
496,Boulogne-sur-mer,1.603,50.719,414
240,Douai,3.09,50.372,200
414,Calais,1.858,50.949,200
856,Creil,2.471,49.27,240
714,Chartres,1.484,48.44,414
240,Arras,2.773,50.289,200
496,Fréjus,6.761,43.434,200
414,Belfort,6.848,47.643,288
496,Meaux,2.893,48.958,288
1027,Saint-Brieuc,-2.76,48.504,496
856,Chalon-sur-Saône,4.842,46.793,414
345,Compiègne,2.816,49.413,200
595,Tarbes-Le Pradeau,0.075,43.234,240
595,Châlons-en-Champagne,4.367,48.956,240
496,Villefranche-sur-Saône,4.72,45.987,200
414,Roanne,4.065,46.036,345
496,Thionville,6.163,49.359,200
414,Châteauroux-Touvent,1.698,46.81,414
496,Nevers-Monastère de la Visitation,3.156,46.995,414
1478,Agen,0.624,44.201,414
288,Caudebec-lès-Elbeuf,1.022,49.29,200
1232,Mâcon,4.825,46.309,240
288,Gorbio,7.486,43.777,200
856,Epinal,6.446,48.176,414
240,Béthune,2.639,50.525,200
595,Dreux,1.368,48.734,240
240,Maubeuge,3.957,50.277,240
496,Vichy,3.432,46.132,240
595,Périgueux,0.717,45.187,414
345,Soissons-La Motte,3.322,49.376,288
714,Rodez-Les Ondes,2.574,44.358,345
288,Saint-Omer,2.258,50.746,200
288,Fontainebleau,2.716,48.409,200
496,Moulins-Champmilan,3.341,46.56,345
414,Montargis,2.728,48.003,288
240,Homécourt,5.995,49.218,200
414,Dax,-1.052,43.713,288
288,Scionzier,6.558,46.067,200
240,Dammartin-en-Goële,2.685,49.057,200
288,Beaucaire,4.654,43.807,200
288,Guebwiller,7.218,47.9,200
240,Beaumont-sur-Oise,2.284,49.147,200
345,Deauville,0.054,49.343,200
240,Le Tréport,1.397,50.054,200
345,Châteaudun-Saint-Denis-les-Ponts,1.33,48.072,200
240,Blaye-les-Mines-Le Buguet,2.159,44.046,200
345,Gien-La Petite Anesse,2.623,47.694,240
345,Foix-La Coume,1.616,42.956,200
345,Remiremont,6.594,48.017,200
595,Redon-Le Tertre,-2.077,47.656,288
345,Livron-sur-Drôme,4.831,44.766,200
414,Luxeuil-les-bains,6.391,47.815,200
240,Saint-André-de-Cubzac,-0.437,45.006,200
288,Capbreton,-1.427,43.652,200
240,Mazamet-Le Cros,2.375,43.496,200
240,Vif-La Santon,5.662,45.053,200
288,Bernay,0.597,49.094,200
345,La Ferté-Bernard,0.651,48.184,288
240,Faulquemont,6.582,49.058,200
414,Joigny,3.406,47.982,200
345,Gray-la-Ville,5.587,47.445,240
240,Péronne,2.938,49.928,200
414,L'Aigle,0.619,48.761,288
414,Wissembourg,7.948,49.038,200
414,Podensac,-0.363,44.666,200
288,Barraux,6.004,45.437,200
240,Hœrdt,7.792,48.707,200
414,Codalet,2.418,42.619,200
288,Saint-Jean-d'Angély,-0.523,45.944,200
240,Carspach,7.229,47.621,200
240,Argenton-sur-Creuse-L'Auvergnier,1.526,46.587,200
240,Avesnes-sur-Helpe,3.928,50.121,200
345,Revin,4.642,49.937,200
288,Ganges-La Baraque,3.713,43.934,240
714,Brioude,3.376,45.296,200
345,Avallon,3.915,47.488,288
240,Ham,3.072,49.741,200
345,Doullens,2.348,50.155,200
595,Loches,1,47.129,240
345,Decize-Chez Tabarant,3.461,46.832,200
240,Saussay,1.418,48.861,200
240,Sainte-Florine,3.325,45.414,200
240,Mirecourt,6.129,48.306,200
595,Prunières,5.788,44.906,200
414,Marconne,2.026,50.378,200
714,Morez,6.024,46.525,200
345,Sézanne,3.724,48.722,200
240,Forcalquier,5.774,43.951,200
288,Tonnerre-Valru,3.978,47.863,240
288,Bar-sur-Aube-Sainte-Germaine,4.706,48.234,240
240,Ouessant,-5.096,48.455,200
240,Lanildut,-4.749,48.473,200
240,Berrien,-3.751,48.404,200
3062,Brest,-4.484,48.391,1478
414,Plogoff,-4.667,48.037,200
345,Lesneven,-4.321,48.572,200
240,Landerneau,-4.248,48.451,200
240,Douarnenez,-4.329,48.092,200
288,Penmarch,-4.336,47.812,200
288,Morlaix,-3.827,48.578,200
714,Quimper,-4.101,47.996,345
240,Pleyben,-3.968,48.226,200
288,Concarneau,-3.918,47.871,200
595,Lannion,-3.458,48.732,345
345,Carhaix-Plouguer,-3.573,48.276,288
240,Scaër,-3.701,48.027,200
240,Callac,-3.427,48.404,200
240,Plélauff,-3.21,48.207,200
288,Plœuc-L'Hermitage,-2.756,48.347,200
240,Quiberon,-3.12,47.482,200
240,Quimperlé,-3.551,47.874,200
240,Guingamp,-3.147,48.561,200
496,Pontivy,-2.967,48.064,240
288,Pluvigner,-3.009,47.777,200
288,Le Palais,-3.156,47.347,200
240,Moréac,-2.819,47.919,200
240,Fréhel,-2.364,48.628,200
414,Vannes,-2.76,47.658,288
240,Le Rozel,-1.827,49.485,200
288,Sarzeau,-2.768,47.528,200
240,Merdrignac,-2.41,48.191,200
414,Ploërmel,-2.396,47.929,240
288,Mauron,-2.283,48.084,200
240,L'Île-d'Yeu,-2.348,46.724,240
1027,Cherbourg-en-Cotentin,-1.623,49.642,595
414,Saint-Malo,-2.022,48.652,414
345,Dinan,-2.046,48.454,200
240,Muzillac,-2.482,47.555,200
288,Valognes,-1.471,49.507,200
714,La Haye,-1.544,49.291,200
288,Mesquer,-2.46,47.4,200
240,Roz-Landrieux,-1.812,48.544,200
240,La Gacilly,-2.134,47.767,200
288,Granville,-1.596,48.838,240
240,Combourg,-1.751,48.41,200
345,Saint-Nazaire,-2.213,47.273,345
288,Pontchâteau,-2.089,47.437,200
288,Guichen,-1.796,47.966,200
1773,Rennes,-1.679,48.112,714
345,Avranches,-1.361,48.687,200
496,Pornic,-2.104,47.115,200
496,Saint-Lô,-1.089,49.116,414
240,Vierville-sur-Mer,-0.903,49.374,200
240,Tessy-Bocage,-1.059,48.974,200
240,Janzé,-1.497,47.959,200
288,Bouin,-1.998,46.974,200
414,Fougères,-1.203,48.352,240
496,Mayenne,-0.62,48.306,200
240,Saint-Hilaire-de-Riez,-1.945,46.72,200
240,Châteaubriant,-1.375,47.721,240
240,Brem-sur-Mer,-1.829,46.606,200
288,Bayeux,-0.702,49.276,200
595,Vire Normandie,-0.887,48.838,240
240,Challans,-1.878,46.845,240
240,Treillières,-1.62,47.33,200
414,Vitré,-1.215,48.125,200
240,Domalain,-1.24,47.996,200
288,Les Monts d'Aunay,-0.63,49.02,200
240,Gorron,-0.812,48.412,200
288,Les Sables-d'Olonne,-1.784,46.497,200
240,Luc-sur-Mer,-0.355,49.318,200
240,Vallons-de-l'Erdre,-1.183,47.525,200
240,Flers,-0.575,48.75,200
240,Craon,-0.949,47.849,200
288,Orée d'Anjou,-1.206,47.334,200
240,Andouillé,-0.782,48.178,200
240,Montréverd,-1.411,46.934,200
240,Vallet,-1.265,47.162,200
714,Laval,-0.773,48.071,496
714,La Roche-sur-Yon,-1.427,46.67,414
414,Segré-en-Anjou Bleu,-0.873,47.686,200
240,Cléville,-0.095,49.155,200
240,La Ferté Macé,-0.358,48.59,200
345,Falaise,-0.201,48.894,200
240,Château-Gontier-sur-Mayenne,-0.706,47.826,200
345,Beaupréau-en-Mauges,-0.981,47.209,200
345,Évron,-0.4,48.156,200
496,Fécamp,0.381,49.756,200
288,Les Herbiers,-1.013,46.869,200
595,Cholet,-0.878,47.059,288
240,Luçon,-1.169,46.455,200
414,Argentan,-0.015,48.744,240
240,La Brée-les-Bains,-1.345,46.013,200
595,Lisieux,0.228,49.146,288
240,La Bazoge,0.154,48.1,200
240,Tiercé,-0.467,47.614,200
240,Bolbec,0.474,49.574,200
345,Sées,0.172,48.606,200
288,Vimoutiers,0.198,48.928,200
240,Barentin,0.953,49.546,200
240,Restigné,0.229,47.281,200
240,Chinon,0.24,47.167,200
240,Hendaye,-1.773,43.359,200
240,Ayron,0.076,46.66,200
288,Marans,-0.992,46.31,200
240,Pont-Audemer,0.517,49.357,200
856,Alençon,0.082,48.43,345
240,Somloire,-0.608,47.034,200
288,Fresnay-sur-Sarthe,0.018,48.282,200
240,Gacé,0.295,48.796,200
288,Antigny,-0.769,46.621,200
288,Norville,0.635,49.476,200
345,Fontenay-le-Comte,-0.805,46.466,200
288,La Tremblade,-1.139,45.771,200
288,La Flèche,-0.074,47.696,240
414,Bressuire,-0.492,46.842,200
288,Rochefort,-0.961,45.937,200
240,Damvix,-0.732,46.314,200
414,Baugé-en-Anjou,-0.1,47.54,200
856,Dieppe,1.078,49.923,414
414,Royan,-1.042,45.623,240
240,Surgères,-0.75,46.105,200
345,Saumur,-0.075,47.26,240
240,Thouars,-0.216,46.976,200
345,Mortagne-au-Perche,0.546,48.52,200
288,Le Neubourg,0.906,49.151,200
240,Écommoy,0.274,47.828,200
414,Niort,-0.464,46.324,414
288,Parthenay,-0.25,46.649,200
240,Charencey,0.756,48.647,200
595,Lesparre-Médoc,-0.935,45.306,288
240,Verruyes,-0.288,46.516,200
1478,Berck,1.593,50.408,240
414,Lacanau,-1.075,44.978,200
288,Lège-Cap-Ferret,-1.147,44.795,200
240,Breteuil,0.913,48.836,200
595,Saintes,-0.633,45.744,345
240,Montval-sur-Loir,0.419,47.695,240
595,Loudun,0.082,47.01,200
240,Saint-Maixent-l'École,-0.202,46.413,200
288,La Teste-de-Buch,-1.148,44.631,288
288,Rue,1.667,50.273,200
856,Évreux,1.152,49.027,345
240,Nogent-le-Rotrou,0.822,48.322,200
345,Pons,-0.547,45.578,200
288,Vibraye,0.736,48.059,200
714,Biscarrosse,-1.166,44.396,200
288,Melle,-0.142,46.223,200
414,Mimizan,-1.227,44.2,200
345,Saint-Calais,0.743,47.921,200
288,Mirebeau,0.182,46.786,200
240,Bouafles,1.386,49.21,200
288,La Feuillie,1.514,49.463,200
288,Barbezieux-Saint-Hilaire,-0.155,45.472,200
414,Beauvais,2.082,49.43,200
240,Salles,-0.869,44.551,200
240,Cognac,-0.325,45.698,200
288,Vernon,1.485,49.093,200
288,Sorigny,0.694,47.242,200
240,Arsac,-0.688,44.998,200
496,Abbeville,1.834,50.106,240
240,Wormhout,2.468,50.883,200
240,Limay,1.736,48.992,200
240,Pouillon,-0.996,43.605,200
288,Tartas,-0.808,43.832,200
240,Luxey,-0.517,44.264,200
345,Linxe,-1.245,43.921,200
240,Germignac,-0.337,45.571,200
414,Montmorillon,0.868,46.425,200
240,Captieux,-0.261,44.292,200
288,Ribérac,0.338,45.246,200
496,Aumale,1.752,49.769,200
240,Angerville,1.998,48.311,200
288,Nontron,0.663,45.529,200
288,Fruges,2.134,50.513,200
288,Rouillac,-0.063,45.775,200
240,Mametz,2.322,50.634,200
414,Châtellerault,0.547,46.818,200
288,Hasparren,-1.305,43.384,200
288,Pissos,-0.778,44.307,200
240,Flixecourt,2.081,50.015,200
414,Morcenx-la-Nouvelle,-0.91,44.034,200
240,Bossée,0.73,47.112,200
496,Vendôme,1.067,47.794,200
288,Gisors,1.778,49.279,200
288,Ruffec,0.199,46.028,200
414,Clérac,-0.228,45.181,200
240,Louchats,-0.566,44.512,200
240,Magny-en-Vexin,1.787,49.152,200
240,Frévent,2.293,50.278,200
288,Achy,1.977,49.553,200
288,Amboise,0.984,47.413,200
345,Irissarry,-1.231,43.258,200
240,Fleuré,0.52,46.479,200
240,Archigny,0.653,46.673,200
288,Libourne,-0.244,44.914,200
714,Angoulême,0.156,45.648,595
240,Houx,1.62,48.566,200
240,Chalais,0.04,45.273,200
1232,Amiens,2.296,49.894,414
414,Pressac,0.567,46.116,200
240,Rambouillet,1.82,48.645,200
595,Blois,1.337,47.589,345
240,Obterre,1.037,46.916,200
414,Orthez,-0.773,43.488,200
414,Bazas,-0.21,44.431,200
240,Mauléon-Licharre,-0.888,43.22,200
240,Terres-de-Haute-Charente,0.575,45.894,240
595,Mont-de-Marsan,-0.5,43.891,496
240,Thésée,1.306,47.328,200
288,Trappes,1.999,48.776,200
595,Larrau,-0.955,43.019,200
240,Vélines,0.108,44.859,200
240,Roquefort,-0.322,44.034,200
496,Le Blanc,1.064,46.633,240
240,Albert,2.652,50.001,200
240,Baule,1.671,47.811,200
240,Clermont,2.415,49.38,200
240,Montdidier,2.567,49.647,200
240,Artix,-0.571,43.397,200
3674,Lille,3.071,50.63,1232
240,Neuvic,0.47,45.1,200
414,Étampes,2.161,48.435,200
714,Marmande,0.167,44.499,240
345,Levroux,1.615,46.98,200
414,Aire-sur-l'Adour,-0.261,43.7,200
240,Abère,-0.175,43.389,200
595,Bellac,1.047,46.121,200
345,Valençay,1.568,47.161,200
1773,Limoges,1.261,45.826,1027
345,Vierzon,2.07,47.221,200
856,Auch,0.583,43.647,345
240,Méobecq,1.412,46.738,200
240,Château-Thierry,3.402,49.046,240
240,Dunet,1.29,46.469,200
345,Romorantin-Lanthenay,1.747,47.359,200
240,La Ferté-Saint-Aubin,1.941,47.72,200
595,Bergerac,0.485,44.85,240
288,Eymet,0.398,44.669,200
345,Borce,-0.572,42.908,200
240,Pithiviers,2.257,48.173,200
240,Courtry,2.605,48.918,200
288,Lamotte-Beuvron,2.025,47.602,200
240,Pontault-Combault,2.608,48.801,200
240,Nay,-0.262,43.18,200
345,Cambrai,3.235,50.176,200
496,Noyon,3,49.58,200
288,Nérac,0.339,44.136,200
240,Nibelle,2.327,48.022,200
240,Crépy-en-Valois,2.89,49.236,200
288,La Douze,0.863,45.062,200
288,Nexon,1.189,45.676,200
240,Trémolat,0.83,44.876,200
240,Ambazac,1.402,45.958,200
240,Hergnies,3.523,50.473,200
345,Fursac,1.513,46.147,200
414,Saint-Yrieix-la-Perche,1.204,45.512,240
345,Vic-en-Bigorre,0.054,43.386,200
414,Condom,0.374,43.956,200
856,Saint-Quentin,3.287,49.847,414
288,Reuilly,2.041,47.085,200
240,Issoudun,1.989,46.948,200
288,Lourdes,-0.045,43.092,200
240,Bermerain,3.531,50.253,200
240,Monflanquin,0.768,44.533,200
414,Villeneuve-sur-Lot,0.706,44.41,200
240,Tergnier,3.292,49.656,200
345,Busigny,3.469,50.035,200
414,Nemours,2.693,48.267,200
240,Guny,3.267,49.519,200
496,Aigurande,1.829,46.434,200
240,Bousies,3.617,50.151,200
240,Aubigny-sur-Nère,2.441,47.489,200
240,Nangis,3.013,48.554,200
595,Guéret,1.872,46.169,345
240,Objat,1.41,45.264,200
496,Sarlat-la-Canéda,1.217,44.89,200
288,Fleurance,0.663,43.849,200
240,Donzac,0.819,44.11,200
240,Nogent-sur-Vernisson,2.743,47.846,200
1478,Bourges,2.399,47.081,714
345,Eymoutiers,1.745,45.739,200
240,Coincy,3.421,49.161,200
240,Lannemezan,0.384,43.125,200
595,Laon,3.621,49.565,200
240,Beton-Bazoches,3.246,48.701,200
1478,Brive-la-Gaillarde,1.534,45.16,595
240,Jars,2.684,47.397,200
345,Gourdon,1.382,44.737,200
240,Boussac,2.214,46.348,200
345,Provins,3.299,48.56,240
240,Toucy,3.294,47.735,200
240,Bray-sur-Seine,3.24,48.415,200
240,Moissac,1.085,44.105,200
496,Aubusson,2.17,45.957,200
856,Sens,3.283,48.199,288
1232,Montluçon,2.607,46.34,496
240,Courgenay,3.554,48.286,200
288,Vervins,3.907,49.834,200
345,Giat,2.468,45.802,200
240,Marigny-le-Châtel,3.736,48.403,200
345,Gimont,0.877,43.626,200
240,Peyrilles,1.416,44.62,200
288,Dun-sur-Auron,2.572,46.888,200
496,Rethel,4.365,49.509,200
240,Seix,1.202,42.864,200
288,Saint-Amand-Montrond,2.507,46.721,288
714,Givet,4.824,50.136,200
345,Montmirail,3.536,48.87,200
414,Fourmies,4.047,50.018,200
240,Baugy,2.728,47.081,200
288,Sissonne,3.891,49.572,200
595,Cosne-Cours-sur-Loire,2.925,47.41,240
288,Cahors,1.441,44.447,288
288,Croze,2.161,45.819,200
414,Saint-Gaudens,0.724,43.107,345
240,Pern,1.405,44.329,200
240,Villeneuve-sur-Yonne,3.295,48.085,200
496,Bagnères-de-Luchon,0.593,42.789,240
240,Égletons,2.046,45.406,200
288,Gramat,1.723,44.779,200
856,Montauban,1.353,44.016,345
240,Forgues,1.047,43.432,200
240,Aubenton,4.205,49.837,200
240,Lias,1.136,43.562,200
240,Quissac,1.73,44.644,200
414,La Charité-sur-Loire,3.018,47.177,200
345,Grenade,1.295,43.77,200
240,Auzances,2.501,46.025,200
288,Caussade,1.537,44.162,200
240,Orgueil,1.409,43.905,200
288,Épernay,3.959,49.044,200
496,Romilly-sur-Seine,3.727,48.519,200
714,Ussel,2.312,45.546,496
240,Bazancourt,4.168,49.366,200
240,Cosne-d'Allier,2.83,46.475,200
288,Siran,2.127,44.954,200
288,Muret,1.331,43.461,200
1027,Auxerre,3.57,47.796,414
345,Mauriac,2.332,45.218,200
288,Saint-Girons,1.146,42.983,240
595,Figeac,2.035,44.61,240
240,Saint-Éloy-les-Mines,2.835,46.161,200
288,Saint-Florentin,3.728,48.002,200
345,Bort-les-Orgues,2.495,45.401,200
240,Auterive,1.478,43.352,200
240,Deux Rivières,3.691,47.684,200
288,Gelles,2.763,45.769,200
240,Montlaur,1.57,43.489,200
288,Mourmelon-le-Grand,4.366,49.141,200
288,Saint-Cernin,2.422,45.058,200
240,Tannay,3.591,47.367,200
288,Mailly-le-Camp,4.195,48.672,240
240,Poix-Terron,4.642,49.649,200
714,Charleville-Mézières,4.72,49.76,414
595,Aurillac,2.445,44.93,496
240,Dornes,3.352,46.715,200
240,Saverdun,1.576,43.234,200
240,Firmi,2.307,44.541,200
288,Vouziers,4.701,49.398,200
595,Pamiers,1.608,43.115,288
240,Saint-Pourçain-sur-Sioule,3.289,46.307,200
240,Bessay-sur-Allier,3.362,46.438,200
345,Graulhet,1.989,43.76,200
240,Riom,3.115,45.894,200
240,Revel,2.006,43.458,200
240,Brezons,2.808,44.968,200
240,Val-de-Sos,1.499,42.768,200
240,Plichancourt,4.674,48.746,200
240,Appelle,1.953,43.582,200
240,Piney,4.333,48.364,200
595,Albi,2.146,43.927,496
240,Arvieu,2.661,44.193,200
240,Poil,4.07,46.868,200
714,Saint-Dizier,4.948,48.638,288
288,Limoux,2.218,43.053,200
414,Osséja,1.981,42.415,288
345,Paray-le-Monial,4.121,46.452,288
240,Arnay-le-Duc,4.486,47.131,200
288,Naucelle,2.342,44.198,200
240,Le Creusot,4.428,46.805,240
240,Warcq,5.652,49.193,200
240,Veyre-Monton,3.162,45.677,200
288,Castelnaudary,1.953,43.317,200
240,Les Riceys,4.366,47.992,200
288,Peyrusse,3.029,45.202,200
496,Issoire,3.251,45.545,200
345,Castres,2.242,43.604,288
288,Carignan,5.169,49.632,240
288,Puy-Guillaume,3.475,45.96,200
240,Fanjeaux,2.035,43.187,200
345,Laguiole,2.846,44.684,200
288,Espalion,2.761,44.521,200
240,Le Neufour,4.982,49.132,200
240,Thoste,4.226,47.437,200
345,Montbard,4.337,47.624,200
288,Ax-les-Thermes,1.837,42.72,200
240,Anost,4.099,47.078,200
496,Saint-Flour,3.095,45.033,200
414,Saulieu,4.229,47.279,200
288,Dun-sur-Meuse,5.185,49.384,200
240,Seuil-d'Argonne,5.062,48.978,200
240,Thil,4.784,48.348,200
288,Châtillon-sur-Seine,4.574,47.86,288
240,Salsigne,2.358,43.33,200
240,Gueugnon,4.063,46.601,200
595,Carcassonne,2.353,43.212,414
288,Quillan,2.185,42.875,200
288,Autun,4.299,46.951,200
496,Lacaune,2.691,43.707,200
240,Bar-le-Duc,5.162,48.771,200
240,Vitteaux,4.54,47.399,200
414,Saint-Chély-d'Apcher,3.275,44.802,200
240,Réal,2.132,42.631,200
240,Les Salces,3.162,44.534,200
240,Sévérac d'Aveyron,3.071,44.322,200
345,Verdun,5.387,49.159,345
288,Saint-Affrique,2.887,43.958,200
240,Langeac,3.494,45.098,200
288,Ambert,3.743,45.549,200
414,Joinville,5.138,48.444,200
595,Millau,3.078,44.101,288
288,Saint-Vallier,4.371,46.641,200
856,Chaumont,5.139,48.111,414
345,Longwy,5.769,49.514,200
240,Py,2.351,42.496,200
240,Boviolles,5.418,48.648,200
288,Saint-Mihiel,5.542,48.888,200
496,Mende,3.502,44.518,288
414,Montbrison,4.063,45.607,200
240,Cours,4.321,46.1,200
240,Landres,5.805,49.321,200
240,Le Caylar,3.316,43.865,200
240,Vignot,5.608,48.774,200
288,Toul,5.894,48.676,200
240,Bessenay,4.554,45.777,200
240,Canet,3.491,43.602,200
288,Feurs,4.221,45.744,200
414,Beaune,4.84,47.026,200
240,Luriecq,4.08,45.452,200
345,Argelès-sur-Mer,3.021,42.549,200
496,Le Puy-en-Velay,3.884,45.043,345
240,Bédarieux,3.16,43.615,200
240,Is-sur-Tille,5.112,47.522,200
240,Le Brignon,3.881,44.935,200
240,Cluny,4.658,46.436,200
288,Narbonne,3.004,43.184,200
240,Bas-en-Basset,4.11,45.306,200
496,Langres,5.331,47.866,200
496,Lodève,3.317,43.732,240
240,Tarare,4.434,45.895,200
240,Sarrey,5.427,48.003,200
240,Langogne,3.855,44.727,200
288,Beaujeu,4.587,46.154,200
240,Magalas,3.224,43.472,200
240,Coustouges,2.649,42.367,200
595,Béziers,3.214,43.343,414
288,Céret,2.749,42.486,200
496,Port-la-Nouvelle,3.042,43.02,200
288,Neufchâteau,5.694,48.355,240
1773,Perpignan,2.895,42.699,714
240,Val-d'Aigoual,3.641,44.081,200
240,Leucate,3.027,42.909,200
240,Binges,5.27,47.329,200
240,Grammond,4.44,45.566,200
240,Rodemack,6.236,49.469,200
414,Pont-à-Mousson,6.055,48.903,200
345,Champlitte,5.513,47.617,200
240,Marbache,6.099,48.796,200
240,Auxonne,5.389,47.194,200
345,Bourbonne-les-Bains,5.749,47.954,200
240,Contrexéville,5.895,48.18,200
288,Louhans,5.223,46.628,200
345,Bessèges,4.092,44.294,200
288,Les Matelles,3.81,43.73,200
288,Le Cheylard,4.423,44.906,240
496,Dole,5.489,47.091,240
240,Cerbère,3.165,42.442,200
414,Sète,3.696,43.402,200
1773,Alès,4.077,44.125,240
414,Annonay,4.668,45.24,200
240,Bouzonville,6.536,49.29,200
288,Jussey,5.903,47.826,200
288,Aubenas,4.39,44.621,200
240,Vienne,4.875,45.526,200
856,Montpellier,3.897,43.598,856
288,Ruoms,4.342,44.453,200
414,Bourg-en-Bresse,5.225,46.205,288
414,Saint-Amour,5.343,46.436,200
240,Bayon,6.317,48.472,200
345,Lons-le-Saunier,5.559,46.672,345
240,Vic-sur-Seille,6.53,48.782,200
345,Charvieu-Chavagneux,5.162,45.746,200
288,Tournon-sur-Rhône,4.832,45.068,200
288,Lunéville,6.492,48.592,200
414,Poligny,5.709,46.837,200
288,Morhange,6.646,48.925,200
288,Verfeuil,4.446,44.17,200
240,Ambérieu-en-Bugey,5.36,45.958,200
288,Hauterives,5.027,45.256,200
714,Vesoul,6.154,47.62,288
240,Rioz,6.069,47.425,200
345,Uzès,4.42,44.014,200
240,Geraise,5.948,46.957,200
496,Rosans,5.47,44.392,200
240,Moyen,6.569,48.483,200
240,Vauvert,4.275,43.691,200
414,Nîmes,4.36,43.837,288
1027,Besançon,6.024,47.238,595
240,Raon-l'Étape,6.844,48.407,200
240,Bouvante,5.271,44.965,200
414,Forbach,6.895,49.186,414
856,Montélimar,4.75,44.557,288
240,Vaison-la-Romaine,5.074,44.242,200
288,Bourgoin-Jallieu,5.277,45.594,240
288,Montbéliard,6.798,47.51,200
240,Thoiria,5.736,46.534,200
240,Romont,6.585,48.357,200
345,Pierrelatte,4.699,44.376,200
240,Saint-Baudille-et-Pipet,5.769,44.784,200
288,Lure,6.494,47.686,200
414,Orange,4.807,44.137,200
240,Baume-les-Dames,6.362,47.353,200
240,Beveuge,6.484,47.559,200
240,Vinay,5.404,45.21,200
345,Arles,4.627,43.677,200
414,Sarrebourg,7.056,48.734,288
240,Montferrat,5.591,45.49,200
240,Montjoux,5.115,44.497,200
240,Culoz,5.781,45.847,200
414,Voiron,5.591,45.363,200
288,Gex,6.058,46.334,200
414,Saint-Dié-des-Vosges,6.948,48.287,200
714,Pontarlier,6.354,46.904,288
240,Die,5.369,44.753,240
288,Jougne,6.39,46.761,200
414,Bitche,7.427,49.05,200
240,Aix-les-Bains,5.915,45.689,200
240,Kruth,6.965,47.931,200
288,Mazan,5.126,44.057,200
240,Cavaillon,5.038,43.836,200
288,Morteau,6.604,47.057,200
595,Annemasse,6.234,46.193,240
240,Groisy,6.171,46.016,200
1478,Annecy,6.129,45.899,595
240,Lauw,7.018,47.757,200
240,La Terrasse,5.931,45.324,200
240,Salon-de-Provence,5.099,43.641,200
240,Oberbronn,7.608,48.941,200
345,Thonon-les-Bains,6.478,46.373,200
240,Mutzig,7.456,48.539,200
240,Martigues,5.049,43.406,200
595,Colmar,7.358,48.079,240
496,Apt,5.394,43.876,200
240,Vaujany,6.078,45.157,200
240,Bessans,6.994,45.321,200
496,Haguenau,7.787,48.817,200
240,Veynes,5.824,44.535,200
5289,Marseille 3e,5.379,43.312,2127
345,Albertville,6.393,45.676,200
240,Sisteron,5.943,44.195,200
240,Les Deux Alpes,6.125,45.013,200
288,Brignoles,6.061,43.406,240
240,Morzine,6.709,46.179,200
240,Laragne-Montéglin,5.822,44.315,200
288,Sallanches,6.63,45.937,200
240,Lardiers,5.712,44.058,200
414,Aix-en-Provence,5.447,43.53,200
496,Saint-Jean-de-Maurienne,6.345,45.276,200
240,Geiswasser,7.604,47.976,200
240,Saint-Bonnet-en-Champsaur,6.078,44.683,200
2552,Gap,6.08,44.559,496
240,Les Contamines-Montjoie,6.727,45.823,200
240,Valloire,6.43,45.165,200
240,Saint-Louis,7.561,47.586,200
1027,Manosque,5.782,43.834,240
240,Mothern,8.153,48.931,200
240,Venterol,6.099,44.445,200
288,Aime-la-Plagne,6.652,45.556,200
240,Vinon-sur-Verdon,5.813,43.726,200
240,La Ciotat,5.605,43.174,200
240,Névache,6.605,45.019,200
496,Digne-les-Bains,6.235,44.093,288
714,Briançon,6.644,44.898,345
240,Estoublon,6.171,43.943,200
496,Embrun,6.496,44.564,240
288,Barjols,6.008,43.557,200
240,Belgentier,6.002,43.243,200
345,Barcelonnette,6.65,44.386,200
240,Aiguilles,6.869,44.782,200
288,La Londe-les-Maures,6.235,43.139,200
240,Draguignan,6.463,43.538,200
288,Sauze,6.836,44.088,200
288,Saint-Étienne-de-Tinée,6.926,44.256,200
595,Mons,6.714,43.69,200
345,Puget-Théniers,6.893,43.956,200
240,Sainte-Maxime,6.641,43.31,200
288,Opio,6.982,43.669,200
240,Levens,7.226,43.859,200
288,Breil-sur-Roya,7.514,43.937,200
856,Tende,7.593,44.089,240
