rmax,name,lon,lat
103,Canzo,9.271,45.849
103,Sava,17.554,40.4
123,Gavoi,9.195,40.162
901,Linosa,12.862,35.86
103,Policaretto,16.379,39.454
211,Guspini,8.633,39.541
123,Piobbico,12.509,43.588
60,Meolo,12.455,45.619
86,Saliceto,8.169,44.413
60,Pasian di Prato,13.19,46.045
103,Collepietra,11.457,46.483
123,Narzole,7.87,44.596
60,Loiri,9.494,40.845
60,Castellana Sicula,14.039,37.785
72,Affile,13.099,41.885
123,Collesano,13.936,37.918
72,Vibo Marina,16.101,38.709
86,Borgata Costiera,12.641,37.71
86,Vallecorsa,13.405,41.445
211,Lesina,15.353,41.862
86,San Pantaleo,9.469,41.045
86,Borgo Virgilio,10.788,45.118
147,Nocera Umbra,12.791,43.117
123,Castel San Pietro Terme,11.587,44.399
123,Roccanova,16.205,40.21
123,Lagaro,11.178,44.216
86,San Pancrazio Salentino,17.836,40.419
123,Rio di Pusteria,11.668,46.797
72,Lusevera,13.268,46.276
176,Sassello,8.492,44.48
72,Martis,8.81,40.777
103,Bagno di Gavorrano,10.887,42.938
123,Varazze,8.571,44.36
211,Marina di Camerota,15.369,40.002
86,Pioppo,13.223,38.045
72,Roccabernarda,16.87,39.134
60,Cerreto di Spoleto,12.92,42.822
147,Gradisca d'Isonzo,13.489,45.885
86,Bosco,10.036,44.443
86,Stazione di Frasso,13.2,41.368
147,Ficarolo,11.436,44.954
86,Moglia,10.914,44.937
60,Casaleone,11.199,45.17
103,Chieri,7.822,45.014
86,Baruchella,11.453,45.067
60,Madonna del Piano,13.406,41.517
72,Capodacqua,12.783,43.017
86,Vaglio Basilicata,15.917,40.667
123,Nova Levante,11.538,46.43
72,Kamma,12.036,36.798
123,Lamoli,12.255,43.623
123,Villanova d'Asti,7.938,44.942
147,Felizzano,8.436,44.9
211,Laurenzana,15.973,40.458
123,San Benedetto dei Marsi,13.622,42.006
60,Ozzano dell'Emilia,11.475,44.444
103,Falerna Scalo,16.152,38.972
86,Cassine,8.528,44.753
103,Montaione,10.913,43.553
147,Castiglione Messer Marino,14.451,41.867
2688,Bari,16.879,41.113
103,Penna San Giovanni,13.427,43.057
147,Mercato Saraceno,12.198,43.964
147,Serre,15.187,40.582
60,San Fiorano,9.723,45.137
60,Boccioleto,8.111,45.831
103,San Fele,15.539,40.818
72,Villanovafranca,9.003,39.645
103,Cinigiano,11.39,42.891
86,Posina,11.26,45.79
86,Coriano,12.601,43.968
176,Seneghe,8.613,40.082
147,Orsaria,13.381,46.039
60,Coreggia,17.265,40.807
176,Sarnano,13.299,43.035
103,Frontone,12.734,43.514
103,Mombercelli,8.296,44.818
123,Moggio di Sotto,13.195,46.404
435,Alghero,8.321,40.557
60,Mirabello Monferrato,8.523,45.035
86,Padenghe sul Garda,10.505,45.508
86,Cologno al Serio,9.706,45.581
72,Sedini,8.816,40.853
72,Marcianise,14.299,41.035
86,Bevagna,12.608,42.934
60,Burgos,8.994,40.391
123,Vetto,10.339,44.484
60,Onies,11.865,46.749
123,Cisternino,17.422,40.744
60,Badia Calavena,11.152,45.566
123,Jolanda di Savoia,11.98,44.881
60,Gromo,9.927,45.963
147,San Gregorio Magno,15.399,40.661
123,Albidona,16.472,39.924
147,Farini,9.57,44.713
60,Annifo,12.86,43.054
86,Noceto,10.177,44.81
147,Serramanna,8.923,39.424
72,Corvara,13.872,42.276
103,Murisengo,8.135,45.082
72,Villa San Pietro,8.999,39.036
103,Stanghella,11.758,45.134
211,Rho,9.04,45.531
123,Migliarino,11.934,44.77
60,Cropani,16.128,40.044
60,Baschi,12.217,42.674
123,Aquileia,13.363,45.766
72,Urbisaglia,13.374,43.192
86,Sant'Arcangelo,12.157,43.083
60,San Martino,12.227,46.811
60,Vezzano sul Crostolo,10.548,44.602
72,Galtelli,9.615,40.385
147,Varese Ligure,9.594,44.377
72,Sommacampagna,10.845,45.407
103,Dolceacqua,7.624,43.847
72,Tezze,11.704,45.686
103,Morciano di Romagna,12.65,43.915
123,Rotonda,16.04,39.949
435,Isili,9.109,39.741
86,Marianopoli,13.915,37.599
103,Canneto sull'Oglio,10.383,45.149
60,Masi Torello,11.8,44.795
211,Piaggine,15.378,40.346
103,Rapolano Terme,11.604,43.284
60,Torrenieri,11.549,43.086
123,Auronzo,12.42,46.562
60,Santa Gertrude,10.873,46.489
86,Pulsano,17.358,40.382
72,Finocchieto,12.658,42.453
176,Cerreto Sannita,14.555,41.282
211,Castelbuono,14.09,37.928
363,Licata,13.951,37.104
86,Guasila,9.041,39.558
103,Umbriatico,16.918,39.353
103,Monte San Savino,11.724,43.333
123,Capalbio,11.422,42.453
60,Scurcola Marsicana,13.339,42.064
363,San Giovanni in Fiore,16.698,39.254
72,Bagnoli del Trigno,14.457,41.702
60,Fossalto,14.546,41.673
211,Tolve,16.017,40.694
72,Altilia,16.88,39.181
123,Lazzaro,15.661,37.977
86,Brescia,10.221,45.525
103,Ciminna,13.56,37.898
72,Pieve,11.955,46.481
72,Revo,11.06,46.392
522,Ravenna,12.203,44.416
86,San Buono,14.569,41.981
72,Episcopia,16.096,40.073
123,Ovada,8.645,44.638
86,Modugno,16.773,41.098
60,Sasso Marconi,11.245,44.396
72,Costacciaro,12.713,43.359
103,San Giorgio Ionico,17.379,40.459
86,Viticuso,13.971,41.524
363,Lodi,9.503,45.314
103,Valles,11.627,46.842
60,Carpineti,10.518,44.456
103,Bagno Roselle,11.138,42.81
86,Formigliana,8.291,45.429
60,Mercatino Conca,12.491,43.87
123,Porto Potenza Picena,13.692,43.37
60,Bianze,8.124,45.309
147,Mandas,9.129,39.656
103,Usellus,8.851,39.81
72,Gioia del Colle,16.924,40.8
123,Lavezzola,11.876,44.563
86,Ripa-Pozzi-Querceta-Ponterosso,10.204,43.975
60,Caminata,11.544,46.959
86,San Pietro in Volta,12.314,45.313
60,Marene,7.737,44.662
86,Villanova Monferrato,8.479,45.182
123,San Giovanni-San Bernardino,9.606,44.777
60,Bleggio Superiore,10.838,46.025
72,Mileo,16.031,40.058
72,Torricella,17.499,40.356
86,Laghi,11.271,45.825
60,Usseglio,7.216,45.233
72,Torella del Sannio,14.519,41.64
86,Appignano,13.345,43.364
72,Fagnano Alto,13.57,42.258
103,Castiglione d'Adda,9.694,45.219
147,Codigoro,12.11,44.83
86,Marziai,11.982,45.987
86,Gonnosno,8.872,39.76
60,Staffoli,10.702,43.754
303,Isola di Capo Rizzuto,17.091,38.96
147,Ottana,9.044,40.234
123,Champoluc-Champlan,7.726,45.833
103,Diamante,15.824,39.677
60,Poianella,11.627,45.631
303,Manduria,17.635,40.399
86,Roccaforte del Greco,15.896,38.048
176,Marina,16.598,40.036
303,Verbania-Pallanza-Intra,8.557,45.93
86,Anzano di Puglia,15.285,41.123
303,Popoli,13.832,42.172
253,Rezzoaglio,9.386,44.527
103,Piazze,11.919,42.907
176,Piedimonte Matese,14.375,41.356
303,Milazzo,15.238,38.222
123,Laterza,16.798,40.629
103,Riace Marina,16.526,38.389
211,Rosolini,14.948,36.824
103,Oriolo,16.446,40.054
72,Giuliano di Roma,13.279,41.54
123,Massa Martana,12.525,42.773
103,Arsiero,11.354,45.803
86,Lajatico,10.727,43.473
147,Bore,9.793,44.719
103,Mejaniga,11.905,45.459
72,Castello,15.941,40.063
147,Malonno,10.32,46.123
3225,Pantelleria,11.946,36.829
60,Montefano,13.438,43.41
72,Falconara Marittima,13.383,43.624
86,Casaleggio Novara,8.492,45.489
72,Biccari,15.196,41.398
60,Corniolo,11.794,43.908
86,Pontestura,8.333,45.142
176,Rionero in Vulture,15.672,40.925
60,Massa Lombarda,11.826,44.447
176,Villa,7.155,44.7
303,Amatrice,13.294,42.627
60,Casasco,9.004,44.828
103,Zungri,15.983,38.655
103,Scanno,13.88,41.902
147,Besozzo,8.666,45.846
253,Piove di Sacco,12.036,45.297
60,Roccavivara,14.6,41.834
123,Salandra,16.318,40.528
60,Petrella Salto,13.069,42.294
103,Paceco,12.556,37.978
86,Osiglia,8.198,44.282
123,Agosta,13.035,41.98
176,Reggio di Calabria,15.664,38.111
522,Albenga,8.215,44.053
60,Ostellato,11.945,44.745
86,Pianello Val Tidone,9.403,44.947
147,San Felice Circeo,13.088,41.233
303,Sossano,11.51,45.359
60,Riparbella,10.598,43.364
86,Mazzo di Valtellina,10.254,46.256
86,Isolabona,7.641,43.88
103,Cavour,7.378,44.789
86,Bisacquino,13.258,37.705
147,Acquasparta,12.541,42.689
103,Vado Centro,8.431,44.266
60,Morbello,8.519,44.607
176,Marina di Ginosa,16.886,40.428
123,Valledolmo,13.826,37.747
86,Altipiani di Arcinazzo,13.196,41.847
123,Sant'Antonio di Gallura,9.302,40.992
176,Squinzano,18.039,40.436
60,Ranzano,10.25,44.46
60,Santa Maddalena,12.24,46.836
72,Casperia,12.672,42.341
363,Oschiri,9.102,40.72
60,Montecchia di Crosara,11.256,45.483
147,Coreno Ausonio,13.778,41.344
103,Buggerru,8.402,39.398
86,Gambara,10.293,45.256
86,Crichi,16.643,38.954
123,Montechiaro d'Acqui,8.377,44.595
435,Muravera,9.574,39.421
72,Petriolo,13.464,43.221
86,Libertinia,14.576,37.53
86,Rivignano,13.042,45.878
72,Trequanda,11.667,43.188
72,Casalbuttano,9.962,45.252
147,Filadelfia,16.293,38.782
303,Cerignola,15.901,41.264
60,Serrazzano,10.813,43.218
147,Bellaria-Igea Marina,12.47,44.14
86,Sezzadio,8.573,44.787
72,Gerace,16.221,38.271
60,Forno,8.288,45.936
147,Itri,13.533,41.292
86,Grignano Polesine,11.75,45.044
86,Castellazzo Bormida,8.576,44.845
176,Nerito,13.478,42.549
72,Apollinara,16.418,39.702
72,Scanzano Jonico,16.699,40.25
72,Lamon,11.75,46.048
60,Taipana,13.341,46.248
211,Tione di Trento,10.727,46.036
176,Miglionico,16.501,40.568
72,Zerba,9.283,44.668
60,Montecorvino Rovella,14.978,40.692
103,Monghidoro,11.316,44.219
103,Gais,11.95,46.837
86,Quattromiglia,16.243,39.354
123,Collalbo,11.457,46.542
103,Pergine Valsugana,11.241,46.061
86,Valdaora di Mezzo,12.031,46.76
86,Castelnuovo Berardenga,11.503,43.346
103,Montiano,11.223,42.645
86,Nucetto,8.06,44.34
86,Cerami,14.508,37.81
147,Breuil-Cervinia,7.631,45.935
211,Ribera,13.265,37.5
211,Palma di Montechiaro,13.765,37.193
211,Camerino,13.069,43.14
1867,Trieste,13.803,45.634
72,Pincara,11.61,44.992
72,Casteldaccia,13.53,38.054
303,Spinazzola,16.091,40.967
72,Pellegrino Parmense,9.933,44.73
72,Alife,14.333,41.327
103,Ururi,15.016,41.816
123,Gonnesa,8.471,39.266
123,Fasana,15.137,40.252
86,Ribolla,11.035,42.969
60,Lotzorai,9.665,39.969
86,Cornuda,12.006,45.833
103,San Daniele Po,10.18,45.064
60,Maddaloni,14.38,41.039
253,Sesto,12.351,46.702
176,Lacedonia,15.423,41.051
147,Cesaro,14.713,37.845
176,Albinia,11.21,42.505
72,Albera Ligure,9.066,44.702
60,San Cono,14.367,37.291
72,Verrayes,7.538,45.764
60,San Giacomo,16.465,39.524
86,Finale,14.162,38.018
86,Fonzaso,11.801,46.016
60,Chiampo,11.283,45.543
60,Rosolina Mare,12.322,45.132
60,Peveragno,7.62,44.331
86,Ozzero,8.924,45.367
176,Asola,10.418,45.221
60,Salina,10.574,44.953
211,Guglionesi,14.917,41.914
72,Cetica,11.655,43.712
86,Sestu,9.094,39.298
123,Aprica,10.152,46.153
147,Gerola Alta,9.551,46.061
60,Valdobbiadene,12.003,45.902
72,Guarda,11.326,44.307
211,San Sebastiano,10.268,45.649
72,Roncanova,11.111,45.146
522,Lavello,15.793,41.048
72,Riva presso Chieri,7.872,44.984
72,Gallo,7.983,44.661
72,Stribugliano,11.459,42.851
60,Verghereto,12.005,43.795
103,Dovadola,11.886,44.121
72,Sona,10.825,45.439
123,Montagnana,11.467,45.233
86,Narbolia,8.576,40.047
86,Cerignale,9.35,44.678
103,Belforte del Chienti,13.247,43.162
86,Scarnafigi,7.567,44.681
86,San Nicola Arcella,15.791,39.843
86,Vetulonia,10.971,42.86
123,Vallefiorita,16.461,38.776
123,Elva,7.088,44.542
103,Salaparuta,13.01,37.758
72,Venaria Reale,7.635,45.124
147,Lana,11.156,46.612
176,Masone,8.716,44.502
176,Cuglieri,8.567,40.188
123,Ameglia,9.968,44.068
211,Mezzolombardo,11.095,46.208
72,Colvalenza,12.486,42.745
60,Albareto,10.967,44.69
60,Leno,10.215,45.365
60,Maciano,12.284,43.843
60,Mathi,7.542,45.255
626,Alessandria,8.619,44.913
147,Caoria,11.68,46.196
86,Spotorno,8.414,44.229
86,Orsomarso,15.909,39.799
72,San Elpidio,13.181,42.24
86,Calasetta,8.368,39.108
103,Condino,10.6,45.89
60,Tosi,11.534,43.749
72,Formigine,10.847,44.57
86,Parenti,16.412,39.161
72,Pietralta,13.448,42.71
72,Castroregio,16.478,39.992
86,Filettino,13.326,41.891
72,Ulignano,11.082,43.504
123,Pieve Santo Stefano,12.04,43.673
86,Catignano,13.947,42.346
211,La Thuile,6.951,45.714
147,Serramazzoni,10.79,44.429
123,Poggio Moiano,12.881,42.205
103,Pierantonio,12.392,43.264
123,Cortina-Glera-Selva,12.613,46.119
60,San Martino,11.418,46.688
626,Fermignano,12.642,43.686
72,San Lazzaro,11.414,44.467
176,Corio,7.532,45.314
86,Castelnuovo Vomano,13.848,42.629
60,Capovalle,10.545,45.753
176,Sinnai,9.203,39.304
103,Cupra Marittima,13.859,43.03
147,Torpe,9.68,40.628
103,Urbania,12.521,43.668
86,Alberoro,11.807,43.366
103,Castelcivita,15.233,40.494
72,Celle di Macra,7.18,44.481
176,Tula,8.985,40.733
901,Siena,11.334,43.32
103,Vedeseta,9.543,45.89
86,Borgomaro,7.945,43.975
72,Budoia,12.533,46.046
86,Mascali,15.199,37.758
72,Aragona,13.617,37.401
72,Anfo,10.494,45.766
123,Gagliano Castelferrato,14.536,37.711
103,Classe,12.238,44.377
103,Entracque,7.397,44.239
72,Luzzara,10.69,44.961
72,Angera,8.59,45.777
86,Contursi Terme,15.241,40.651
176,Certaldo,11.04,43.547
103,Gergei,9.1,39.7
60,Starza Vecchia,14.41,40.891
123,Guastalla,10.654,44.922
60,San Sossio Baronia,15.201,41.072
72,Raveo,12.871,46.434
72,Fontecchio,13.606,42.231
72,Greve in Chianti,11.315,43.587
123,Paglieta,14.498,42.164
147,Novellara,10.73,44.845
72,Camposampiero,11.934,45.566
86,Ortueri,8.987,40.036
72,Portico di Romagna,11.78,44.025
176,Berchidda,9.165,40.786
86,Casale di Scodosia,11.465,45.196
60,Contrada,8.143,44.445
103,Ficulle,12.066,42.836
60,San Vito sullo Ionio,16.405,38.709
363,Isernia,14.24,41.6
60,Sant'Ilario,15.666,40.791
123,Lago,16.148,39.173
123,Passignano sul Trasimeno,12.131,43.192
147,Cupramontana,13.115,43.445
72,Lama di Reno,11.216,44.365
211,Acqui Terme,8.463,44.677
901,La Spezia,9.85,44.114
86,Castellaro,7.869,43.864
176,Castelsaraceno,15.991,40.161
103,Margherita Iv,17.105,39.135
123,Vallese,11.089,45.327
60,San Giorgio,13.533,42.595
60,Lucignano,11.745,43.271
86,Alesso,13.053,46.318
72,Salvano,13.79,43.162
72,Ponton dell'Elce,12.235,42.023
363,Canazei,11.772,46.476
103,Appignano del Tronto,13.662,42.898
72,Piancastagnaio,11.686,42.85
123,Canino,11.753,42.467
60,Pescaglia,10.412,43.965
103,Cittadella,11.78,45.65
60,Santa Maria della Versa,9.299,44.988
60,Solero,8.508,44.918
72,Grotte di Castro,11.868,42.674
72,Bocca di Piazza,16.485,39.164
435,Panarea,15.076,38.637
522,Ventotene,13.43,40.796
86,Mordano,11.812,44.398
86,Tredozio,11.74,44.077
123,Castellaneta,16.935,40.631
123,Maddalena,7.029,44.622
86,Alagna Valsesia,7.938,45.851
86,Lari,10.592,43.568
176,Frosolone,14.447,41.6
303,Pinzolo,10.763,46.158
72,Ciggiano,11.711,43.364
123,Campofiorito,13.269,37.754
626,Sapri,15.629,40.075
211,Pontremoli,9.879,44.375
86,Sassi,10.393,44.083
86,Monte Cavallo,13.002,42.994
176,Sant'Angelo Lodigiano,9.411,45.237
176,Castiglione delle Stiviere,10.483,45.391
363,Formia,13.668,41.258
253,Varallo,8.259,45.814
103,Marzanello,14.11,41.316
60,Capitan Loreto,12.648,43.018
60,Castano Primo,8.778,45.553
103,Corsico,9.108,45.432
60,Limena,11.844,45.473
72,Mirto,16.778,39.605
1297,Gela,14.243,37.07
103,Cantiano,12.629,43.476
147,Pietramelara,14.188,41.272
60,Gavello,11.179,44.926
176,Desenzano del Garda,10.573,45.458
60,Rignano sull'Arno,11.453,43.725
303,Samugheo,8.941,39.948
60,Ginestra Fiorentina,11.074,43.708
60,Gazoldo degli Ippoliti,10.582,45.202
72,La Maddalena,9.015,39.147
60,Stazione di Populonia,10.54,42.996
60,Mercatale,11.232,43.635
123,Marina,15.981,39.463
103,Satriano di Lucania,15.642,40.541
123,Otranto,18.482,40.149
72,Resuttano,14.029,37.679
103,Lucito,14.687,41.732
626,Monopoli,17.296,40.952
103,Lago,12.216,45.987
176,Cassibile,15.199,36.979
363,Bosa,8.492,40.296
1556,Aosta,7.317,45.737
60,Erchie,17.733,40.439
60,Quargnento,8.488,44.945
60,Sa Serra,9.474,40.702
72,Napoli,14.276,40.859
123,Monselice,11.753,45.241
103,Sant'Anna,17.072,39.003
176,Lavis,11.11,46.143
86,Barumini,9.004,39.701
60,Farra d'Isonzo,13.517,45.906
72,Scandicci,11.153,43.767
86,Marrubiu,8.638,39.752
123,Roccabianca,10.22,45.007
86,Cannigione,9.44,41.111
211,Vernante,7.534,44.246
60,San Giovanni in Marignano,12.71,43.939
147,Spiazzo,10.739,46.104
123,Aldino,11.353,46.367
176,San Marco dei Cavoti,14.88,41.31
211,Campo Tures,11.954,46.92
147,Casole d'Elsa,11.048,43.34
103,Serra de' Conti,13.036,43.542
60,Monterosso Calabro,16.288,38.718
435,Modena,10.918,44.656
103,Ferentillo,12.787,42.621
253,Pozzallo,14.849,36.73
103,Desana,8.36,45.27
72,Loreto Aprutino,13.984,42.434
211,Latte,7.569,43.795
103,Legnaro,11.967,45.341
72,Rionero Sannitico,14.138,41.713
211,Copertino,18.057,40.27
86,Smirra,12.671,43.584
72,Vico Equense,14.431,40.66
147,Arsoli,13.018,42.04
72,Ponteginori,10.744,43.335
123,San Pietro,11.678,46.643
435,Terralba,8.638,39.718
176,Colleferro,13.005,41.726
86,Vidolasco,9.712,45.451
123,Vinchiaturo,14.591,41.493
60,Santa Maria,13.159,45.971
211,Bionaz,7.422,45.875
123,Romano di Lombardia,9.754,45.52
60,Albisola Superiore,8.514,44.337
176,Muro Lucano,15.484,40.751
253,Orzinuovi,9.924,45.404
60,Marano sul Panaro,10.973,44.457
60,Cimolais,12.437,46.288
123,Grimaldi,16.234,39.141
72,Carro,9.606,44.274
72,Cabella Ligure,9.095,44.676
86,Vaiano Valle,9.215,45.429
103,Selvena,11.643,42.767
176,San Vigilio,11.935,46.699
123,Vigliano,13.219,42.348
626,Martina Franca,17.341,40.701
72,Ripatransone,13.762,42.996
86,Aritzo,9.192,39.959
103,Sacile,12.507,45.959
363,Fossano,7.721,44.55
60,Solarolo,10.598,45.238
147,Osidda,9.218,40.524
176,Benetutti,9.168,40.458
123,Variano,13.11,46.028
60,Pieve Cesato,11.958,44.337
123,Quarona,8.269,45.763
176,Roccaraso,14.081,41.847
86,Frisa,14.369,42.263
123,Albino,9.797,45.761
86,Sant'Alessio Siculo,15.35,37.925
123,Moretta,7.536,44.763
60,Villanova,11.98,44.248
86,Valdottavo,10.477,43.942
103,Maletto,14.863,37.83
103,San Nicolo,10.923,46.511
86,Buccheri,14.85,37.125
72,Fortunago,9.183,44.923
72,Latiano,17.72,40.551
86,Salerni,16.425,39.376
103,Priola,8.021,44.243
123,Trestina,12.237,43.368
60,Limite,10.985,43.745
86,Pereto,13.102,42.058
72,Borgo Tossignano,11.59,44.277
211,Ostra,13.158,43.614
211,Levanto,9.619,44.176
103,Annunziata,14.355,41.121
60,Montenero Sabino,12.814,42.282
123,Farra d'Alpago,12.357,46.12
72,Acquaria,10.764,44.278
123,Bruzzano Zeffirio,16.082,38.013
123,Palazzolo sull'Oglio,9.889,45.593
60,Castel di Lucio,14.312,37.887
123,Ovindoli,13.516,42.137
72,Squillace Lido,16.57,38.779
123,Colle Sannita,14.835,41.364
86,Campochiaro,14.508,41.447
176,Copparo,11.827,44.895
103,Alberese,11.106,42.668
435,Belluno,12.217,46.151
60,Gaggi,15.221,37.861
103,Saluggia,8.011,45.238
72,Mantignana,12.291,43.16
60,Pasturo,9.448,45.948
86,Magliolo,8.246,44.191
60,Roccelletta,16.596,38.816
86,San Quirico d'Orcia,11.606,43.059
72,San Bartolomeo,7.663,44.265
123,Alimena,14.113,37.694
72,Calamonaci,13.29,37.526
60,San Mazzeo-Coscaro,16.27,39.032
123,Chivasso,7.891,45.193
211,Olmedo,8.38,40.651
147,Stroncone,12.655,42.502
253,Carpegna,12.338,43.782
103,San Foca,18.404,40.299
103,Guarcino,13.314,41.799
60,Nave,10.291,45.587
626,Treviso,12.24,45.674
103,Mezzenile,7.396,45.295
86,Montepulciano Stazione,11.854,43.135
60,Cervaro,15.594,41.396
86,Vastogirardi,14.26,41.775
123,Barrafranca,14.201,37.38
103,Bultei,9.064,40.456
86,Rocca Imperiale Marina,16.613,40.098
60,Selegas,9.103,39.568
72,Vignolo,7.473,44.362
60,Seminario,16.625,39.565
72,Caldogno-Rettorgole-Cresole,11.515,45.604
176,Sezze,13.057,41.5
60,Ortiano,16.695,39.45
60,Marcato Bianco,13.704,37.742
103,Graffignano,12.203,42.574
626,Ragusa,14.716,36.929
103,Ticineto,8.552,45.096
86,Santa Barbara,18.078,40.224
103,Tramutola,15.788,40.318
86,Montemerano,11.49,42.623
103,Forni di Sotto,12.672,46.394
363,Bonorva,8.769,40.419
123,Montallegro,13.351,37.392
123,Tagliacozzo,13.255,42.07
1081,Parma,10.329,44.803
60,Aquilea,10.515,43.918
60,San Giovanni,7.891,45.008
211,Moena,11.661,46.377
123,Siligo,8.726,40.576
123,Medicina-Buda,11.638,44.479
86,Lattarico,16.126,39.45
60,Marsia,13.476,42.86
147,Rosarno,15.983,38.488
253,Mirandola,11.066,44.886
60,Casacastalda,12.648,43.196
123,Semproniano,11.542,42.728
123,Galeata,11.909,43.995
123,Spilimbergo,12.893,46.11
103,Paesana,7.275,44.687
103,Ponte di Legno,10.509,46.259
147,Santa Marinella,11.864,42.037
123,Sorgono,9.101,40.026
211,Egna,11.273,46.319
123,Castelraimondo,13.056,43.209
60,Marausa,12.512,37.945
72,Puntarazzi,14.661,36.9
60,Lucca Sicula,13.307,37.579
123,Riotorto,10.684,42.981
60,Carlantino,14.976,41.595
60,Scillato,13.907,37.857
86,Montegabbione,12.092,42.92
60,Antermoia,11.849,46.691
147,Anzi,15.924,40.517
86,Caposele,15.223,40.816
176,Serra San Bruno,16.323,38.575
60,Castell'Ottieri,11.751,42.731
103,Colfiorito,12.891,43.028
147,Piandimeleto,12.411,43.724
60,Mombaldone,8.332,44.569
60,Bedero,8.718,45.979
60,Echallod,7.71,45.639
72,Gairo Sant'Elena,9.506,39.848
60,Perlezzi,9.421,44.444
60,Cudacciolu,9.381,41.053
60,Vetriolo,12.118,42.606
303,Cogne,7.361,45.608
86,Portovenere,9.834,44.066
60,Marciana Marina,10.196,42.803
72,Mafalda,14.712,41.942
86,Lugagnano,10.885,45.434
72,Cocullo,13.774,42.033
60,Bosco Marengo,8.677,44.824
72,Cervaro,13.902,41.484
176,Cianciana,13.433,37.521
123,Civitella del Lago,12.284,42.71
147,Campora San Giovanni,16.094,39.068
72,Bandito,7.821,44.724
86,Conselve,11.873,45.232
253,Minervino Murge,16.077,41.084
60,Monteviale,11.461,45.556
86,Torvaianica,12.449,41.633
60,Tolle,12.411,44.955
123,Radicondoli,11.043,43.261
103,Accadia,15.331,41.159
86,Suvereto,10.678,43.077
6686,Palermo,13.337,38.11
123,Morra,12.13,43.386
211,Montevarchi,11.568,43.528
103,Castelliri,13.551,41.678
72,Pozzomaggiore,8.661,40.398
60,Capriata d'Orba,8.691,44.728
103,Erula,8.944,40.793
123,Talana,9.497,40.042
60,Boschi,11.556,44.691
60,Santa Maria del Focallo,14.942,36.715
522,Salerno,14.792,40.68
103,Marinella,12.842,37.591
176,Faenza,11.876,44.292
86,Grisolia,15.856,39.726
72,Bordolano,9.988,45.291
86,San Giovanni Valdarno,11.532,43.563
72,Serrenti,8.978,39.493
103,Santa Caterina,10.49,46.413
123,Noale,12.069,45.546
86,Rialto,8.262,44.227
123,Mogoro,8.776,39.685
103,Avetrana,17.734,40.352
103,Peccioli,10.715,43.55
72,Giardina Gallotti,13.521,37.352
86,Grotti,12.947,42.355
123,Petritoli,13.66,43.069
72,Predappio,11.981,44.102
72,Castel Giuliano,12.126,42.054
303,Este,11.656,45.225
147,Manoppello Scalo,14.058,42.31
72,Arsie,11.759,45.983
253,Varzi,9.191,44.824
103,Ornavasso,8.416,45.968
60,Tarsia,16.273,39.624
86,San Gusme,11.497,43.388
176,Mazzarrone,14.564,37.09
103,Paulilatino,8.763,40.084
60,Fontignano,12.189,43.027
60,Amaro,13.096,46.374
60,San Colombano,12.054,44.1
103,Civitella Roveto,13.427,41.916
86,Guidomandri Marina,15.467,38.048
123,Ormea,7.919,44.155
60,San Marzano di San Giuseppe,17.505,40.454
72,Gaiola,7.407,44.335
147,Nicastro-Sambiase,16.312,38.967
72,Isola Fossara,12.738,43.433
103,Gaby,7.882,45.714
72,Piano del Voglio,11.216,44.169
60,Orria,15.172,40.3
123,Carpineto Romano,13.085,41.603
60,Rocca di Cambio,13.489,42.236
103,Rai,12.393,45.808
72,Montespertoli,11.074,43.644
123,Bagni di Lucca,10.575,44.009
72,Bellavista,11.162,43.441
86,Saracena,16.159,39.779
60,Vitinia,12.407,41.792
86,San Miniato,10.817,43.69
72,Apollosa,14.703,41.093
72,La Vecchia,10.529,44.567
176,Rocca di Mezzo,13.519,42.205
60,Confienza,8.556,45.332
72,Abriola,15.815,40.507
103,Focene,12.213,41.815
72,Santa Croce,12.915,42.467
123,Lenola,13.459,41.406
72,Olia Speciosa,9.526,39.279
103,Caselle,11.363,45.275
72,Salo,10.519,45.609
103,Sparanise,14.095,41.187
123,Sarsina,12.143,43.92
72,Branca,12.68,43.271
72,Cusano Mutri,14.511,41.336
103,Roverbella,10.769,45.267
60,Nepezzano,13.756,42.689
147,Deliceto,15.384,41.223
123,Bagnasco,8.045,44.302
103,Concesio,10.218,45.605
72,Boretto,10.545,44.902
123,Corridonia,13.508,43.247
86,Costa Saracena - Castelluccio,15.134,37.306
103,Amendolara,16.581,39.952
103,Auletta,15.425,40.561
72,Pennapiedimonte,14.194,42.157
1081,Siracusa,15.273,37.084
72,Felegara,10.114,44.722
86,Roccalbegna,11.509,42.786
123,Solarussa,8.674,39.956
626,Piacenza,9.706,45.045
123,Pomaretto,8.049,45.152
72,Villa Ottone,11.948,46.865
176,Umbertide,12.336,43.305
60,Spigno Monferrato,8.334,44.543
72,Scafati,14.524,40.75
103,Gandellino,9.946,45.99
72,Listolade,12.007,46.317
147,Salice,15.494,38.251
60,Padule-San Marco,12.606,43.33
86,Cagnano Varano,15.772,41.829
72,Cusercoli,12.01,44.046
147,Ales,8.815,39.768
253,Atina Inferiore,13.79,41.632
86,Polignano a Mare,17.21,40.998
103,Osteria del Gatto,12.75,43.291
72,San Martino d'Agri,16.052,40.239
176,Nulvi,8.744,40.785
103,San Michele al Tagliamento,12.994,45.768
123,Bompietro,14.093,37.745
86,Ameno,8.44,45.789
103,Palizzi,15.987,37.967
60,Murello,7.601,44.752
123,Picerno,15.643,40.641
103,Rotello,15.005,41.748
86,Agnone,14.997,40.217
86,San Lorenzo in Campo,12.947,43.602
60,Tavoleto,12.596,43.842
86,Poli,12.891,41.889
147,Cogolo,10.692,46.353
72,Baselice,14.974,41.394
211,Troina,14.598,37.785
123,Taurisano,18.213,39.957
103,Introdacqua,13.898,42.01
103,Castelnuovo di Val di Cecina,10.902,43.211
60,Pignataro Maggiore,14.173,41.19
123,Colombella,12.481,43.149
60,Tarsogno,9.625,44.449
103,Ardara,8.81,40.622
176,Priolo Gargallo,15.18,37.158
103,Reggiolo,10.802,44.922
363,Tarquinia,11.757,42.248
123,Castelfranco Veneto,11.926,45.676
147,Doria,16.357,39.729
60,Candiana,11.994,45.222
86,Vaglia,11.279,43.911
60,Pian Camuno,10.138,45.842
72,Sonnino,13.244,41.414
103,Creto,10.64,45.942
60,Borghetto,12.026,43.187
147,Levanzo,12.341,37.987
211,Orte,12.388,42.457
60,Montabone,8.389,44.699
60,Varcaturo,14.063,40.904
103,Serradifalco,13.881,37.456
72,Petricci,11.557,42.757
103,Nonantola,11.039,44.676
176,Mogliano Veneto,12.236,45.562
147,Tramonti di Sopra,12.789,46.309
86,Gadoni,9.186,39.913
72,Lido Manfria,14.149,37.099
123,San Pietro Vernotico,17.996,40.491
103,Settimo,16.241,39.393
60,Fontevivo,10.174,44.859
60,Caino,10.314,45.609
103,Gioi,15.218,40.29
60,Giuncarico,10.992,42.907
72,Cutrofiano,18.202,40.127
60,Madonnuccia,12.078,43.6
72,Contignano,11.74,42.976
86,Polizzi Generosa,14.006,37.811
123,Trecate,8.738,45.436
435,Treviglio,9.592,45.524
103,San Giorgio Lucano,16.39,40.111
211,Palena,14.139,41.984
253,Badia Prataglia,11.879,43.794
72,Prato Nevoso,7.788,44.256
86,Ponterio,12.411,42.81
123,Leuca,18.358,39.799
72,Calascibetta,14.27,37.591
60,Colle del Pino,12.496,41.743
86,Piana degli Albanesi,13.282,37.997
363,Villasimius,9.517,39.145
103,Valpiana,10.85,43.005
72,Colleridente,12.895,43.368
86,Sant'Antonio di Mavignola,10.79,46.192
176,Galatina,18.17,40.175
60,Nughedu San Nicolo,9.022,40.558
103,Genivolta,9.879,45.333
60,Mogorella,8.86,39.865
60,Sariano,11.419,45.008
60,Mezzano,11.809,46.154
72,Plataci,16.433,39.899
72,Macenano,12.824,42.647
147,Ronco Canavese,7.545,45.498
103,Fabrica di Roma,12.3,42.336
103,Castel del Monte,13.727,42.366
72,Cerreto d'Esi,12.985,43.319
72,Cavareno,11.138,46.409
86,Ruota,10.574,43.765
147,Borzonasca,9.39,44.42
60,Lido di Volano,12.265,44.797
86,Farindola,13.821,42.443
211,Miane,12.095,45.945
123,Isola del Gran Sasso d'Italia,13.655,42.508
103,Vaiano,11.126,43.965
60,Castelsantangelo sul Nera,13.154,42.893
72,Rotzo,11.396,45.862
72,Quinto di Treviso,12.163,45.644
123,Martano,18.303,40.203
253,Castel Goffredo,10.476,45.298
86,Marina di Fuscaldo,16.007,39.42
303,Viu,7.376,45.239
147,Fiorenzuola d'Arda,9.914,44.922
253,San Martino in Passiria,11.227,46.784
60,Chialamberto,7.343,45.363
72,Brentonico,10.955,45.819
72,Cattolica Eraclea,13.396,37.439
751,Policoro,16.67,40.209
86,Canicattini Bagni,15.065,37.032
60,Villa Fontana,11.076,45.298
751,Noasca,7.313,45.455
86,Cilavegna,8.745,45.31
60,Latignano,10.557,43.655
86,Marina,16.065,39.167
72,Cellole,13.853,41.204
147,Mercato,14.942,40.718
60,Borgo Podgora,12.854,41.51
60,Caneva,12.449,45.962
626,Cecina,10.519,43.314
60,Colfosco,11.855,46.554
123,Colle Sestriere,6.877,44.958
176,Budoni,9.708,40.703
211,Orosei,9.692,40.38
123,Lago,14.911,40.549
60,Golferenzo,9.305,44.963
103,Fulgatore - Torretta,12.685,37.954
60,Carrara,10.051,44.047
435,Nardo,18.031,40.179
60,Partina,11.823,43.749
211,Agrigento,13.589,37.321
103,Ponte Galeria-La Pisana,12.35,41.844
60,Pralboino,10.218,45.269
86,Bressana,9.132,45.079
253,Frosinone,13.351,41.639
72,Coccanile-Cesta,11.875,44.924
103,Valpelline,7.324,45.824
72,Vaccolino,12.18,44.801
60,Pie' Falcade,11.875,46.358
60,Castagneto Po,7.888,45.159
1556,Perugia,12.379,43.099
147,Fonteblanda,11.17,42.566
123,Ostuni,17.576,40.728
435,Suzzara,10.745,44.99
626,Visso,13.086,42.933
86,Portofino,9.209,44.304
60,Montalbano Elicona,15.014,38.023
147,Luserna,11.323,45.922
86,Piccianello,13.991,42.484
86,Giussano,9.211,45.694
72,Castell'Aicardi,10.212,44.91
60,Pieve d'Olmi,10.123,45.09
86,Monterosso Almo,14.765,37.089
72,Tasonis,9.269,39.308
123,San Piero Patti,14.967,38.051
86,Baganzola,10.307,44.855
147,Bastardo,12.561,42.87
72,Lutago,11.92,46.951
86,Moneglia,9.495,44.238
123,Rocca di Neto,17.007,39.184
72,Galatone,18.069,40.145
253,Seregno,9.206,45.652
147,Illasi,11.181,45.467
72,Rivalta Bormida,8.554,44.709
211,Lungro,16.122,39.739
123,San Sperate,9.008,39.359
253,Ortona,14.405,42.353
60,Montemaggiore Belsito,13.761,37.847
60,Neirone,9.191,44.455
253,Varzo,8.246,46.21
86,Mandatoriccio,16.835,39.468
60,Celleno,12.127,42.559
147,Ferla,14.94,37.12
103,Francavilla al Mare,14.283,42.421
72,Villafranca,8.103,44.034
211,Pianoro,11.341,44.393
123,Lula,9.487,40.47
123,Marta,11.925,42.533
60,Castello Tesino,11.632,46.063
147,Ostiglia,11.136,45.074
60,Mamusi,9.47,40.77
147,Verzuolo,7.484,44.594
176,Marmirolo,10.757,45.219
103,Mattine,15.025,40.385
123,Miranda,14.248,41.645
86,Rezzato,10.316,45.514
211,Demonte,7.297,44.315
60,Antey-Saint-Andre,7.588,45.807
303,Mesoraca,16.789,39.077
86,Calizzano,8.12,44.236
147,Roggiano Gravina,16.16,39.615
86,San Rocco al Porto,9.698,45.081
86,Pietraperzia,14.137,37.419
103,Camastra,13.791,37.255
72,Tufara,14.947,41.481
60,Brunella,9.636,40.688
60,Guzzano,13.828,42.666
60,Romagnano al Monte,15.455,40.629
103,Ottava,8.477,40.787
60,Cavalier,12.553,45.754
60,Trentinara,15.115,40.401
123,Pratola Peligna,13.874,42.098
60,Salara,11.427,44.983
60,Castellarano,10.735,44.514
86,Scalo Ferroviario,16.06,39.247
60,Raccolana,13.315,46.408
147,Narcao,8.675,39.169
123,Mede,8.735,45.098
103,Villorba,12.26,45.713
253,Cremona,10.02,45.143
86,Vidor,12.046,45.871
176,Corato,16.413,41.154
123,Carrozziere,15.272,37.036
211,Fregene,12.199,41.853
123,Oulx,6.831,45.036
103,Orciano di Pesaro,12.971,43.689
60,Chiassa-Tregozzano,11.891,43.514
253,Irsina,16.242,40.746
123,Torano,13.26,42.15
72,Corazzano,10.872,43.619
123,Cherasco,7.858,44.646
60,Lacchiarella,9.137,45.322
60,Beaulard,6.76,45.045
72,Fumeri,8.917,44.537
60,Chiarano,12.572,45.729
176,Sardara,8.82,39.616
86,Fara San Martino,14.205,42.09
60,Osasco,7.343,44.849
176,Montalto di Castro,11.607,42.35
103,Savignano sul Rubicone,12.402,44.093
60,Altedo,11.49,44.671
60,Canna,16.504,40.095
103,Castel San Giovanni,9.436,45.059
103,Offida,13.701,42.936
72,Jenne,13.169,41.888
176,Francavilla in Sinni,16.203,40.079
103,Villadossola,8.267,46.073
176,Luino,8.749,46.001
103,Piovene Rocchette,11.436,45.758
103,Magugnano,10.761,45.7
147,Busseto,10.042,44.98
86,Cacciola,10.721,44.634
103,Robilante,7.512,44.293
72,Gaggio Montano,10.933,44.196
72,Magliano Nuovo,15.256,40.335
86,Pozzolo Formigaro,8.783,44.794
103,Fucecchio,10.802,43.734
147,Arzignano,11.338,45.519
86,San Giorgio la Molara,14.928,41.272
86,Collalto Sabino,13.049,42.135
1081,Sondrio,9.877,46.169
60,Velva,9.552,44.276
123,Uri,8.492,40.637
72,Delia,13.93,37.359
72,Aldeno,11.093,45.978
147,Robbio,8.595,45.29
60,Bellano,9.305,46.043
103,Bibbona,10.594,43.269
103,Cerveteri,12.088,41.988
103,San Sosti,16.027,39.66
253,Vaccarizzo-Delfino,15.083,37.374
363,Mazara del Vallo,12.58,37.662
253,Ronco Scrivia,8.952,44.614
72,Leini,7.714,45.183
60,Cosentini,15.204,40.472
211,Trivento,14.551,41.777
72,Matraia,10.577,43.917
86,Catania,15.087,37.502
72,Melissa,17.029,39.31
72,Istia d'Ombrone-Le Stiacciole,11.186,42.781
72,Cascina Nuova,9.064,45.653
72,Sibari,16.456,39.745
1556,Cuneo,7.545,44.397
72,Palombaio,16.609,41.069
123,Palata,14.787,41.888
123,Petrella Tifernina,14.697,41.691
123,Schilpario,10.162,46.009
147,Pieve Torina,13.046,43.043
60,Panicale,12.1,43.028
147,Alleghe,12.025,46.407
72,Medole,10.514,45.328
86,Solignano,9.976,44.613
86,Lova,12.127,45.329
60,San Donnino,11.147,43.796
72,Castelluzzo,12.735,38.103
211,Torre San Sabina,17.698,40.753
86,Bassano Romano,12.185,42.223
147,Terzone,13.069,42.618
86,Monte Santa Maria Tiberina,12.161,43.438
72,Seggiano,11.558,42.929
147,Mele,8.747,44.445
72,Piano Caruso,16.528,39.559
1556,Sanremo,7.757,43.819
60,Baboro,14.21,42.389
60,Gropello Cairoli,8.992,45.178
363,Carbonia,8.523,39.165
103,Cava d'Aliga,14.69,36.731
60,Vairano-Patenora,14.131,41.338
60,Gropparello,9.731,44.834
86,Borgo Vercelli,8.464,45.357
253,Monte Nai,9.571,39.252
86,Sarzana,9.956,44.116
72,Pietragalla,15.875,40.746
435,Pavullo nel Frignano,10.835,44.331
435,Sampeyre,7.19,44.578
72,Caravaggio,9.641,45.495
123,Abano Terme,11.783,45.362
72,Pozza,13.416,42.742
123,Vigasio,10.94,45.315
86,Mozzano,13.512,42.83
123,Sanza,15.553,40.245
86,Statte,17.21,40.563
147,Fabro Scalo,12.044,42.875
147,San Giovanni,11.942,46.981
211,Castelsardo,8.71,40.914
60,Sassalbo,10.195,44.288
123,Borgo Venusio,16.579,40.723
72,Sagliano Micca,8.043,45.626
72,Torrazza Coste,9.085,44.977
123,Caccamo,13.67,37.936
60,Santa Sofia d'Epiro,16.33,39.547
147,Filicudi Porto,14.577,38.562
123,Lama,10.732,44.307
123,Santo Stefano-Carraie,12.184,44.311
72,Sutrio,12.993,46.511
901,Livorno,10.326,43.547
86,Menniti,16.311,38.746
72,Bando,11.886,44.644
3225,Lampedusa,12.61,35.5
211,Cotronei,16.778,39.158
60,Alianello Nuovo,16.249,40.281
60,Chiusi della Verna,11.935,43.698
60,Torre di Fine,12.749,45.567
72,Villata,8.432,45.388
123,Accettura,16.158,40.491
72,Mercatello sul Metauro,12.334,43.647
176,Ginosa,16.756,40.58
147,Ponte dell'Olio,9.643,44.869
103,Camporeale,13.094,37.898
86,Montelanico,13.04,41.652
86,Rocchetta Sant'Antonio,15.462,41.103
60,Mottalciata,8.208,45.505
123,Sorso,8.577,40.801
86,Ailano,14.206,41.389
86,Bisceglie,16.504,41.241
123,San Giovanni Suergiu,8.522,39.112
86,Carunchio,14.527,41.918
60,Roccadaspide,15.191,40.421
60,San Vito,10.974,44.557
72,Paringianu,8.428,39.176
176,Vittorio Veneto,12.296,45.99
86,Avendita,13.051,42.754
60,Rezzo,7.872,44.021
103,Cesacastina,13.447,42.589
103,Prezza,13.835,42.059
103,Mignano Monte Lungo,13.985,41.407
72,Colonnetta di Prodo,12.197,42.755
751,Mantova,10.773,45.153
72,Capalbio Scalo,11.372,42.409
103,Vergato,11.113,44.285
2240,Bolzano,11.334,46.493
60,Bagno a Ripoli,11.323,43.751
72,Montelibretti,12.739,42.135
303,Cortemilia,8.193,44.578
60,Cassio,10.035,44.587
60,Corcolle,12.73,41.914
86,Corigliano d'Otranto,18.259,40.159
60,Olevano di Lomellina,8.717,45.214
72,Salmour,7.792,44.576
86,Biandrate,8.463,45.453
103,Seulo,9.236,39.87
103,Mortegliano,13.172,45.945
86,Rivarolo Mantovano,10.436,45.07
103,Sedilo,8.922,40.172
176,Scordia,14.843,37.296
103,San Bernardo,10.846,46.4
103,Bressanone,11.657,46.709
60,Rodio,15.241,40.13
176,Ramacca,14.692,37.388
72,Cappone,12.744,43.828
176,Palestrina,12.88,41.831
147,Quarto,14.139,40.876
72,Castelvetere sul Calore,14.986,40.93
60,Maierato,16.189,38.707
1081,Latina,12.898,41.465
86,Vietri di Potenza,15.509,40.6
103,Pegognaga,10.86,44.993
72,San Nicola,8.991,40.611
60,Fresagrandinaria,14.662,41.978
72,Ceselli,12.817,42.686
147,Rocca San Casciano,11.843,44.059
363,Vicenza,11.541,45.557
86,Caldana,10.924,42.894
176,Volturino,15.123,41.477
72,Canosio,7.082,44.455
72,Sporminore,11.03,46.237
103,Alvignano,14.337,41.245
103,Cervarezza,10.331,44.39
60,San Giovanni Incarico,13.558,41.501
72,Bistagno,8.37,44.662
86,Valle Martella,12.746,41.879
86,Prignano,10.692,44.438
72,Mezzogoro,12.099,44.905
253,Macerata,13.44,43.299
103,Spresiano,12.261,45.776
86,Bari Sardo,9.647,39.842
72,Cencenighe Agordino,11.971,46.347
147,Trecenta,11.461,45.031
60,Cernobbio,9.068,45.841
123,Guardavalle Marina,16.578,38.481
60,Dosso,11.339,44.77
60,Sagron Mis,11.935,46.199
60,Palazzo Adriano,13.379,37.681
123,Alberobello,17.237,40.784
103,San Quirino,12.677,46.035
176,Enego,11.707,45.941
147,San Priamo,9.561,39.358
103,Rocca Pia,13.977,41.934
60,Viepri,12.523,42.825
72,San Martino di Castrozza,11.801,46.263
123,Quartaia,11.088,43.387
103,San Quirico,10.691,43.969
176,Plan,11.089,46.795
86,Mesola,12.229,44.92
60,Sforzesca,8.887,45.29
86,Terento,11.78,46.831
103,Morozzo,7.709,44.422
86,Pralormo,7.902,44.86
626,Nicosia,14.397,37.747
176,Monesiglio,8.118,44.466
86,Monforte d'Alba,7.97,44.582
72,Monterchi,12.111,43.489
60,Ceresara,10.566,45.262
72,San Giovanni d'Asso,11.591,43.152
86,Stia,11.708,43.802
103,Nove-San Floriano,12.309,46.04
60,Olmi,14.482,41.92
60,Zona Sisri,17.58,40.752
103,Terlano,11.245,46.533
103,Claviere,6.752,44.939
176,Taverna,16.229,39.432
72,Rio Saliceto,10.806,44.812
72,Gherba,7.982,44.85
86,Fossacesia,14.483,42.243
123,Cerea,11.207,45.193
86,Malo,11.403,45.66
60,Peglio,12.501,43.696
60,Palagiano,17.038,40.579
363,Rieti,12.869,42.406
60,Sacrofano,12.448,42.104
103,Busso,14.559,41.557
72,Volturara Irpina,14.917,40.884
60,Lido,12.361,45.401
147,Moncalieri,7.686,45.008
103,Ardauli,8.913,40.084
123,Rodello,8.057,44.628
72,Cantiere-Ponticello,9.915,44.345
60,Preganziol,12.237,45.606
60,Melilli,15.127,37.178
86,Trodena,11.35,46.322
60,Saint-Pierre,7.227,45.709
176,Lagonegro,15.766,40.124
86,Aquino,13.705,41.491
86,San Venanzo,12.269,42.87
72,Valtopina,12.755,43.055
86,Pietracuta,12.372,43.955
211,Avigliano,15.718,40.73
103,Spelonga,13.3,42.759
86,San Casciano in Val di Pesa,11.187,43.659
86,Pescolanciano,14.337,41.679
86,Marina di Campo,10.238,42.75
72,Aliano,16.229,40.313
147,Torriglia,9.159,44.519
60,Salzano,12.106,45.521
60,Mombaroccio,12.855,43.795
72,Cerano,8.781,45.408
72,Rossiglione,8.669,44.564
60,Pescura,13.551,41.717
147,Torniella,11.154,43.074
86,Teora,15.253,40.853
103,Albareto,9.702,44.447
72,Pietra Marazzi,8.664,44.942
60,Biancade,12.351,45.65
86,Piangipane,12.087,44.42
103,Ofena,13.759,42.326
60,Torrion Quartara,8.616,45.418
103,Casinina,12.587,43.816
60,Montecchio Maggiore-Alte Ceccato,11.424,45.503
86,Poggio Imperiale,15.368,41.825
72,Orciano Pisano,10.511,43.494
211,Feltre,11.898,46.017
103,Borgonuovo,11.27,44.437
86,Erba,9.23,45.81
60,Lonno,9.732,45.757
147,Nesso,9.157,45.913
211,Orgosolo,9.355,40.204
176,Padru,9.522,40.767
60,Intragna,8.572,45.994
123,Spilamberto,11.017,44.534
303,Carmagnola,7.718,44.847
435,Castrovillari,16.203,39.812
303,Bronte,14.835,37.789
123,Fiumenaro,13.62,37.24
86,Isola Albarella,12.341,45.076
86,Spinoso,15.966,40.27
211,Vejano,12.094,42.219
60,Meta,13.404,41.889
86,Villatora,11.965,45.384
72,Valle Cerrina,8.21,45.117
303,Lercara Friddi,13.604,37.746
103,Fertilia,8.282,40.594
176,Raossi,11.119,45.783
176,Recanati,13.544,43.405
86,Borgo d'Ale,8.051,45.351
147,Altare,8.333,44.337
103,Cesolo,13.193,43.259
60,Santa Teresina,12.576,45.678
72,Valla,11.933,45.707
60,Noicattaro,16.99,41.034
60,Belforte,11.062,43.232
72,Calavino,10.985,46.047
60,Scorrano,18.3,40.092
86,Torraca,15.636,40.111
72,Colle,11.313,46.865
103,Campora,15.293,40.305
86,Villanova,17.59,40.788
176,Pieve di Teco,7.914,44.048
123,Atella,15.651,40.88
103,San Vito al Tagliamento,12.859,45.92
176,Botricello,16.857,38.936
86,Oppeano,11.18,45.305
72,Corigliano Scalo,16.511,39.627
303,Casale Monferrato,8.458,45.133
103,Ceppo Morelli,8.069,45.971
86,Marina di Pisa-Tirrenia-Calambrone,10.291,43.638
60,Vulcano Piano,14.976,38.386
86,Buseto Palizzolo,12.724,38.016
72,Roseto Valfortore,15.096,41.372
72,Castelluccio,13.209,42.828
60,Cadelbosco di Sopra,10.596,44.764
103,Val di Mezzo,11.386,46.855
60,Villasor,8.942,39.381
60,Montelupone,13.57,43.343
72,Gargazzone,11.201,46.584
86,Castelgrande,15.429,40.786
72,Misilmeri,13.448,38.028
60,Calliano,8.257,45.009
176,Moliterno,15.86,40.243
60,Brinzio,8.785,45.89
103,Cinelli,11.974,42.316
103,Pieve Porto Morone,9.441,45.109
86,Casabona,16.957,39.25
60,Arqua Petrarca,11.721,45.27
60,Rizzolaga-Campolongo,11.271,46.15
72,Issime,7.854,45.687
72,Pieve di Coriano,11.104,45.038
103,Segni,13.013,41.688
435,Terracina,13.228,41.287
123,Bondeno,11.416,44.885
103,Secca Grande,13.24,37.436
103,Saline,10.813,43.363
60,Cerbaia,11.128,43.685
72,Concerviano,12.984,42.324
72,Ligonchio,10.342,44.315
60,Olmetto,13.495,42.054
626,Andria,16.295,41.227
123,San Giovanni in Persiceto,11.184,44.64
103,Linguaglossa,15.14,37.843
901,Agropoli,14.996,40.347
86,Tregnago,11.164,45.517
176,Paterno,14.905,37.569
211,Bobbio,9.383,44.768
211,Russi,12.033,44.375
72,Lagrimone,10.24,44.493
176,Donoratico,10.569,43.17
86,Marina,15.737,39.96
60,Varana,10.763,44.452
123,Manciano,11.516,42.587
1081,Rimini,12.577,44.049
123,Bisaccia Nuova,15.356,41.009
176,Branzi,9.76,46.003
72,Beinette,7.645,44.365
60,Bolognina,11.148,44.764
123,Baceno,8.319,46.261
60,Artena,12.9,41.742
363,Garessio,8.018,44.203
303,Fanano,10.801,44.214
303,Budduso,9.258,40.579
103,Grions,13.307,46.103
103,Paliano,13.059,41.806
147,Villapriolo,14.194,37.63
86,Foglianise,14.672,41.163
211,Grimacco,13.599,46.173
60,Brusnengo,8.251,45.593
103,Arenzano,8.673,44.404
72,Bareto,12.196,43.995
60,Rodi Garganico,15.882,41.929
86,Lavinaio-Monterosso,15.094,37.644
72,Sauris di Sotto,12.708,46.467
253,Braccagni,11.074,42.873
72,San Nicola,16.374,38.415
60,Bosco-Strisce,15.947,38.467
72,Monterosso al Mare,9.649,44.146
60,Treponti,11.712,45.367
72,Alessandria della Rocca,13.454,37.568
303,Longobucco,16.611,39.448
211,Gualdo Tadino,12.78,43.233
86,Chiusa,11.566,46.64
60,Campagna,15.106,40.666
72,Poggio Sannita,14.415,41.78
60,Granozzo,8.573,45.36
72,Valle Santa,12.322,41.939
72,Airole,7.555,43.871
103,Palau,9.392,41.178
103,Ceglie Messapica,17.516,40.649
72,Campagnatico,11.274,42.884
86,Giulianello,12.877,41.685
147,Sigillo,12.741,43.331
751,Ferrara,11.619,44.836
60,Cella Dati,10.222,45.096
123,Pontelongo,12.025,45.247
211,Villa Santa Maria,14.352,41.952
435,Senise,16.289,40.147
72,Vallepietra,13.233,41.926
103,Magliano Sabina,12.488,42.367
72,Collevecchio,12.552,42.335
147,Treia,13.313,43.308
72,Vestea,13.884,42.39
60,Pamparato,7.913,44.277
60,Forgaria nel Friuli,12.981,46.225
147,Castiglione d'Orcia,11.616,43.005
86,Salto Covino,13.336,41.301
176,Dro,10.912,45.962
60,Palazzo del Pero,11.976,43.422
86,Mori,10.981,45.85
60,Treppio,11.03,44.081
72,San Secondo,12.233,43.406
72,Fitta,11.254,45.453
60,Folgaria,11.181,45.915
72,Envie,7.371,44.682
147,Urzulei,9.508,40.093
60,Monale,8.072,44.937
60,Fondo Muri,11.423,45.634
103,Commenda,12.015,42.491
86,Netro,7.948,45.54
103,Poggio Rusco,11.118,44.974
253,Amantea,16.075,39.13
103,San Benedetto,8.527,39.363
60,Scagnello,7.986,44.332
60,San Varese,9.05,45.235
147,Forno di Zoldo,12.177,46.352
211,Crema,9.678,45.359
103,Brallo,9.282,44.738
103,Cavriana,10.596,45.347
60,Poggio,12.544,42.44
72,Pittulongu,9.57,40.947
123,Grisi,13.091,37.953
72,Papasidero,15.907,39.872
147,Conversano,17.111,40.97
86,Petina,15.373,40.532
72,Borghetto Lodigiano,9.5,45.211
253,Ceva,8.026,44.383
72,Salino,13.913,42.786
147,Sos Alinos,9.766,40.438
86,Tole,11.061,44.33
60,Giovinazzo,16.668,41.186
60,Bajardo,7.72,43.904
176,Pizzoli,13.309,42.431
103,Caorso,9.871,45.048
123,Torrita di Siena,11.78,43.169
176,Terenzo,10.088,44.612
60,Boccheggiano,11.034,43.091
86,Paese,12.162,45.676
123,Mineo,14.691,37.265
60,Locorotondo,17.322,40.758
72,Roata Rossi,7.527,44.444
86,Cozzana,17.22,40.923
86,Pedagaggi,14.938,37.192
123,Tricase,18.353,39.931
86,Arasi,15.738,38.14
86,Petilia Policastro,16.786,39.114
103,Sant'Antonio,11.72,44.559
86,Pezzolo,15.459,38.086
103,Montalbano,17.481,40.78
86,Quarrata,10.981,43.85
123,Roteglia,10.688,44.485
147,Porto San Paolo,9.625,40.873
123,Licenza,12.9,42.074
147,Tusa,14.236,37.984
60,Corgeno,8.687,45.746
103,Goito,10.672,45.255
60,Pancole,11.302,42.715
147,Saturnia,11.504,42.665
72,Sala,14.874,40.855
72,Fornovo di Taro,10.102,44.694
147,Calabritto,15.224,40.784
147,Anterselva di Mezzo,12.1,46.859
72,Felonica,11.354,44.979
86,Isola del Cantone,8.958,44.646
303,Citta di Castello,12.233,43.469
60,Morolo,13.198,41.639
103,Battaglia Terme,11.78,45.292
103,Termini,14.338,40.591
60,Porto Palo,12.907,37.577
86,Strada,11.711,43.745
86,Petrignano,12.535,43.099
103,Cedegolo,10.348,46.078
103,Terranova di Pollino,16.296,39.978
72,Chiusdino,11.083,43.155
86,Cittareale,13.156,42.616
147,Baselga di Pine,11.244,46.127
60,Sant'Andrea del Garigliano,13.842,41.367
60,Albinea,10.606,44.625
211,Cantu,9.14,45.729
253,Chieti,14.139,42.361
72,Offlaga,10.116,45.386
60,Comazzo,9.465,45.441
123,La Cretaz-Roisan,7.312,45.784
72,Lido di Dante,12.314,44.385
211,Fonni,9.254,40.117
363,Marsciano,12.347,42.903
176,Mezzanone,15.71,41.421
103,Riesi,14.082,37.282
72,Mas,12.129,46.151
211,Venafro,14.044,41.484
253,Comunanza,13.414,42.958
72,Crocemarroggia,12.646,42.714
103,Ponzano,10.963,43.966
363,Jesi,13.24,43.529
86,Santa Maria Nuova,13.313,43.494
60,San Giovanni,13.259,42.465
72,Isola Bella,12.806,41.562
103,Pescocostanzo,14.066,41.886
72,Rocca Sinibalda,12.925,42.273
253,Paola,16.039,39.358
147,Caulonia,16.409,38.382
1081,Nuoro,9.311,40.318
86,Borgagne,18.377,40.24
60,Civitella Licinio,14.527,41.31
123,Torre de' Passeri,13.934,42.244
60,Casalserugo,11.914,45.318
123,Carolei,16.22,39.256
103,Rivergaro,9.604,44.917
72,L'Oca,12.325,44.883
60,San Giovanni,13.761,43.057
176,Orune,9.37,40.409
60,Rico,12.035,44.076
435,Zapponeta,15.956,41.457
435,Legnago,11.308,45.19
60,San Romolo,7.726,43.856
103,Ciampino,12.607,41.801
123,Berchiddeddu,9.463,40.822
72,Collina,12.877,42.344
147,Bibione,13.023,45.633
86,Buonabitacolo,15.62,40.271
211,Praia a Mare,15.779,39.902
60,Lisiera,11.612,45.577
103,Mussomeli,13.754,37.581
60,L'Annunziata,9.505,39.303
60,Gioiella,11.97,43.093
60,Tre Berte,11.891,43.097
60,Nazzano,12.596,42.23
86,Campomarino,15.032,41.955
72,Sant'Eustachio,10.179,44.025
60,Grigno,11.637,46.016
103,Alassio,8.164,44.008
253,Vetralla,12.078,42.31
72,Paterno,15.733,40.378
72,Romanengo,9.785,45.379
147,Serracapriola,15.162,41.81
211,Sant'Agata di Militello,14.633,38.068
522,Piombino,10.527,42.922
103,Gaggio,11.013,44.634
60,Lugagnano Val d'Arda,9.827,44.823
86,Poggiardo,18.378,40.057
60,Ozzano Monferrato,8.371,45.108
72,Chions,12.712,45.844
176,Villamagna,10.839,43.481
123,Aprigliano,16.342,39.24
103,Barbarano Mossano,11.539,45.41
176,Ca' Tiepolo,12.321,44.95
176,Pomonte,10.122,42.749
72,Campofranco,13.713,37.51
60,Chieuti,15.166,41.844
103,Pietramontecorvino,15.129,41.543
147,Burcei,9.359,39.343
211,Stigliano,16.231,40.401
86,Pianella,14.048,42.4
72,Prato,13.3,46.375
86,Dobbiaco,12.225,46.724
86,Volano,11.062,45.918
86,San Giovanni,12.049,44.727
176,Bitonto,16.69,41.111
211,Borgomanero,8.458,45.701
123,Runaz,7.13,45.706
60,Bovino,15.341,41.25
72,Carmignano,11.648,45.149
303,Ivrea,7.872,45.458
123,Collecchio,10.212,44.754
72,Bonelli,12.461,44.872
60,Lagnasco,7.554,44.625
72,Cardedu,9.625,39.796
72,Dese,12.304,45.53
123,Lugo,11.912,44.421
86,Cerredolo,10.616,44.404
60,Ballabio,9.423,45.898
60,Massa,12.932,43.189
123,Ferentino,13.249,41.694
123,Orvinio,12.938,42.131
86,Capracotta,14.265,41.833
147,Oppido Lucano,15.989,40.763
60,Belvedere,11.772,45.683
72,Gualdo,12.204,44.023
123,San Pietro in Casale,11.406,44.7
103,Sant'Elia a Pianisi,14.875,41.622
86,Gardola,10.721,45.741
147,Priverno,13.187,41.469
60,Roccaverano,8.27,44.593
72,Camaldoli,8.984,44.42
72,Gesico,9.107,39.617
60,Zena,9.808,44.943
103,Cavaglia,8.093,45.407
123,Priatu,9.316,40.936
123,Baia Domizia,13.83,41.173
303,Paquier,7.624,45.88
60,Parco Adria,16.831,41.08
72,Mongiana,16.318,38.513
211,Piazza Armerina,14.371,37.388
363,Casina,10.499,44.51
72,Siano,14.692,40.802
123,Sellia Marina,16.748,38.886
103,Porano,12.101,42.683
86,Collelongo,13.584,41.887
303,Siderno,16.297,38.279
72,Ruffano,18.246,39.984
147,Fubine,8.43,44.963
72,Villa Rosa,13.922,42.851
60,Coveyrand-Vieu,7.154,45.652
72,Macchie,12.073,43.06
72,Montecalvo,11.378,44.432
72,Arpino,13.612,41.648
60,Montemassi,11.063,42.992
72,Lupara,14.734,41.762
103,Zavattarello,9.266,44.867
103,Pignone,9.725,44.178
103,Locri,16.264,38.237
123,Cottanello,12.687,42.408
176,Borello,12.179,44.053
103,Albano di Lucania,16.036,40.584
72,Santa Domenica Vittoria,14.963,37.915
176,Valdagno,11.304,45.648
176,Carini,13.182,38.156
123,Decollatura,16.353,39.05
72,Castelletto,10.235,45.33
60,Torretta,13.233,38.13
123,Fortogna,12.289,46.232
86,Porto Pozzo,9.269,41.193
211,Mistretta,14.361,37.929
86,Sant'Angelo dei Lombardi,15.18,40.926
86,Ronta,11.432,44.005
60,Albagiara,8.862,39.786
86,Calci,10.518,43.73
86,Tizzano Val Parma,10.199,44.521
147,Goro,12.3,44.855
86,San Bartolomeo in Bosco,11.636,44.729
123,Rossi,8.059,44
103,Adelfia,16.872,41.001
60,Teti,9.119,40.096
60,Montorgiali,11.298,42.738
103,Alfano,15.425,40.177
72,Buccino,15.381,40.634
147,Brisighella,11.77,44.221
60,Valle Senzana,13.615,42.875
60,Calzolaro,12.222,43.346
60,Piazzola,14.511,40.872
86,Pioraco,12.986,43.179
72,Villa Poma,11.114,45.002
60,Motta Visconti,8.995,45.289
86,Robecco sul Naviglio,8.887,45.437
123,Lariano,12.833,41.721
72,Zeme,8.669,45.198
72,Stroppo,7.126,44.51
103,Taverna Ravindola,14.128,41.521
60,Piazza,10.021,45.835
147,Barcellona Pozzo di Gotto,15.211,38.147
86,San Sebastiano Curone,9.065,44.787
147,Dimaro,10.871,46.326
86,Casaloldo,10.475,45.255
60,Salino,13.114,46.504
72,Sant'Albano Stura,7.724,44.508
72,Mandanici,15.317,38.004
147,Capizzi,14.478,37.848
147,Scopello,8.093,45.773
103,Castellina in Chianti,11.279,43.472
72,Poggio,10.353,44.148
123,Villanova Mondovi,7.767,44.348
72,Acerenza,15.936,40.794
60,Orciatico,10.726,43.435
60,Signa,11.099,43.792
60,Buonalbergo,14.978,41.221
303,Montefiascone,12.033,42.542
86,Collebrincioni,13.415,42.399
147,Oleggio,8.643,45.601
72,Gorfigliano,10.25,44.145
103,Valmadonna,8.61,44.976
60,Vagliagli,11.348,43.421
147,Castelfranco Emilia,11.051,44.596
72,Castelletto Merli,8.231,45.079
303,Molinella,11.671,44.618
123,Verbicaro,15.91,39.759
103,Perino,9.503,44.819
86,Montepulciano,11.787,43.102
86,Vita,12.823,37.872
86,Asuni,8.946,39.872
103,Gossolengo,9.619,45.003
103,Valli,12.191,45.223
147,Ovaro,12.867,46.486
72,Portopalo di Capo Passero,15.135,36.683
86,Settime,8.114,44.962
60,Albacina-Borgo Tufico,13,43.342
60,Ponte d'Arbia,11.464,43.167
72,Galatro,16.106,38.461
72,Brozolo,8.064,45.121
86,Vivaro,12.776,46.077
211,Figline Valdarno,11.47,43.62
123,Pattada,9.111,40.581
435,Benevento,14.776,41.125
72,Mattarello,11.129,46.008
86,Talla,11.788,43.602
123,Orsara di Puglia,15.267,41.282
626,Lucca,10.501,43.86
211,Bivio Santa Cecilia,15,40.523
60,Cortemaggiore,9.931,44.994
60,Borghetto,12.455,42.345
123,Ardesio,9.931,45.938
60,San Martino di Lupari,11.859,45.655
60,Valcanover,11.228,46.028
147,Cannobio,8.696,46.064
60,Cabernardi,12.864,43.506
86,Ca' Emo,11.97,45.085
86,Campotosto,13.368,42.559
176,Castel Volturno,13.941,41.035
522,Macomer,8.766,40.262
72,San Chirico Raparo,16.076,40.191
147,San Felice,11.131,46.493
86,Pettineo,14.292,37.967
86,Apecchio,12.419,43.558
72,Casorzo,8.341,45.022
86,Quartu Sant'Elena,9.239,39.229
522,San Severo,15.377,41.686
176,Livorno Ferraris,8.075,45.284
86,Lizzano,17.447,40.391
103,Colle Isarco,11.443,46.937
103,Termine,13.209,42.444
103,Ranchio,12.081,43.97
176,Perfugas,8.883,40.832
72,Cerqueto,12.318,42.953
72,Alberone,9.518,45.136
103,Castino,8.181,44.618
123,Vinovo,7.634,44.948
86,Bracciano,12.171,42.104
60,Pau,8.802,39.792
86,Mezzolara,11.565,44.59
176,Giugliano in Campania,14.195,40.929
72,Castellucchio,10.649,45.147
86,Lungavilla,9.082,45.041
123,Arona,8.556,45.75
72,Polesella,11.751,44.963
60,Oira,8.317,46.174
60,Morgongiori,8.77,39.745
72,Santa Croce,12.331,46.092
60,Tramonti di Sotto,12.796,46.285
72,Salvatonica,11.451,44.925
86,Consandolo,11.775,44.653
72,Antrogna,8.167,46.001
60,Porto Istana,9.612,40.895
60,Groscavallo,7.256,45.369
60,Sarezzo,10.196,45.661
123,Arce,13.574,41.586
60,Oyace,7.381,45.851
435,Dubino,9.43,46.171
86,Castellammare del Golfo,12.886,38.019
123,Rassina,11.835,43.649
123,Otricoli,12.477,42.421
522,Asti,8.209,44.901
147,Bovolone,11.127,45.256
123,Chiesa in Valmalenco,9.848,46.265
72,Chiesanuova,13.325,43.338
72,Marciano,11.786,43.304
86,Pietrabbondante,14.384,41.747
72,Monte Urano,13.673,43.203
103,Sestri Levante,9.393,44.27
72,Faicchio,14.476,41.278
60,Robegano,12.12,45.543
253,Bozzolo,10.482,45.104
86,Cis,11.002,46.399
86,Valvori,13.889,41.564
60,Gradella,9.532,45.425
60,Vighizzolo,10.364,45.432
60,Guardialfiera,14.792,41.805
86,Poviglio,10.54,44.844
901,Resia,10.518,46.83
86,Pianello,12.554,43.513
253,Monterotondo,12.625,42.057
123,Sesta Godano,9.674,44.291
72,Isnello,14.007,37.944
147,Fiesso Umbertiano,11.604,44.961
103,Futani,15.324,40.152
123,Rosolina,12.243,45.075
60,Scilla,15.719,38.253
60,Poggio Piccolo,11.613,44.438
86,Salbertrand,6.883,45.072
72,Casola Valsenio,11.627,44.225
60,San Pietro d'Olba,8.589,44.487
435,Alcamo,12.962,37.983
72,Pecorara,9.384,44.877
253,Troia,15.313,41.364
60,Borgo San Siro,8.913,45.236
86,Vigonzone,9.308,45.273
72,Castelnuovo,13.695,42.729
86,Canonica,12.406,44.058
123,Borore,8.804,40.217
123,Usseaux,7.026,45.049
60,Montebelluna,12.053,45.779
522,Lanciano,14.388,42.217
60,Barbeano,12.871,46.085
147,Forenza,15.857,40.859
72,Trecasali,10.275,44.938
72,Monzone,10.128,44.165
211,Livigno,10.135,46.535
211,Cles,11.034,46.365
60,Zocca,10.991,44.347
147,Cesenatico,12.402,44.198
86,Giuliano,15.772,40.683
253,Malfa,14.837,38.578
123,Felitto,15.25,40.371
253,Voghera,9.001,44.991
211,Longare,11.611,45.473
123,Viddalba,8.897,40.917
86,Crodo,8.323,46.219
72,Diano Marina,8.08,43.912
103,Collodi,10.662,43.892
60,Solicchiata,15.066,37.865
72,Mascioni,13.348,42.528
147,Rivarolo Canavese,7.717,45.331
72,Monte Petrosu,9.657,40.842
86,Farra di Soligo,12.114,45.903
103,Masella,15.755,37.966
303,Breo,7.817,44.395
72,Sandrigo,11.596,45.661
176,Ottone,9.333,44.624
60,Castelluccio,14.465,42.133
86,Roveleto,9.852,44.963
86,Siusi,11.561,46.545
86,Lido di Ostia,12.274,41.737
60,Alpo,10.923,45.373
60,Ponte Pattoli,12.43,43.175
103,Caramanico Terme,14.008,42.16
72,Massascusa,15.276,40.2
72,Castelnuovo Belbo,8.41,44.802
103,Ghiare,9.928,44.552
211,Montresta,8.5,40.374
363,Grado,13.387,45.675
60,Monte San Martino,13.44,43.032
103,Gesuiti,16.135,39.359
123,Grassina Ponte a Ema,11.294,43.725
253,Ariano Irpino-Martiri,15.092,41.154
72,Rina,11.879,46.715
522,Comacchio,12.181,44.696
72,Aquilonia,15.475,40.987
123,Gaifana-Colle,12.79,43.168
72,Riomaggiore,9.74,44.1
60,Lanzara,14.678,40.775
60,Bornato,10.042,45.594
72,Montemurro,15.992,40.297
86,Apiro,13.132,43.39
147,Revello,7.391,44.655
176,Molfetta,16.597,41.201
176,Trino,8.296,45.192
123,Roncade,12.375,45.624
60,Cortoghiana,8.462,39.212
60,Luzzi,16.287,39.448
72,Maissana,9.534,44.338
72,Baja Sardinia,9.479,41.138
60,Castelvecchio Subequo,13.729,42.129
103,Campanella-Gianforma,14.835,36.927
72,Lerma,8.708,44.633
253,Meiern,10.783,46.564
86,Runzi,11.506,44.988
123,Cutigliano,10.755,44.102
176,Fondo,11.138,46.438
147,Apricena,15.444,41.787
72,Frasso Telesino,14.527,41.157
103,Casale di Pari,11.291,43.053
60,Vigo Rendena,10.721,46.08
60,Traversetolo,10.378,44.642
86,Cittadella del Capo,15.877,39.557
72,Feletto,7.745,45.304
103,Tavernelle,12.884,43.732
72,Supino,13.232,41.615
60,San Bassano,9.809,45.244
123,Apice,14.93,41.12
211,Caltavuturo,13.893,37.82
72,Norma,12.972,41.588
72,Ramponio Verna,9.066,45.993
60,Pancarana,9.051,45.075
253,Conegliano,12.295,45.877
103,Calimera,18.278,40.251
103,Crevoladossola,8.299,46.15
72,Pievescola,11.131,43.311
86,Simala,8.827,39.721
72,Santa Lucia di Piave,12.292,45.846
103,Altomonte,16.139,39.695
103,Torre Orsaia,15.476,40.133
60,Ateleta,14.199,41.855
60,Gorra,7.696,44.929
86,Isca,15.584,40.538
72,Foria,15.324,40.094
303,Tertenia,9.577,39.697
103,Stazione di Allerona,12.037,42.784
60,Hone,7.738,45.614
72,Montagano,14.675,41.645
176,Finale Emilia,11.292,44.833
72,La Strada,11.7,44.183
86,Novi di Modena,10.902,44.891
60,San Giorgio,15.799,40.771
123,Zafferana Etnea,15.108,37.682
72,Mattarana,9.619,44.247
147,Catenanuova,14.692,37.57
147,Cervia,12.35,44.261
253,Gubbio,12.579,43.353
60,Oca,11.141,44.411
253,Fidenza,10.067,44.863
147,Siculiana,13.424,37.335
103,Valle Castellana,13.497,42.736
60,Mantana,11.861,46.771
176,Racconigi,7.674,44.767
253,Pitigliano,11.674,42.635
103,Racalmuto,13.735,37.407
60,Somaglia,9.633,45.149
86,Casella,9.002,44.532
103,Nocera Scalo,16.121,39.014
147,Montemonaco,13.33,42.899
303,Francavilla Fontana,17.584,40.533
123,Casalbuono,15.686,40.215
86,Pozza di Fassa,11.69,46.431
435,Pinerolo,7.333,44.884
303,Mondragone,13.889,41.113
60,Montenerodomo,14.252,41.975
60,Eia,10.265,44.834
86,Castellana,17.167,40.886
86,Ponte Buggianese,10.748,43.848
72,Limiti di Greccio,12.768,42.454
86,San Fratello,14.598,38.017
72,Esperia,13.688,41.383
103,San Genesio,11.924,46.658
103,Santo Stefano di Magra,9.917,44.156
103,Rocchetta Tanaro,8.346,44.857
147,Mormanno,15.994,39.896
147,Barcis,12.561,46.191
60,Belricetto,11.911,44.506
72,Uria,16.726,38.914
72,Monreale,13.292,38.08
72,Maruggio,17.573,40.322
86,Sante Marie,13.203,42.103
123,Cavo,10.42,42.859
103,Oliveto Citra,15.23,40.686
123,Acquaviva delle Fonti,16.843,40.898
60,Gravellona Toce,8.431,45.93
60,Medesano,10.139,44.757
86,Castellino Tanaro,7.977,44.428
147,Vallelunga Pratameno,13.832,37.682
86,Rudalza,9.533,41.001
60,Collio,10.336,45.811
72,Mezzoldo,9.665,46.012
86,Orsago,12.423,45.929
123,Brusago,11.326,46.182
103,Valenzani,8.3,44.919
123,Villadoro,14.262,37.693
363,Brunico,11.929,46.795
60,Foce Varano,15.8,41.919
176,Laives,11.335,46.423
86,Pievepelago,10.616,44.205
72,Maniace,14.816,37.862
103,Santa Croce di Magliano,14.989,41.71
211,Ittiri,8.567,40.593
60,Triuggio,9.27,45.663
103,Arborio,8.387,45.495
176,San Giovanni Rotondo,15.72,41.705
60,Enas,9.452,40.843
86,Sperlonga,13.433,41.26
103,Riva del Garda,10.846,45.897
72,Bene Vagienna,7.828,44.543
103,Valfenera,7.962,44.899
72,Rassa,8.011,45.769
86,Gallignano,9.836,45.438
86,Putifigari,8.46,40.562
60,Stignano,16.471,38.416
86,Le Forna,12.972,40.926
60,Castelfidardo,13.539,43.46
72,Spino d'Adda,9.494,45.399
147,Strongoli,17.054,39.266
72,Boccasette,12.424,44.999
60,Guidizzolo,10.582,45.322
211,Quercianella,10.368,43.459
303,Brancaleone-Marina,16.097,37.962
123,Bella Farnia,12.976,41.366
123,Colonna,12.752,41.833
72,Pianella,11.415,43.354
522,Bibbiena,11.814,43.696
86,Sefro,12.948,43.147
60,Fasani,13.874,41.234
86,Arzana,9.528,39.919
86,Casali del Manco,16.332,39.283
123,Frabosa Soprana,7.806,44.289
60,Villasmundo,15.09,37.252
86,Bolgheri,10.619,43.234
363,Fermo,13.73,43.166
176,Orani,9.18,40.25
103,Dualchi,8.897,40.229
123,Carovilli,14.295,41.713
60,San Mauro a Mare,12.445,44.163
176,Bitti,9.386,40.48
86,Gallese,12.395,42.375
123,Fossombrone,12.812,43.691
72,Palinuro,15.288,40.038
60,Pietrapertosa,16.063,40.518
176,Golfo Aranci,9.614,41.006
123,Castelvetrano,12.791,37.683
60,Tor Tre Ponti,12.945,41.507
253,Abbadia San Salvatore,11.676,42.878
86,Goriano Valli,13.667,42.18
86,Gottolengo,10.268,45.293
522,Sinalunga,11.748,43.215
86,Savelli,16.777,39.313
86,Pietralunga,12.435,43.441
103,Brenna,11.233,43.203
72,Mamoiada,9.281,40.216
123,Villa d'Agri,15.826,40.356
60,Ispra,8.621,45.82
147,Novalesa,7.015,45.192
86,Caprese Michelangelo,11.985,43.639
72,San Giovanni-Patoni,13.276,41.77
176,Taurianova,16.011,38.357
72,Scheggia,12.667,43.404
123,Salsomaggiore Terme,9.98,44.815
72,Pontedassio,8.015,43.938
60,Nibbiano,9.329,44.906
103,Villamassargia,8.641,39.274
60,Faggiano,17.387,40.42
60,Siano,16.601,38.916
72,Fossona,11.693,45.403
60,Soriano Calabro,16.222,38.602
123,Acquacalda,14.944,38.519
901,Pavia,9.16,45.184
72,Ospitale di Cadore,12.322,46.327
147,Scicli,14.702,36.79
72,Pontelandolfo,14.689,41.294
60,Curon Venosta,10.543,46.808
253,Codroipo,12.985,45.957
147,Marsaglia,9.382,44.713
72,Cotignola,11.939,44.387
103,Palazzo San Gervasio,15.983,40.931
60,Bisenti,13.8,42.529
176,Colosimi,16.399,39.12
253,Randazzo,14.951,37.877
147,Lode,9.539,40.591
123,Citta della Pieve,12.005,42.956
435,Villaggio San Domino,15.49,42.116
253,Paularo,13.118,46.528
363,Sciacca,13.076,37.509
60,Case Peschiera-Lu Fraili,9.66,40.82
147,Celano,13.544,42.083
103,Agira,14.52,37.656
103,Aurelia,11.785,42.137
176,Escalaplano,9.354,39.625
253,Stradella,9.299,45.078
60,Rimasco,8.061,45.859
86,Jelsi,14.799,41.518
103,None,7.539,44.933
72,Pratolino,11.297,43.861
253,Vieste,16.176,41.883
86,Garbagnate Milanese,9.073,45.576
103,Curinga,16.311,38.827
72,Marina di Ragusa,14.558,36.785
123,Assemini,9.006,39.286
1081,San Benedetto del Tronto,13.881,42.934
103,Vernole,18.303,40.289
147,Mercatale,12.138,43.256
211,Mazzarino,14.21,37.302
60,Catabbio,11.568,42.702
72,Il Castagno d'Andrea,11.659,43.897
103,Pretare,13.302,42.798
72,Destro,16.695,39.491
103,Sestino,12.298,43.709
72,Lido di Noto,15.117,36.86
123,Arta Terme,13.019,46.48
72,Serravalle di Carda,12.497,43.542
60,Grions,12.97,46.036
147,Marineo,13.414,37.953
103,Civago,10.477,44.254
86,Atzara,9.077,39.993
86,Gressoney-Saint-Jean,7.827,45.775
72,Gorzegno,8.135,44.512
60,San Vito,9.541,39.444
123,Marina di Grosseto,10.981,42.72
147,Luogosanto,9.205,41.046
60,Cerreto Alpi,10.252,44.322
60,Vescovado,11.391,43.169
60,Fognano,11.037,43.952
103,Bagnore,11.569,42.846
72,Morfasso,9.703,44.723
86,San Lorenzo in Banale,10.909,46.076
72,Piazza Brembana,9.675,45.947
103,Fontanellato,10.172,44.881
123,San Giovanni Lupatoto,11.05,45.38
72,Paganica-Tempera,13.472,42.36
86,Cicagna,9.237,44.408
60,Balze,12.093,43.778
147,Pistoia,10.915,43.921
103,Piano,8.164,44.317
103,Perrero,7.113,44.939
123,Maglie,18.299,40.117
60,Barco,9.899,45.379
72,Bagnolo Mella,10.182,45.429
123,Rovegno,9.278,44.578
435,San Vincenzo,10.541,43.093
72,Pietrelcina,14.844,41.2
86,Soragna,10.123,44.929
253,Imperia,8.013,43.88
60,Valle,10.429,46.069
176,Niscemi,14.395,37.147
72,Porto Ercole,11.203,42.401
72,Visano,10.369,45.317
86,Forino,14.736,40.862
72,Barolo,7.943,44.611
86,Ittireddu,8.901,40.544
103,Castiglion Fibocchi,11.762,43.528
86,Arqua Polesine,11.739,45.01
176,Busachi,8.897,40.033
123,Canosa di Puglia,16.066,41.22
103,Pizzano,11.41,44.353
86,Avolasca,8.964,44.804
86,Arluno,8.947,45.506
176,Ferrandina,16.456,40.501
103,Crone,10.479,45.739
86,Aglientu,9.113,41.08
86,Alatri,13.342,41.727
103,Rivalta,10.893,45.657
86,Foiano di Val Fortore,14.976,41.351
72,San Mauro Castelverde,14.19,37.915
103,Mercato San Severino,14.762,40.788
103,Sala,12.383,44.159
86,San Martino in Strada,9.526,45.276
72,Scalera,15.719,40.86
86,Avigliano Umbro,12.428,42.655
147,Capoterra,8.972,39.176
211,Cortina d'Ampezzo,12.136,46.536
86,Dervio,9.304,46.076
60,Fornace,13.144,43.56
103,Cumiana,7.377,44.979
86,Solarolo,11.845,44.36
123,Orotelli,9.112,40.304
72,Quadrelli,9.54,44.849
176,Castelluccio Inferiore,15.986,40.001
123,Palanzano,10.195,44.437
363,Schio,11.357,45.714
103,Petacciato,14.862,42.011
86,Sant'Antonio,10.836,44.367
60,Piano dell'Acqua,14.659,37.082
147,Sambuca Pistoiese,10.99,44.105
176,Campana,16.824,39.413
60,Cortino,13.508,42.622
103,Aversa,14.207,40.973
123,Calcinato,10.418,45.457
60,Varmo,12.989,45.887
211,Cesena,12.244,44.157
72,Nuraminis,9.014,39.443
123,Trevinano,11.87,42.822
303,Cascia,13.018,42.718
303,Gagliano del Capo,18.373,39.845
176,Valgrisenche,7.062,45.628
72,Comiso,14.608,36.95
123,San Giorgio a Liri,13.765,41.407
103,Solarolo,10.55,45.547
60,Refrontolo,12.209,45.923
103,San Pietro,9.383,46.258
103,Rosa,11.762,45.725
72,Alzo,8.379,45.791
60,Cairano,15.371,40.896
86,Stornarella,15.731,41.256
253,Porto Torres,8.4,40.836
147,Preci,13.036,42.88
60,Lozio,10.244,45.99
60,Muina,12.865,46.46
147,Magasa,10.617,45.782
72,Rioveggio,11.198,44.273
60,Rivadolmo,11.645,45.248
60,Crocevie,12.656,38.034
60,Massarosa,10.34,43.868
60,Asproli,12.419,42.739
103,Gimigliano,16.531,38.974
72,Montebruno,9.248,44.526
103,D'Orzio,9.661,45.885
86,Neviano,18.115,40.108
60,Pian dei Pradi,11.238,45.98
103,Chiaramonti,8.822,40.747
253,Paviola,11.813,45.573
86,Bricherasio,7.305,44.823
60,Casalnuovo Monterotaro,15.104,41.62
176,Marina di Andora,8.149,43.955
60,Monsanto I,11.191,43.495
176,Floresta,14.911,37.988
103,Buronzo,8.269,45.481
147,Caltabellotta,13.215,37.575
103,Castelnovo di Sotto,10.568,44.808
103,Toffia,12.754,42.212
72,Candia Canavese,7.883,45.326
147,Thiene,11.48,45.709
60,Portonovo,11.754,44.532
60,Cannero Riviera,8.682,46.023
123,Gaeta,13.562,41.219
72,Suni,8.549,40.281
72,Copersito,15.063,40.315
60,San Marco la Catola,15.006,41.525
60,Fosso Ghiaia,12.256,44.353
60,Monte Forte,8.264,40.737
103,Costa Paradiso,8.957,41.058
751,Rossano Stazione,16.634,39.599
86,Colere,10.083,45.974
60,Stiava,10.317,43.896
211,Menfi,12.968,37.606
253,Marradi,11.611,44.074
147,Peschici,16.016,41.945
60,Stelvio,10.547,46.598
176,Denno,11.049,46.275
123,Erbezzo,11.001,45.64
303,Avezzano,13.427,42.031
103,Capua,14.214,41.106
103,San Bartolomeo in Galdo,15.019,41.423
86,Grammichele,14.632,37.214
72,Asciano,11.568,43.23
60,Chieve,9.616,45.341
86,Gargnano,10.66,45.689
72,Montodine,9.711,45.284
86,Gambatesa,14.915,41.51
72,Pino Torinese,7.777,45.04
86,Villa Verucchio,12.434,44.004
176,San Donato Val di Comino,13.813,41.708
60,Cameri,8.663,45.503
86,Bognanco,8.178,46.123
72,Selino Basso,9.534,45.813
72,San Rocco,10.657,44.874
211,Capo di Ponte,10.348,46.031
86,Venarotta,13.492,42.882
176,Pago Veiano,14.864,41.242
86,Piani,8.257,44.351
60,Oncino,7.189,44.678
103,Fusignano,11.959,44.468
60,Lonigo,11.393,45.385
123,Roccamena,13.155,37.84
522,Viterbo,12.107,42.425
72,Cervignano del Friuli,13.344,45.817
60,Cavatore,8.452,44.632
86,Favale di Malvaro,9.259,44.452
86,San Donaci,17.926,40.45
123,Collepasso,18.162,40.071
176,Milano,9.175,45.473
435,Argentera,6.936,44.397
522,Chioggia,12.278,45.196
86,Santuario,8.442,44.347
103,Orneta,15.113,41.113
103,Berceto,9.99,44.509
60,Cerete Basso,9.996,45.859
86,Fordongianus,8.81,39.994
60,Onano,11.816,42.692
123,Torre Melissa,17.106,39.311
103,Anagni,13.151,41.745
176,Bagnara Calabra,15.804,38.288
86,Capriolo,9.933,45.635
60,Force,13.487,42.961
176,Vizzini,14.749,37.161
103,Ripa Teatina,14.237,42.362
176,Palazzolo Acreide,14.905,37.06
60,Appalto,11.945,43.216
60,Montepaone Lido,16.534,38.721
72,Turi,17.02,40.917
60,Castellina Marittima,10.576,43.412
60,Serle,10.368,45.57
176,Thiesi,8.719,40.523
123,Cinzano,7.926,45.095
72,Genio Civile,12.686,41.544
211,Santhia,8.173,45.367
86,Gualdo,13.343,43.068
103,Stazione di Parlesca e Solfagnano,12.412,43.22
60,San Pietro Apostolo,16.469,39.004
103,Galliate,8.697,45.482
72,San Polo,10.358,44.89
103,Coazzolo,8.146,44.728
86,Uscio,9.161,44.413
86,Rivello,15.756,40.079
147,Fraviano,10.691,46.297
72,Bertinoro,12.134,44.148
60,Liut,12.756,45.82
60,Polinago,10.725,44.344
176,Quincinetto,7.807,45.562
253,Tarvisio,13.593,46.503
303,Balsorano,13.559,41.809
86,Garaguso,16.228,40.548
103,Ripabianca,12.403,42.94
123,Mandello del Lario,9.319,45.919
147,Veglie,17.963,40.335
72,Guardia Lombardi,15.208,40.954
60,I Bertoni,11.999,43.15
103,Villanova Monteleone,8.47,40.504
60,Santa Croce,16.511,39.603
147,Vespolate,8.668,45.351
60,Retorbido,9.036,44.95
211,Tolentino,13.291,43.213
60,Pizzoni,16.249,38.623
123,Montesarchio,14.64,41.065
123,Villanova,9.998,45.026
103,Santa Eufemia Lamezia,16.253,38.92
86,Gallo,12.714,43.786
123,Riccione,12.655,44
103,Siliqua,8.808,39.3
123,Meana Sardo,9.073,39.944
72,Punta Milocca,15.281,37.008
86,Monte Romano,11.894,42.268
103,Vico del Gargano,15.957,41.898
60,Serre di Rapolano,11.614,43.255
211,Fobello,8.155,45.891
176,Candela,15.515,41.138
147,Plati,16.046,38.22
253,Fiuggi,13.22,41.799
60,Trepuzzi,18.075,40.408
60,Mottola,17.035,40.634
72,Santa Lucia Inferiore,14.956,40.581
72,Budrio,11.536,44.538
72,Balzola,8.404,45.184
103,Paduli,14.887,41.167
86,Codrea,11.715,44.817
147,Torre del Greco,14.387,40.785
147,Malcesine,10.811,45.764
147,Roccastrada,11.167,43.01
103,Muccia,13.044,43.081
60,Bovegno,10.273,45.793
86,Avio,10.937,45.734
522,Marsala,12.49,37.821
72,Soci,11.811,43.728
123,Manerbio,10.135,45.355
60,Le Grazie,13.264,43.189
253,Agna,11.961,45.174
147,Verchiano,12.882,42.95
72,Rovere,13.516,42.176
123,Castellammare di Stabia,14.489,40.715
147,Sabaudia,13.028,41.299
123,Predosa,8.655,44.751
72,San Liberato,12.44,42.48
72,San Mauro Forte,16.248,40.487
72,San Severino Lucano,16.139,40.019
363,Matera,16.603,40.668
103,Sasso,12.046,42.056
147,Valle,11.41,45.586
123,Poggiorsini,16.255,40.917
303,Portoferraio,10.314,42.811
86,Corniglio,10.087,44.476
86,Africo Nuovo,16.139,38.052
86,Borghetto,10.928,45.698
60,Agrano,8.417,45.843
72,Malnate,8.878,45.79
72,Armungia,9.382,39.522
60,Valli del Pasubio,11.262,45.74
60,Excenex,7.299,45.761
60,Civitaquana,13.901,42.325
60,Comabbio,8.679,45.771
60,Badia,11.893,46.611
60,Bersagliera,11.097,44.441
363,Portogruaro,12.839,45.777
626,Fabriano,12.903,43.341
363,Cento,11.288,44.726
123,Fighille,12.107,43.519
86,Avigliana,7.398,45.077
60,Lazise,10.734,45.507
86,Solto Collina,10.026,45.783
60,Fanzolo,11.984,45.709
60,Lido di Savio,12.342,44.31
72,Vergemoli,10.382,44.052
72,Sindacale,12.878,45.705
86,Torretta,11.302,45.095
72,Forlimpopoli,12.126,44.19
626,Vibo Valentia,16.095,38.673
86,Santa Teresa,14.159,42.432
72,Chiaromonte,16.218,40.124
72,Padelli,16.195,39.643
147,Orentano,10.66,43.778
60,Monastir,9.043,39.385
86,Limina,15.272,37.942
103,Nebida,8.438,39.313
60,Uras,8.702,39.696
86,Alberoni,12.321,45.349
72,Solagna,11.716,45.82
72,San Gregorio d'Ippona,16.102,38.645
86,Alpignano,7.529,45.102
123,Francavilla Marittima,16.398,39.815
103,Mirabello,11.46,44.824
86,Valvasone,12.867,45.993
86,Caloveto,16.76,39.505
72,Rena Majore,9.183,41.163
60,Costanzana,8.368,45.238
103,Gallicchio,16.139,40.289
123,Villa Opicina,13.786,45.688
72,Vacile,12.891,46.139
147,Paganico,11.271,42.934
303,Vasto,14.708,42.125
60,Montepastore,11.121,44.367
103,Fundres,11.705,46.892
72,Isca Marina,16.555,38.603
60,Trenzano,10.011,45.478
60,Ferriolo,16.249,38.832
72,Capaci,13.243,38.178
147,Casalmaggiore,10.419,44.994
86,Sassetta,10.643,43.129
72,Presenzano,14.097,41.376
626,Ghedi,10.279,45.401
60,Panzano in Chianti,11.314,43.545
363,Poggibonsi,11.146,43.472
86,Luzzogno,8.344,45.915
123,Marsiliana,11.342,42.537
103,Ronciglione,12.214,42.291
72,Zanengo,9.852,45.216
211,Follonica,10.765,42.93
103,Puntone,10.793,42.89
103,Pezzolo Valle Uzzone,8.192,44.54
60,Comano,10.13,44.293
103,San Marino,11.692,45.897
211,Monterotondo Marittimo,10.856,43.146
253,Seui,9.323,39.839
86,Bellante,13.808,42.742
60,Bagno di Romagna,11.96,43.835
86,Rignano Garganico,15.589,41.679
60,Buddittogliu Straulas,9.645,40.75
72,Castiglione della Pescaia,10.88,42.765
86,Piedicavallo,7.955,45.69
60,Torsa,13.119,45.876
60,Rigali,12.787,43.207
123,Trasacco,13.535,41.957
103,Metaponto,16.811,40.371
86,Grotte Santo Stefano,12.174,42.515
211,Sant'Anna,8.649,39.812
147,Noci,17.134,40.791
86,Cireglio,10.852,43.995
103,Carate Urio,9.122,45.872
211,Garlasco,8.922,45.197
147,San Prospero,11.023,44.789
86,Priero,8.094,44.376
60,Celle Enomondo,8.125,44.857
147,San Gavino Monreale,8.791,39.551
123,Grottammare,13.867,42.989
60,Pastena,13.491,41.469
72,Osigo,9.3,45.877
72,Granarolo,11.936,44.361
147,Villaurbana,8.778,39.886
60,Basico,15.064,38.062
60,Rueglio,7.755,45.469
103,Andrano,18.383,39.983
60,Castagne,11.106,45.492
86,Alia,13.715,37.779
86,Forano,12.596,42.297
60,Besenello,11.111,45.939
72,Legoli,10.796,43.571
123,Stagno,10.351,43.592
1556,Ponza,12.965,40.894
103,Marconia,16.691,40.366
86,Siurgus Donigala,9.185,39.597
103,Pizzolungo,12.565,38.062
86,Rigolato,12.852,46.553
72,Albiano d'Ivrea,7.951,45.433
60,Favara,13.661,37.317
86,Casamaina,13.392,42.258
176,Scauri,11.986,36.761
103,Gonnosfanadiga,8.662,39.496
123,Ara Nova,12.242,41.927
103,Porto Cesareo,17.898,40.263
72,Caggiano,15.495,40.567
72,Sant'Oreste,12.515,42.232
72,San Mauro Torinese,7.755,45.105
86,Rotondella,16.526,40.171
72,Aggius,9.066,40.93
72,Calciano,16.192,40.588
72,Cetona,11.901,42.967
103,Floridia,15.154,37.087
72,Moschiano,14.655,40.873
123,Borgosesia,8.277,45.716
103,Villa Minozzo,10.467,44.365
72,Balzo,13.332,42.841
303,Acilia-Castel Fusano-Ostia Antica,12.348,41.769
123,Casarano,18.164,40.015
60,Teor,13.055,45.856
103,San Michele di Ganzaria,14.429,37.281
147,Scoglitti,14.433,36.892
60,Airuno,9.428,45.754
103,Villa d'Alme,9.618,45.746
123,Grottazzolina,13.605,43.118
60,Raiano,13.814,42.102
60,Bevilacqua,11.255,44.766
60,Merana,8.297,44.517
1081,Catanzaro,16.599,38.89
211,Rignano Flaminio,12.48,42.206
103,Pieve,11.911,45.868
253,Bardi,9.729,44.63
86,Cavasso Nuovo,12.773,46.197
86,Fratte,12.531,43.893
303,Bovalino,16.178,38.158
60,Chiusure,11.559,43.176
60,Scai,13.231,42.598
123,Vescovato,10.164,45.175
86,Gesturi,9.021,39.734
60,Mugnano,12.221,43.056
60,Mardimago,11.836,45.106
103,Madonna,10.858,46.724
253,Pontedera,10.634,43.664
86,Corleto Perticara,16.041,40.383
176,Dogliani,7.948,44.531
86,San Pietro Specchiarica,17.674,40.311
176,Palmi,15.849,38.36
60,Marotta,13.107,43.788
103,Domusnovas,8.653,39.321
435,Porto Viro,12.22,45.029
60,Cercemaggiore,14.723,41.461
211,Moncalvo,8.264,45.05
147,Sant'Andrea Frius,9.169,39.479
147,Sannazzaro de' Burgondi,8.905,45.102
72,Marcetelli,13.047,42.227
253,Aprilia,12.655,41.575
72,Virle Piemonte,7.57,44.864
303,Carpi,10.885,44.782
60,Malmantile,11.068,43.746
176,Vicari,13.571,37.824
211,Vergnasco,8.085,45.487
303,Santa Sofia,11.908,43.945
86,Propata,9.184,44.566
60,Bellamonte,11.668,46.311
72,Pozza-San Marco,13.285,42.396
176,Butera,14.184,37.191
72,Castel Bolognese,11.797,44.321
60,Lenta,8.384,45.557
435,Capraia Isola,9.844,43.048
72,Cantalupo,12.584,42.966
72,Oliveto,15.705,38.048
86,Roseto Capo Spulico,16.604,39.987
123,Greci,15.168,41.252
176,Cutro,16.983,39.035
86,Quarantoli,11.098,44.92
72,Laion,11.566,46.609
147,Tortona,8.865,44.892
176,Viareggio,10.258,43.873
60,Ruffia,7.604,44.706
72,Alzano Lombardo,9.728,45.732
147,Omegna,8.408,45.88
60,Contrada Pantano,15.773,38.081
72,Batignano,11.165,42.867
86,Carapelle,15.693,41.364
86,Micigliano,13.053,42.451
60,San Rocco,12.219,42.328
123,Cossato,8.182,45.574
176,Mango,8.151,44.686
435,Stromboli,15.238,38.804
123,Loazzolo,8.257,44.67
123,Fluminimaggiore,8.497,39.44
176,Forno,10.185,44.088
176,Canale,7.992,44.794
103,Nocera Inferiore,14.64,40.751
211,Leonforte,14.397,37.642
86,Pozzo San Nicola,8.244,40.837
72,Gorino,12.348,44.823
60,Leni,14.826,38.554
86,Nizzeti,15.138,37.566
103,Monte Sant'Angelo,15.959,41.707
123,Badalucco,7.847,43.917
147,Carpignano Sesia,8.419,45.534
72,Civitella Marittima,11.282,42.996
86,Foggiano,15.574,40.958
253,Desulo,9.226,40.01
72,Bulgarno,12.335,44.133
211,Raffadali,13.533,37.404
253,Nogara,11.068,45.173
72,Ponticelli,11.653,44.321
60,Margherita di Savoia,16.146,41.377
86,Montalcino,11.49,43.053
147,Latronico,16.008,40.089
72,Alvito,13.747,41.69
72,Anchiano,10.532,43.969
60,San Salvatore,15.861,41.679
522,Brennero,11.504,47.001
1081,Grosseto,11.107,42.771
103,Scheggino,12.831,42.713
60,San Giacomo-Marinella,16.821,39.576
176,Villafranca in Lunigiana,9.95,44.295
86,Ugento,18.158,39.926
60,Rutigliano,17.005,41.007
123,Marotta,13.149,43.762
72,Villagrande Strisaili,9.508,39.96
86,Borgo Liberta,15.713,41.186
103,Padola,12.481,46.602
103,Salussola,8.112,45.447
147,Borgo San Dalmazzo,7.485,44.333
176,Naro,13.791,37.297
522,Arezzo,11.866,43.472
103,Castelnuovo Don Bosco,7.964,45.04
72,Craco,16.438,40.379
60,Pisignano,12.269,44.239
72,Ora,11.295,46.345
86,Giano,12.577,42.834
60,Gaibana,11.656,44.754
86,Camponogara,12.084,45.382
72,Gradoli,11.856,42.645
86,Lingua,14.868,38.539
60,Capitello,11.142,45.217
72,Fiume Lao,15.799,39.783
123,San Lucido,16.051,39.311
147,Montese,10.942,44.269
60,Salza Irpina,14.89,40.919
60,Casale sul Sile,12.324,45.599
60,Guardea,12.301,42.623
60,Roverato,12.076,45.57
626,Ponte,8.426,46.377
1556,Genova,8.904,44.421
363,Marettimo,12.074,37.968
60,San Martino,9.628,46.241
123,Santa Margherita di Belice,13.019,37.692
60,Albettone,11.581,45.357
103,Monticiano,11.175,43.141
176,Cefalu,14.02,38.033
303,Colletorto,14.966,41.661
60,Trofarello,7.746,44.984
123,Dogna,13.314,46.449
86,Lido Azzurro,17.137,40.518
123,Roccagorga,13.153,41.525
176,Accumoli,13.248,42.694
86,Tecchiena,13.35,41.69
86,Petrona,16.756,39.044
103,Rapallo,9.226,44.353
72,Tiana,9.147,40.068
72,Pretta,9.584,44.952
72,Torre San Giovanni,18.11,39.896
86,Cuvio,8.734,45.897
60,Muffa,11.109,44.508
123,Montesilvano Marina,14.152,42.517
86,Cavriago,10.524,44.696
103,Allai,8.863,39.957
60,Redondesco,10.512,45.168
103,Ruina,11.741,44.912
86,Pertegada,13.045,45.722
72,San Pellegrino,13.148,42.757
147,Francofonte,14.882,37.228
363,Dorgali,9.588,40.293
60,Rocca di Botte,13.073,42.032
86,Sant'Arsenio,15.485,40.473
176,Fabrizia,16.301,38.486
86,Indiprete,14.339,41.546
103,Vinadio,7.175,44.308
60,Flaibano,12.983,46.059
72,Pioppe,11.166,44.313
86,Ordona,15.627,41.316
123,Monti,9.326,40.806
86,Acquafredda,15.672,40.036
123,San Ginesio,13.32,43.107
103,Tricarico,16.146,40.62
435,Avola,15.138,36.909
123,Colorno,10.378,44.928
103,Meleti,9.835,45.121
103,Mensano,11.055,43.301
626,Portocivitanova,13.721,43.307
86,Torre del Lago Puccini,10.288,43.829
60,San Pancrazio,11.086,46.587
123,Murci,11.411,42.733
60,Terravecchia,16.943,39.468
253,Osimo,13.484,43.483
103,Vodo,12.245,46.42
72,Reino,14.823,41.293
60,Talponada,12.491,45.705
86,Silius,9.293,39.517
103,Sellano,12.921,42.887
72,Montemitro,14.646,41.889
103,Prevalle,10.422,45.553
72,La Torre,12.704,43.742
72,Santa Caterina,8.49,40.109
103,Ugovizza,13.473,46.511
103,San Vito dei Normanni,17.709,40.658
176,Rosia,11.223,43.247
253,Teulada,8.77,38.967
147,Fagnano Castello,16.053,39.563
103,Centallo,7.588,44.499
211,Marina,15.161,40.15
103,Cameriano,8.538,45.397
435,Cirie,7.599,45.235
72,Arlena di Castro,11.821,42.463
123,Pieve del Cairo,8.804,45.047
435,Spoleto,12.714,42.748
60,San Biagio,11.868,44.586
303,Pergola,12.836,43.558
60,Villalba,13.846,37.655
211,Pieve Vergonte,8.268,46.007
103,Capri,14.243,40.55
72,Bibiana,7.287,44.795
86,Pogno,8.385,45.755
72,Santo Todaro,16.374,38.443
86,Volpedo,8.985,44.89
103,Marina di Sant'Ilario dello Ionio,16.228,38.199
72,Rofrano,15.429,40.213
253,Sansepolcro,12.141,43.575
176,Vittoria,14.53,36.952
363,Acri,16.385,39.494
253,Baunei,9.664,40.032
303,Vercelli,8.415,45.323
86,Gavi,8.806,44.688
123,Tursi,16.471,40.248
123,Marcellina,12.807,42.022
123,Velletri,12.778,41.67
60,Portile,10.939,44.58
147,Savigliano,7.657,44.65
60,Contessa Entellina,13.184,37.731
72,Bottrighe,12.087,45.026
60,Villa Badessa,14.038,42.353
147,Neri,11.461,43.534
72,Ortezzano,13.606,43.03
60,Misserio,15.314,37.979
123,Telti,9.352,40.876
72,Casale Marittimo,10.615,43.296
72,Villafranca di Verona,10.846,45.351
1081,Ancona,13.506,43.588
103,Molara,12.731,41.787
123,Carraia,11.183,43.896
211,Nova Siri Scalo,16.636,40.132
86,San Godenzo,11.618,43.926
103,Salve,18.295,39.862
211,Campodolcino,9.353,46.402
60,Roncaglia,8.448,45.051
60,Piandelagotti,10.517,44.227
72,Costigliole Saluzzo,7.485,44.565
86,Campobello di Mazara,12.744,37.635
72,Illorai,9.001,40.355
86,Scalo di Baragiano,15.573,40.693
103,Occhiobello,11.581,44.92
72,Monterosso Stazione,12.82,43.46
176,Rivanazzano,9.014,44.926
103,San Demetrio Corone,16.36,39.57
60,Barile,15.673,40.947
86,Santa Maria di Licodia,14.89,37.618
303,Senigallia,13.218,43.71
60,Cerchio,13.601,42.063
147,Torre di Mosto,12.701,45.685
72,Valgreghentino,9.413,45.779
86,Rumanedda,8.359,40.687
60,Joppolo,15.894,38.58
123,Canelli,8.292,44.721
123,Ripalimosani,14.664,41.611
86,Cimina,16.142,38.247
86,Corinaldo,13.048,43.65
60,Scortichino,11.326,44.879
86,Grignasco,8.343,45.68
211,Langhirano,10.267,44.614
303,Foligno,12.704,42.959
86,Rosate,9.017,45.349
103,Minerbe,11.357,45.235
123,Solofra,14.837,40.83
86,Tuenno,11.024,46.33
211,Trebisacce,16.531,39.871
72,San Leonardo in Passiria,11.246,46.813
103,Grumo Appula,16.709,41.012
86,Pereta,11.323,42.645
72,Licusati,15.365,40.052
60,Ottati,15.315,40.463
211,Enna,14.284,37.56
363,Ciro Marina,17.126,39.373
60,Casalborgone,7.942,45.131
176,Filiano,15.71,40.811
123,Valmontone,12.92,41.778
103,Riolo Terme,11.729,44.276
86,Morgex,7.038,45.76
522,Civitavecchia,11.801,42.092
253,Punta Ala,10.753,42.805
60,Pero,8.552,44.386
60,Silvi,14.121,42.544
60,Granari,12.68,42.232
60,Laterina,11.712,43.505
176,Poggio Bustone,12.887,42.502
86,Sant'Angelo del Pesco,14.254,41.88
60,Pacentro,13.991,42.05
60,Case Nuove,10.965,43.581
60,Scandale,16.959,39.122
147,Venzone,13.138,46.331
60,Torricella,10.282,44.985
60,Residenza Aurelia,12.316,41.902
72,Motta San Giovanni,15.698,38.002
86,La Caletta,9.748,40.608
103,Bolognola,13.229,42.993
123,Cantoira,7.386,45.339
123,Porto Azzurro,10.399,42.766
60,Morrovalle,13.587,43.317
176,Dazio,9.601,46.161
103,Sozza,9.492,40.728
60,Sinigo,11.176,46.636
60,San Cassiano,11.688,44.147
303,Capo d'Orlando,14.73,38.144
176,Santa Valburga,11.004,46.548
86,La Grancia,13.433,41.862
86,Pizzone,14.037,41.672
123,Piano,12.212,44.977
86,Sant'Alberto,12.153,44.54
1297,Predoi,12.106,47.041
147,Agnone,14.378,41.81
86,Lido Santa Maria in Potenza,13.675,43.408
147,Savigno,11.075,44.392
60,Capolago,8.81,45.794
86,Sassano,15.56,40.337
147,Dicomano,11.523,43.891
86,Sant'Anna Arresi,8.646,39.002
103,Conselice,11.834,44.512
176,Partanna,12.889,37.727
60,Pareto,8.382,44.516
72,Tatti,11.028,43.023
626,Bardonecchia,6.703,45.078
86,Pergusa,14.308,37.524
103,Olevano Romano,13.032,41.86
72,La Villa,11.904,46.586
147,Arrone,12.768,42.584
522,Rovigo,11.793,45.08
211,Prazzo,7.054,44.484
176,Montalbano Jonico,16.569,40.288
60,Sant'Agata di Esaro,15.983,39.623
60,Santa Luce,10.562,43.471
147,Valle Agricola,14.255,41.425
72,Morano Calabro,16.136,39.843
86,Paolo VI,17.276,40.52
72,Valsinni,16.444,40.17
86,Vasanello,12.347,42.414
103,Blera,12.032,42.272
60,Olzai,9.147,40.183
147,Scansano,11.33,42.687
147,Caorle,12.881,45.599
751,L'Aquila,13.396,42.364
60,Maranola-Trivio,13.632,41.283
103,Montegrosso,16.141,41.173
86,La Fiora,13.198,41.335
86,Sant'Anna,12.272,45.16
60,Ronchi dei Legionari,13.504,45.828
72,Chiari,9.924,45.534
60,Irgoli,9.632,40.408
86,Travagliato,10.085,45.519
72,Mogliano,13.474,43.183
72,Mareson-Pecol,12.107,46.392
60,Campo di Giove,14.04,42.01
72,Marina di Casal Velino,15.125,40.179
103,Abbiategrasso,8.919,45.401
103,Deruta,12.415,42.981
303,Vigevano,8.861,45.314
60,San Gimignano,11.043,43.469
123,Tirano,10.165,46.216
211,Cariati,16.96,39.491
522,Crotone,17.125,39.08
363,Quasano,16.575,40.967
86,Ruinas,8.898,39.907
60,Monticelli,13.651,41.41
60,Vaccarizzo,16.133,39.411
86,Soverano,16.252,39.542
435,Manfredonia,15.91,41.625
72,Ghiffa,8.617,45.958
176,Santeramo in Colle,16.755,40.793
60,Ponte  Rizzoli,11.51,44.466
363,Pomarance,10.871,43.298
60,Canaro,11.675,44.933
103,Madonna di Campiglio,10.825,46.225
60,Gravina in Puglia,16.416,40.82
86,Villanova,12.117,44.381
60,Vernasca,9.83,44.8
72,Nuxis,8.74,39.153
86,Pennabilli,12.267,43.818
176,Tuturano,17.949,40.545
123,Campello sul Clitunno,12.769,42.825
72,Decimoputzu,8.915,39.335
123,Pico,13.558,41.45
103,Scerni,14.569,42.103
72,Pomarico,16.547,40.518
86,Senis,8.938,39.822
72,Colle di Fuori,12.181,46.776
123,Panni,15.275,41.222
60,Andalo,11.004,46.165
103,Genola,7.661,44.589
147,Acquapendente,11.865,42.744
1556,Messina,15.55,38.191
86,Ruvo del Monte,15.542,40.849
60,Madonna Ete,13.697,43.137
60,Nomadelfia,11.142,42.844
123,San Giorgio del Sannio,14.852,41.07
60,Costabissara,11.487,45.582
176,Pizzo,16.167,38.736
72,Guardamiglio,9.681,45.108
60,Codacchio II,14.601,41.751
72,Marzolanella,12.642,42.094
60,Castiglione,12.263,44.263
60,Gaiole in Chianti,11.434,43.466
86,Coloretta,9.757,44.343
86,Santa Caterina Villarmosa,14.037,37.591
72,Taverne d'Arbia,11.392,43.294
103,Avigna,11.353,46.564
86,Palagonia,14.744,37.329
86,Palombaro,14.23,42.125
86,Prata,10.986,43.084
86,Montepiano,11.16,44.092
522,Monasterace Marina,16.571,38.435
60,Dugliolo,11.583,44.614
123,Firenzuola,11.38,44.119
103,Canolo Nuova,16.162,38.332
1556,Taranto,17.233,40.473
72,Varna,11.638,46.738
123,Falcone,15.082,38.117
86,Lamporecchio,10.894,43.809
1297,Terni,12.638,42.566
176,Paggese-Santa Maria,13.417,42.778
176,Dolianova,9.178,39.379
60,Cerro Veronese,11.041,45.575
86,Solanas,9.428,39.138
253,Massafra,17.112,40.589
303,Leonessa,12.96,42.566
123,Stresa,8.533,45.883
72,Pompiano,9.989,45.432
86,Capannori,10.571,43.838
72,Camposanto,11.142,44.787
123,Santa Caterina dello Ionio Marina,16.568,38.527
72,Cortona,11.987,43.274
86,Carisio,8.199,45.409
72,Briatico,16.028,38.723
86,Perdasdefogu,9.44,39.682
60,Pian di Gerri,12.732,41.728
72,San Pellegrino Terme,9.665,45.838
123,Vivo d'Orcia,11.641,42.932
176,Ferriere,9.499,44.644
86,Campo Tizzoro,10.859,44.04
123,Piazza al Serchio-San Michele,10.294,44.185
86,Lagosanto,12.143,44.761
72,Ronsecco,8.278,45.252
72,Caraglio,7.435,44.415
72,Portocannone,15.008,41.916
123,Aune,11.822,46.07
123,Borgo San Pietro,13.066,42.272
103,Marsico Nuovo,15.735,40.424
86,Pasiano,12.627,45.847
86,Mezzojuso,13.465,37.865
123,Padula,15.655,40.337
60,Velo,11.566,45.773
103,Lippo,11.302,44.536
86,Tornareccio,14.416,42.038
103,Ciavolo,12.538,37.777
363,Soresina,9.854,45.289
60,Montaguto,15.251,41.248
103,Pila,12.483,44.967
72,Contrada Cardeto Nord,15.8,38.107
123,Le Castella,17.021,38.913
72,Augusta,15.238,37.252
435,Rovereto,11.045,45.886
72,Palagano,10.648,44.322
72,Villamaina,15.088,40.97
72,Monteleone di Spoleto,12.951,42.651
72,Campitello,10.606,45.088
626,Gioia Tauro,15.896,38.431
60,San Felice del Benaco,10.554,45.582
176,Solda,10.593,46.525
60,Militello in Val di Catania,14.793,37.275
123,Regalbuto,14.639,37.653
103,Caselle in Pittari,15.541,40.174
147,Cave del Predil,13.57,46.442
211,Bagnoregio,12.087,42.629
60,Impruneta,11.254,43.682
303,Polla,15.5,40.515
60,Casciana Terme,10.619,43.528
103,Dego,8.309,44.444
103,Grottaglie,17.437,40.54
72,Borgo Sabotino-Foce Verde,12.848,41.414
103,Calvello,15.85,40.475
60,Opi,13.83,41.779
60,Gamalero,8.542,44.809
103,Ussassai,9.395,39.81
72,Custoza,10.796,45.378
72,Muggia,13.768,45.604
60,Geo,8.887,44.476
123,Casciano,11.326,43.162
60,Stio,15.252,40.31
60,Villagrande,12.359,43.841
522,Pachino,15.094,36.716
176,Ploaghe,8.742,40.665
72,Sassa,10.692,43.26
123,San Giuliano Milanese,9.29,45.395
1556,Foggia,15.549,41.461
86,Motina,12.038,43.573
123,Trevignano Romano,12.232,42.161
60,Sant'Angelo in Colle,11.462,42.995
60,Montefalcone nel Sannio,14.639,41.867
72,Quarto,12.087,43.892
123,Storo,10.576,45.85
72,Lomello,8.796,45.121
86,Pont-Canavese,7.596,45.423
147,Sepino,14.618,41.408
1297,Potenza,15.811,40.643
103,Ispica,14.906,36.788
72,Masseria,11.282,46.923
86,Montecerboli,10.88,43.248
72,Sarroch,9.01,39.064
72,Cibiana,12.286,46.388
147,Poggio Renatico,11.486,44.767
86,Arabba,11.876,46.498
363,Pesaro,12.891,43.903
60,Castel d'Aiano,11.003,44.278
103,Atri,13.992,42.577
72,Fiumana,11.986,44.141
86,Marliana,10.77,43.934
72,Terraverde-Corte Palasio,9.563,45.313
60,Vallelunga,14.176,41.493
60,Castelluccio dei Sauri,15.48,41.306
86,Rocca di Capri Leone,14.712,38.106
60,Rossano Veneto,11.805,45.705
86,Silanus,8.891,40.288
303,Pigna,7.657,43.932
72,Ingria,7.57,45.467
211,Buonconvento,11.483,43.133
60,Aquara,15.256,40.444
72,Oria,17.643,40.501
303,Civita Castellana,12.408,42.295
103,Faiano,14.903,40.662
60,Alseno,9.962,44.898
72,Sipicciano,12.229,42.545
72,Pettorano sul Gizio,13.961,41.972
60,Porchiano,12.355,42.55
72,Ponte Filo-Barca,15.556,40.421
253,Rozzano,9.151,45.381
103,Bergantino,11.253,45.062
86,Sarteano,11.861,42.996
60,Nago-Torbole,10.873,45.873
72,Sessano del Molise,14.329,41.64
60,Villafranca-San Martino,12.018,44.293
147,Pellestrina,12.302,45.278
176,Cerda,13.815,37.906
103,Masarolis,13.43,46.173
1081,Udine,13.244,46.066
211,Pescopagano,15.398,40.835
72,Cizzolo,10.666,45.01
176,Bernalda,16.69,40.412
253,Corvaro,13.267,42.202
253,Courmayeur,6.968,45.794
1081,Cassino,13.831,41.493
103,Lido di Spina,12.249,44.65
123,Crucoli,17.002,39.424
103,Giazza,11.123,45.654
176,Calendano,16.411,41.081
435,Ozieri,9.002,40.584
72,Bagnolo San Vito,10.875,45.088
86,Borgo Faiti,12.994,41.467
147,Castel del Rio,11.504,44.214
60,Cureggio,8.459,45.678
211,Giulianova,13.958,42.757
176,San Valentino alla Muta,10.533,46.765
72,Sant'Eufemia a Maiella,14.027,42.126
72,Lison,12.751,45.757
123,Samassi,8.907,39.481
72,Sant'Andrea-Pizzone-Ciamprisco,14.04,41.142
72,Oviglio,8.487,44.861
176,Frassinoro,10.57,44.295
86,Monti,11.425,43.402
147,Fivizzano,10.126,44.238
103,Vitorchiano,12.172,42.465
60,Merone,9.245,45.786
60,Realmonte,13.463,37.309
72,Scopoli,12.809,42.972
103,Castelbelforte,10.894,45.215
86,Mezzanego,9.377,44.384
60,Colli Marini,12.526,41.582
211,Montella,15.018,40.844
72,Riva di Tures,12.066,46.949
147,Borgo San Lorenzo,11.384,43.956
60,Roaschia,7.456,44.27
72,Struda,18.282,40.319
123,Limone Piemonte,7.577,44.201
211,Dueville,11.553,45.635
72,Lama,11.249,43.1
103,Valle Lomellina,8.668,45.153
901,Verona,10.997,45.434
86,Castilenti,13.917,42.534
86,Planol,10.579,46.722
147,Selvone,14.053,41.568
72,Marana,13.223,42.495
60,Sabbadori,11.233,45.51
103,Arcevia,12.944,43.501
60,Platania,16.32,39.005
123,Camigliano,16.852,39.547
176,Melfi,15.651,40.995
123,Venturina,10.603,43.028
72,Casteldelci,12.153,43.792
60,Manoppello,14.06,42.258
72,Villapiana,16.457,39.845
103,Acerno,15.06,40.737
60,Nespolo,13.069,42.157
72,Monterosi,12.308,42.197
72,Minturno,13.735,41.252
60,Sedico,12.092,46.101
86,Carovigno,17.66,40.703
103,Terontola,12.01,43.21
60,Austis,9.09,40.071
626,Siniscola,9.692,40.572
86,Carcoforo,8.048,45.91
147,Caiazzo,14.36,41.181
60,Risano,13.254,45.973
60,Tezze,11.67,45.992
103,Ciano d'Enza,10.41,44.599
86,Bellante Stazione,13.834,42.706
103,Montemurlo,11.037,43.927
60,Corciano,12.288,43.129
72,Rivamonte Agordino,12.024,46.253
60,Acquaviva d'Isernia,14.149,41.672
60,Torretta,17.036,39.453
72,Castelfranco in Miscano,15.084,41.298
176,Santo Stefano di Camastra,14.351,38.013
72,Montegranaro,13.636,43.234
60,Loreo,12.188,45.062
60,Laveno,8.62,45.905
60,Sant'Elena Irpina,14.89,41.038
72,Sassoleone,11.484,44.262
72,Campertogno,8.032,45.799
176,Verzino,16.857,39.313
103,Santa Teresa Gallura,9.188,41.24
60,Andretta-Mattinella,15.327,40.944
60,Sant'Eusanio del Sangro,14.326,42.169
86,Cravagliana,8.201,45.849
72,Colledara,13.675,42.539
176,Antrodoco,13.08,42.417
72,Carpasio,7.867,43.961
86,Magliano in Toscana,11.294,42.598
147,Orta Nova,15.711,41.33
1556,Ustica,13.192,38.711
435,Sulmona,13.928,42.048
901,Olbia,9.505,40.923
72,Pabillonis,8.722,39.591
303,Ambra,11.603,43.416
176,Bosconero,7.764,45.267
72,Cermignano,13.794,42.59
147,Cavarzere,12.082,45.137
103,Oia,7.699,44.806
147,Caserma,12.179,44.243
103,Carignano,7.675,44.907
176,Claut,12.513,46.269
123,Tergu,8.716,40.867
60,Lesignana,10.892,44.685
86,Proves,11.02,46.476
72,Raddusa,14.535,37.475
751,La Maddalena,9.412,41.221
86,Rosasco,8.578,45.251
72,Mioglia,8.415,44.491
751,Altamura,16.548,40.828
60,Monchio delle Corti,10.124,44.413
60,Armo,15.714,38.069
176,Pescasseroli,13.785,41.804
60,Pietracatella,14.873,41.581
86,Airola,14.557,41.061
60,Montebello Vicentino,11.383,45.456
147,San Piero in Bagno,11.978,43.858
147,Sambucetole,12.437,42.598
60,Cersosimo,16.351,40.047
60,San Feliciano,12.168,43.118
86,Terraseo,8.626,39.205
72,Strovina,8.849,39.525
72,Casalborsetti,12.276,44.553
86,Codogne,12.427,45.871
253,Prato,11.077,43.884
103,Azzano Decimo,12.713,45.882
72,Parabiago,8.946,45.555
72,Ono Degno,10.383,45.751
103,Ovodda,9.162,40.096
176,San Demetrio ne' Vestini,13.557,42.29
60,Montefiorino,10.624,44.353
60,Piano,7.9,44.351
123,Sant'Ilario d'Enza,10.447,44.757
86,Quistello,10.984,45.01
86,Pizzoferrato,14.236,41.923
60,San Romualdo,12.171,44.496
60,Marola,10.486,44.48
123,Predazzo,11.599,46.309
147,Acqualagna,12.678,43.628
211,Palmadula,8.189,40.748
253,Lucera,15.335,41.508
176,Riccia,14.833,41.482
147,Lama dei Peligni,14.186,42.041
60,Massaua,9.099,45.205
147,Alicudi Porto,14.36,38.536
86,Samo,16.06,38.074
103,Sambuca di Sicilia,13.11,37.649
60,Piepasso,8.384,44.924
253,Cana,11.427,42.797
72,Santa Rania,16.788,39.188
751,Borgo Val di Taro,9.77,44.486
86,Cittaducale,12.956,42.387
60,Pianette,16.105,39.593
60,Lanzo Torinese,7.484,45.279
103,Montecalvo Irpino,15.033,41.195
60,Moricone,12.774,42.112
147,Castelfiorentino,10.971,43.606
72,Macari,12.74,38.141
72,Foza,11.629,45.899
147,Vulcano Porto,14.956,38.412
60,Carbone,16.088,40.142
103,Cataeggio,9.638,46.215
60,Santo Stefano Quisquina,13.491,37.626
303,Carsoli,13.086,42.102
103,Verzago,9.168,45.771
72,Magliano de' Marsi,13.364,42.091
86,Lissone,9.247,45.616
60,Calendasco,9.597,45.087
60,Tarano,12.596,42.356
72,Borgo San Michele,12.967,41.439
103,Lavena Ponte Tresa,8.865,45.959
103,Casacalenda,14.847,41.738
72,Forno,11.628,46.349
253,Valenza,8.642,45.014
72,Lamporo,8.093,45.23
147,Mercatale-San Quirico,11.153,44.046
303,Putignano,17.121,40.852
103,Staffa,7.966,45.97
86,Teglio,10.064,46.173
123,Tubre,10.463,46.644
147,Oderzo,12.498,45.789
123,Roccasecca,13.667,41.552
103,Foiano della Chiana,11.815,43.255
60,Marzeno,11.859,44.226
72,Ceriale,8.22,44.089
103,Frigole,18.246,40.428
147,Pioltello,9.324,45.496
60,Barni,9.266,45.912
147,Mortara,8.738,45.252
86,Sambuco,7.074,44.339
123,Reggio nell'Emilia,10.619,44.709
86,Santa Croce Camerina,14.527,36.83
211,Montorio al Vomano,13.637,42.583
123,Sorano,11.715,42.681
901,Lecce,18.178,40.357
103,Fimon,11.512,45.477
103,Crispiano,17.231,40.605
86,Dodici Morelli,11.291,44.793
60,Lezzeno,9.186,45.945
103,Rivarolo del Re,10.475,45.032
103,Melle,7.319,44.562
435,Scalea,15.796,39.811
60,Principina a Mare,11.003,42.696
147,Cividale del Friuli,13.427,46.095
253,Transacqua,11.834,46.176
72,Tre Re-Mezzana Corti,9.12,45.126
60,Nucleo Industriale di Bazzano,13.468,42.336
147,Geraci Siculo,14.151,37.854
123,Palo del Colle,16.702,41.058
363,Novi Ligure,8.793,44.76
72,Martignana,10.991,43.674
86,Bardineto,8.134,44.191
60,Tronzano Vercellese,8.172,45.342
103,San Damiano d'Asti,8.063,44.834
72,Vitolini,10.955,43.779
72,Campolieto,14.767,41.634
363,Tavernole,10.24,45.748
123,Mores,8.833,40.545
176,Chianni,10.642,43.482
60,Castiglione dei Pepoli,11.158,44.143
103,Baiso,10.604,44.501
86,Longarone,12.301,46.272
522,Sala Consilina,15.599,40.391
103,Milo,15.116,37.723
253,Montereale,13.245,42.524
211,Alfonsine,12.041,44.506
176,Favignana,12.329,37.93
60,Poggio Perugino,12.76,42.352
123,Villanova Tulo,9.212,39.781
303,Codogno,9.701,45.162
147,Valguarnera Caropepe,14.39,37.496
253,Varese,8.824,45.819
86,Saviano,14.509,40.905
86,Pignataro Interamna,13.787,41.439
60,Prossedi,13.262,41.516
72,Porporano,10.349,44.753
123,Castellaneta Marina,16.937,40.47
147,Campodarsego,11.909,45.501
147,Triora,7.766,43.993
211,Darfo Boario Terme,10.183,45.883
103,Simbario,16.338,38.612
103,Termini,14.628,42.197
60,Salle,13.961,42.177
72,Montegrotto Terme,11.788,45.331
72,Carmignano,11.014,43.811
72,Marzolara,10.172,44.632
86,Ospedaletto,12.219,42.835
60,Trabuchello,9.748,45.981
60,Zungoli,15.203,41.125
72,Falze-Signoressa,12.095,45.745
72,Mareta,11.352,46.892
72,Scampitella,15.305,41.093
86,San Biagio Platani,13.526,37.509
363,Ladispoli,12.078,41.95
86,Zibello,10.13,45.019
60,Novara di Sicilia,15.13,38.015
60,Colpalombo,12.613,43.249
123,Noventa Vicentina,11.547,45.295
86,Chamois,7.621,45.838
211,Giglio Porto,10.923,42.358
60,Tonara,9.172,40.025
86,Volpiano,7.777,45.198
72,Lisciano,12.911,42.436
86,Tirli,10.894,42.845
72,Careri,16.117,38.178
363,Caltagirone,14.516,37.217
253,Cusino,9.153,46.074
103,Santa Ninfa,12.877,37.771
60,Settimo Milanese,9.057,45.478
72,Ardea,12.523,41.605
123,Castelbianco,8.062,44.116
147,Stroppiana,8.453,45.23
60,Abetone,10.664,44.145
86,Montalto Dora,7.863,45.491
60,Palazzo Mancinelli-Vaccara,12.762,43.258
253,Rilievo,12.54,37.918
60,Colloredo,11.512,45.336
60,Mulazzo,9.89,44.316
123,Gioia dei Marsi,13.695,41.953
60,Eboli,15.058,40.614
60,Rabla,11.063,46.672
86,Castelmauro,14.71,41.829
60,Ponticelli,11.975,42.931
123,Tobia,12.101,42.36
60,Palermiti,16.455,38.752
211,Fasano,17.358,40.835
86,Madesimo,9.357,46.437
103,Naturno,11.005,46.649
60,Serra d'Aiello,16.127,39.09
60,Antonimina,16.149,38.273
86,San Bonifacio,11.285,45.399
176,Meldola,12.062,44.129
86,Montescaglioso,16.663,40.55
72,Salcito,14.51,41.748
60,Agliana,11.006,43.906
363,Termini Imerese,13.696,37.984
123,Montecchio,12.762,43.855
72,Erbe,10.969,45.242
86,Alto,8.002,44.11
123,Santo Stefano di Cadore,12.552,46.558
176,Armeno,8.443,45.821
86,Torre Santa Susanna,17.742,40.464
72,Prasco,8.549,44.65
147,Tolfa,11.926,42.148
103,Vallermosa,8.796,39.365
86,Mansue,12.536,45.822
72,Romagnese,9.33,44.839
86,Forni Avoltri,12.776,46.587
60,Valle di Maddaloni,14.418,41.081
60,Castrofilippo,13.751,37.35
626,Caltanissetta,14.047,37.49
123,Novate Mezzola,9.449,46.22
123,Molveno,10.964,46.142
72,Ragalna,14.952,37.644
211,Podenzano,9.685,44.956
60,Burgio,13.287,37.601
86,Valsavarenche,7.21,45.592
72,Casteldelfino,7.069,44.59
86,Casei,8.927,45.008
86,Ostiano,10.255,45.221
103,Palazzolo dello Stella,13.089,45.806
435,Porto Santo Stefano,11.123,42.433
60,Battifolle-Ruscello-Poggiola,11.793,43.451
60,Coli,9.413,44.745
435,Edolo,10.332,46.178
147,Livo,9.305,46.169
86,Castiglione in Teverina,12.203,42.65
211,Bolotana,8.962,40.325
72,Colli a Volturno,14.103,41.601
60,Ponzano Romano,12.573,42.258
60,Polvica,14.64,40.694
72,Chiusa Sclafani,13.27,37.678
72,Gonzaga,10.82,44.952
176,Balme,7.215,45.303
176,Imola,11.711,44.349
123,Stilo,16.468,38.477
86,Alfedena,14.034,41.733
103,Custonaci,12.688,38.074
72,Valentano,11.832,42.561
123,Porto Ceresio,8.897,45.904
176,Ala dei Sardi,9.328,40.65
123,Givoletto,7.493,45.156
123,Roccella Ionica,16.399,38.321
147,Mira Taglio,12.137,45.434
147,Badolato Marina,16.567,38.574
72,Calvi Risorta,14.131,41.217
103,Macchia d'Isernia,14.17,41.56
72,Vagli Sopra,10.268,44.118
72,Aiello Calabro,16.166,39.117
103,Caralte,12.368,46.393
103,Nusco,15.094,40.886
303,Brindisi,17.938,40.628
86,Gissi,14.545,42.018
86,Ciro,17.066,39.382
60,Monte Colombo,12.552,43.921
103,Zornasco,8.5,46.127
147,Colliano,15.293,40.723
123,Badesi,8.885,40.965
60,Villafrati,13.484,37.906
72,Ripi,13.423,41.609
253,Giaveno,7.349,45.041
72,Pancole,11.007,43.501
211,Corvara,11.149,46.872
72,Badia Tedalda,12.183,43.71
60,Villa Literno,14.074,41.01
72,Montone,12.326,43.361
86,Pisticci Scalo,16.548,40.421
176,Acate,14.492,37.024
86,Montechiaro d'Asti,8.111,45.007
176,Modigliana,11.794,44.161
103,Roncone,10.668,45.982
60,Laghi di Sibari,16.497,39.714
72,Cecci,15.655,40.827
363,Craco Peschiera,16.496,40.359
