rs,name,lon,lat
86,Canzo,9.271,45.849
103,Sava,17.554,40.4
103,Gavoi,9.195,40.162
751,Linosa,12.862,35.86
176,Guspini,8.633,39.541
103,Piobbico,12.509,43.588
60,Meolo,12.455,45.619
103,Collepietra,11.457,46.483
103,Narzole,7.87,44.596
60,Affile,13.099,41.885
123,Collesano,13.936,37.918
60,Vibo Marina,16.101,38.709
72,Borgata Costiera,12.641,37.71
72,Vallecorsa,13.405,41.445
211,Lesina,15.353,41.862
60,San Pantaleo,9.469,41.045
72,Borgo Virgilio,10.788,45.118
123,Nocera Umbra,12.791,43.117
103,Castel San Pietro Terme,11.587,44.399
103,Roccanova,16.205,40.21
72,San Pancrazio Salentino,17.836,40.419
123,Rio di Pusteria,11.668,46.797
60,Lusevera,13.268,46.276
147,Sassello,8.492,44.48
60,Martis,8.81,40.777
86,Bagno di Gavorrano,10.887,42.938
103,Varazze,8.571,44.36
176,Marina di Camerota,15.369,40.002
86,Pioppo,13.223,38.045
60,Cerreto di Spoleto,12.92,42.822
253,Agordo,12.036,46.285
103,Gradisca d'Isonzo,13.489,45.885
72,Bosco,10.036,44.443
123,Ficarolo,11.436,44.954
86,Moglia,10.914,44.937
86,Chieri,7.822,45.014
72,Baruchella,11.453,45.067
60,Madonna del Piano,13.406,41.517
72,Capodacqua,12.783,43.017
72,Vaglio Basilicata,15.917,40.667
103,Nova Levante,11.538,46.43
60,Kamma,12.036,36.798
72,Lamoli,12.255,43.623
72,Villanova d'Asti,7.938,44.942
123,Felizzano,8.436,44.9
123,Laurenzana,15.973,40.458
103,San Benedetto dei Marsi,13.622,42.006
86,Falerna Scalo,16.152,38.972
72,Cassine,8.528,44.753
86,Montaione,10.913,43.553
123,Castiglione Messer Marino,14.451,41.867
2240,Bari,16.879,41.113
253,Ortisei,11.667,46.574
103,Mercato Saraceno,12.198,43.964
147,Serre,15.187,40.582
60,Boccioleto,8.111,45.831
86,San Fele,15.539,40.818
86,Cinigiano,11.39,42.891
72,Posina,11.26,45.79
72,Coriano,12.601,43.968
147,Seneghe,8.613,40.082
147,Sarnano,13.299,43.035
86,Frontone,12.734,43.514
86,Mombercelli,8.296,44.818
123,Moggio di Sotto,13.195,46.404
363,Alghero,8.321,40.557
72,Padenghe sul Garda,10.505,45.508
60,Dello,10.077,45.421
86,Cologno al Serio,9.706,45.581
60,Sedini,8.816,40.853
60,Marcianise,14.299,41.035
103,Vetto,10.339,44.484
103,Cisternino,17.422,40.744
72,Badia Calavena,11.152,45.566
103,Jolanda di Savoia,11.98,44.881
123,San Gregorio Magno,15.399,40.661
103,Albidona,16.472,39.924
123,Farini,9.57,44.713
72,Noceto,10.177,44.81
123,Serramanna,8.923,39.424
60,Corvara,13.872,42.276
60,Villa San Pietro,8.999,39.036
86,Stanghella,11.758,45.134
147,Rho,9.04,45.531
103,Migliarino,11.934,44.77
60,Urbisaglia,13.374,43.192
123,Sant'Arcangelo,12.157,43.083
60,Galtelli,9.615,40.385
123,Varese Ligure,9.594,44.377
60,Sommacampagna,10.845,45.407
86,Anguillara Veneta,11.888,45.14
86,Dolceacqua,7.624,43.847
72,Tezze,11.704,45.686
103,Morciano di Romagna,12.65,43.915
103,Rotonda,16.04,39.949
363,Isili,9.109,39.741
86,Marianopoli,13.915,37.599
86,Canneto sull'Oglio,10.383,45.149
60,Colla-Muggiasca,9.621,45.984
147,Piaggine,15.378,40.346
86,Rapolano Terme,11.604,43.284
123,Auronzo,12.42,46.562
72,Pulsano,17.358,40.382
72,Finocchieto,12.658,42.453
72,Cepina,10.357,46.435
123,Castelbuono,14.09,37.928
303,Licata,13.951,37.104
86,Guasila,9.041,39.558
86,Umbriatico,16.918,39.353
86,Monte San Savino,11.724,43.333
103,Capalbio,11.422,42.453
303,San Giovanni in Fiore,16.698,39.254
72,Bagnoli del Trigno,14.457,41.702
147,Tolve,16.017,40.694
60,Altilia,16.88,39.181
103,Lazzaro,15.661,37.977
72,Brescia,10.221,45.525
103,Ciminna,13.56,37.898
147,Pieve,11.955,46.481
60,Revo,11.06,46.392
435,Ravenna,12.203,44.416
72,San Buono,14.569,41.981
72,Episcopia,16.096,40.073
103,Ovada,8.645,44.638
72,Modugno,16.773,41.098
60,Costacciaro,12.713,43.359
86,San Giorgio Ionico,17.379,40.459
363,Lodi,9.503,45.314
86,Valles,11.627,46.842
86,Bagno Roselle,11.138,42.81
72,Formigliana,8.291,45.429
60,Montemiletto,14.902,41.011
123,Porto Potenza Picena,13.692,43.37
123,Mandas,9.129,39.656
86,Usellus,8.851,39.81
72,Gioia del Colle,16.924,40.8
103,Lavezzola,11.876,44.563
60,Caminata,11.544,46.959
72,San Pietro in Volta,12.314,45.313
72,Villanova Monferrato,8.479,45.182
103,San Giovanni-San Bernardino,9.606,44.777
60,Torricella,17.499,40.356
72,Laghi,11.271,45.825
60,Usseglio,7.216,45.233
86,Appignano,13.345,43.364
60,Fagnano Alto,13.57,42.258
72,Castiglione d'Adda,9.694,45.219
303,Codigoro,12.11,44.83
72,Marziai,11.982,45.987
72,Gonnosno,8.872,39.76
253,Isola di Capo Rizzuto,17.091,38.96
123,Ottana,9.044,40.234
103,Champoluc-Champlan,7.726,45.833
86,Diamante,15.824,39.677
253,Manduria,17.635,40.399
72,Roccaforte del Greco,15.896,38.048
303,Marina,16.598,40.036
253,Verbania-Pallanza-Intra,8.557,45.93
72,Anzano di Puglia,15.285,41.123
253,Popoli,13.832,42.172
211,Rezzoaglio,9.386,44.527
86,Piazze,11.919,42.907
435,Piedimonte Matese,14.375,41.356
303,Milazzo,15.238,38.222
103,Laterza,16.798,40.629
103,Riace Marina,16.526,38.389
211,Rosolini,14.948,36.824
103,Oriolo,16.446,40.054
60,Giuliano di Roma,13.279,41.54
60,Pagazzano,9.671,45.535
103,Massa Martana,12.525,42.773
86,Arsiero,11.354,45.803
72,Lajatico,10.727,43.473
123,Bore,9.793,44.719
86,Mejaniga,11.905,45.459
123,Malonno,10.32,46.123
2688,Pantelleria,11.946,36.829
60,Montefano,13.438,43.41
72,Casaleggio Novara,8.492,45.489
60,Biccari,15.196,41.398
147,Rionero in Vulture,15.672,40.925
176,Villa,7.155,44.7
303,Amatrice,13.294,42.627
86,Zungri,15.983,38.655
253,Scanno,13.88,41.902
123,Besozzo,8.666,45.846
211,Piove di Sacco,12.036,45.297
123,Salandra,16.318,40.528
86,Paceco,12.556,37.978
72,Osiglia,8.198,44.282
103,Agosta,13.035,41.98
147,Reggio di Calabria,15.664,38.111
435,Albenga,8.215,44.053
86,Pianello Val Tidone,9.403,44.947
123,San Felice Circeo,13.088,41.233
72,Mazzo di Valtellina,10.254,46.256
72,Isolabona,7.641,43.88
86,Cavour,7.378,44.789
86,Bisacquino,13.258,37.705
103,Agugliano,13.388,43.543
123,Acquasparta,12.541,42.689
86,Vado Centro,8.431,44.266
60,Morbello,8.519,44.607
147,Marina di Ginosa,16.886,40.428
123,Valledolmo,13.826,37.747
86,Altipiani di Arcinazzo,13.196,41.847
103,Sant'Antonio di Gallura,9.302,40.992
147,Squinzano,18.039,40.436
86,Casperia,12.672,42.341
303,Oschiri,9.102,40.72
123,Coreno Ausonio,13.778,41.344
86,Buggerru,8.402,39.398
72,Gambara,10.293,45.256
86,Crichi,16.643,38.954
103,Montechiaro d'Acqui,8.377,44.595
363,Muravera,9.574,39.421
60,Petriolo,13.464,43.221
60,Libertinia,14.576,37.53
72,Rivignano,13.042,45.878
60,Trequanda,11.667,43.188
72,Casalbuttano,9.962,45.252
123,Filadelfia,16.293,38.782
303,Cerignola,15.901,41.264
60,Serrazzano,10.813,43.218
123,Bellaria-Igea Marina,12.47,44.14
72,Sezzadio,8.573,44.787
60,Gerace,16.221,38.271
103,Forno,8.288,45.936
123,Itri,13.533,41.292
60,Grignano Polesine,11.75,45.044
72,Castellazzo Bormida,8.576,44.845
147,Nerito,13.478,42.549
72,Apollinara,16.418,39.702
60,Scanzano Jonico,16.699,40.25
60,Lamon,11.75,46.048
60,Taipana,13.341,46.248
86,Lamen,11.887,46.059
176,Tione di Trento,10.727,46.036
60,Caresana,13.834,45.592
147,Miglionico,16.501,40.568
72,Zerba,9.283,44.668
86,Monghidoro,11.316,44.219
86,Gais,11.95,46.837
72,Quattromiglia,16.243,39.354
103,Collalbo,11.457,46.542
103,Pergine Valsugana,11.241,46.061
86,Valdaora di Mezzo,12.031,46.76
86,Castelnuovo Berardenga,11.503,43.346
86,Montiano,11.223,42.645
72,Nucetto,8.06,44.34
72,Cerami,14.508,37.81
103,Breuil-Cervinia,7.631,45.935
176,Ribera,13.265,37.5
176,Palma di Montechiaro,13.765,37.193
176,Camerino,13.069,43.14
1867,Trieste,13.803,45.634
60,Pincara,11.61,44.992
253,Spinazzola,16.091,40.967
60,Alife,14.333,41.327
86,Ururi,15.016,41.816
103,Gonnesa,8.471,39.266
72,Pancalieri,7.587,44.833
72,Rovito,16.322,39.307
103,Fasana,15.137,40.252
72,Ribolla,11.035,42.969
60,Lotzorai,9.665,39.969
72,Cornuda,12.006,45.833
103,San Daniele Po,10.18,45.064
60,Maddaloni,14.38,41.039
363,Sesto,12.351,46.702
176,Lacedonia,15.423,41.051
123,Cesaro,14.713,37.845
147,Albinia,11.21,42.505
60,Nettuno,12.681,41.493
60,Albera Ligure,9.066,44.702
176,Gattinara,8.367,45.618
72,Verrayes,7.538,45.764
86,San Giacomo,16.465,39.524
72,Finale,14.162,38.018
72,Fonzaso,11.801,46.016
60,Peveragno,7.62,44.331
147,Asola,10.418,45.221
176,Guglionesi,14.917,41.914
60,Cetica,11.655,43.712
72,Sestu,9.094,39.298
123,Aprica,10.152,46.153
123,Gerola Alta,9.551,46.061
147,Valdobbiadene,12.003,45.902
60,Lauco,12.933,46.424
176,San Sebastiano,10.268,45.649
435,Lavello,15.793,41.048
60,Riva presso Chieri,7.872,44.984
60,Gallo,7.983,44.661
60,Verghereto,12.005,43.795
86,Dovadola,11.886,44.121
123,Montagnana,11.467,45.233
72,Narbolia,8.576,40.047
72,Cerignale,9.35,44.678
86,Belforte del Chienti,13.247,43.162
72,Scarnafigi,7.567,44.681
72,San Nicola Arcella,15.791,39.843
72,Vetulonia,10.971,42.86
103,Vallefiorita,16.461,38.776
72,Elva,7.088,44.542
86,Salaparuta,13.01,37.758
72,Venaria Reale,7.635,45.124
123,Lana,11.156,46.612
176,Masone,8.716,44.502
176,Cuglieri,8.567,40.188
176,Mezzolombardo,11.095,46.208
60,Colvalenza,12.486,42.745
60,Tartano,9.677,46.107
60,Albareto,10.967,44.69
72,Staiti,16.033,38
60,Leno,10.215,45.365
522,Alessandria,8.619,44.913
147,Caoria,11.68,46.196
72,Spotorno,8.414,44.229
72,Orsomarso,15.909,39.799
72,Calasetta,8.368,39.108
86,Condino,10.6,45.89
60,Formigine,10.847,44.57
86,Parenti,16.412,39.161
60,Pietralta,13.448,42.71
72,Castroregio,16.478,39.992
86,Selci-Lama,12.195,43.512
176,Filettino,13.326,41.891
60,Ulignano,11.082,43.504
176,Pieve Santo Stefano,12.04,43.673
86,Catignano,13.947,42.346
176,La Thuile,6.951,45.714
123,Serramazzoni,10.79,44.429
176,Poggio Moiano,12.881,42.205
86,Pierantonio,12.392,43.264
626,Fermignano,12.642,43.686
60,San Lazzaro,11.414,44.467
72,Corio,7.532,45.314
86,Sant'Antonio,11.22,45.755
86,Castelnuovo Vomano,13.848,42.629
60,Capovalle,10.545,45.753
147,Sinnai,9.203,39.304
123,Voghiera,11.751,44.759
86,Cupra Marittima,13.859,43.03
123,Torpe,9.68,40.628
103,Urbania,12.521,43.668
72,Alberoro,11.807,43.366
103,Castelcivita,15.233,40.494
147,Tula,8.985,40.733
901,Siena,11.334,43.32
86,Vedeseta,9.543,45.89
86,Borgomaro,7.945,43.975
60,Budoia,12.533,46.046
72,Aragona,13.617,37.401
60,Anfo,10.494,45.766
103,Gagliano Castelferrato,14.536,37.711
72,Classe,12.238,44.377
103,Entracque,7.397,44.239
60,Luzzara,10.69,44.961
60,Angera,8.59,45.777
72,Contursi Terme,15.241,40.651
72,Sumirago,8.781,45.74
147,Certaldo,11.04,43.547
86,Gergei,9.1,39.7
103,Guastalla,10.654,44.922
60,Raveo,12.871,46.434
60,Fontecchio,13.606,42.231
60,Greve in Chianti,11.315,43.587
72,Paglieta,14.498,42.164
123,Novellara,10.73,44.845
72,Camposampiero,11.934,45.566
86,Ortueri,8.987,40.036
60,Portico di Romagna,11.78,44.025
147,Berchidda,9.165,40.786
72,Casale di Scodosia,11.465,45.196
86,Ficulle,12.066,42.836
363,Isernia,14.24,41.6
103,Lago,16.148,39.173
103,Passignano sul Trasimeno,12.131,43.192
123,Cupramontana,13.115,43.445
211,Acqui Terme,8.463,44.677
901,La Spezia,9.85,44.114
147,Castelsaraceno,15.991,40.161
86,Margherita Iv,17.105,39.135
103,San Floriano del Collio,13.596,45.98
72,Alesso,13.053,46.318
60,Salvano,13.79,43.162
72,Ponton dell'Elce,12.235,42.023
211,Canazei,11.772,46.476
86,Appignano del Tronto,13.662,42.898
60,Piancastagnaio,11.686,42.85
103,Canino,11.753,42.467
86,Cittadella,11.78,45.65
60,Grotte di Castro,11.868,42.674
60,Bocca di Piazza,16.485,39.164
363,Panarea,15.076,38.637
522,Ventotene,13.43,40.796
72,Mordano,11.812,44.398
86,Tredozio,11.74,44.077
103,Castellaneta,16.935,40.631
103,Maddalena,7.029,44.622
86,Alagna Valsesia,7.938,45.851
60,Lari,10.592,43.568
176,Frosolone,14.447,41.6
253,Pinzolo,10.763,46.158
363,Merano,11.161,46.668
60,Ciggiano,11.711,43.364
103,Campofiorito,13.269,37.754
522,Sapri,15.629,40.075
176,Pontremoli,9.879,44.375
72,Sassi,10.393,44.083
103,Monte Cavallo,13.002,42.994
147,Sant'Angelo Lodigiano,9.411,45.237
147,Castiglione delle Stiviere,10.483,45.391
303,Formia,13.668,41.258
253,Varallo,8.259,45.814
86,Marzanello,14.11,41.316
86,Corsico,9.108,45.432
60,Limena,11.844,45.473
72,Monsano,13.249,43.562
1081,Gela,14.243,37.07
86,Cantiano,12.629,43.476
147,Pietramelara,14.188,41.272
147,Desenzano del Garda,10.573,45.458
303,Samugheo,8.941,39.948
60,La Maddalena,9.015,39.147
86,Marina,15.981,39.463
86,Satriano di Lucania,15.642,40.541
253,Otranto,18.482,40.149
60,Resuttano,14.029,37.679
86,Lucito,14.687,41.732
522,Monopoli,17.296,40.952
86,Lago,12.216,45.987
147,Cassibile,15.199,36.979
303,Bosa,8.492,40.296
1297,Aosta,7.317,45.737
60,Napoli,14.276,40.859
103,Monselice,11.753,45.241
86,Sant'Anna,17.072,39.003
123,Lavis,11.11,46.143
86,Barumini,9.004,39.701
60,Scandicci,11.153,43.767
86,Annone Veneto,12.686,45.787
72,Marrubiu,8.638,39.752
123,Roccabianca,10.22,45.007
72,Cannigione,9.44,41.111
211,Vernante,7.534,44.246
72,Sabbioni,10.626,45.029
123,Spiazzo,10.739,46.104
60,Tobbiana,11.04,43.961
86,Aldino,11.353,46.367
176,San Marco dei Cavoti,14.88,41.31
363,Campo Tures,11.954,46.92
123,Casole d'Elsa,11.048,43.34
72,Serra de' Conti,13.036,43.542
363,Modena,10.918,44.656
147,Ferentillo,12.787,42.621
211,Pozzallo,14.849,36.73
86,Desana,8.36,45.27
60,Loreto Aprutino,13.984,42.434
176,Latte,7.569,43.795
86,Legnaro,11.967,45.341
72,Rionero Sannitico,14.138,41.713
176,Copertino,18.057,40.27
72,Smirra,12.671,43.584
60,Vico Equense,14.431,40.66
123,Arsoli,13.018,42.04
60,Ponteginori,10.744,43.335
103,San Pietro,11.678,46.643
363,Terralba,8.638,39.718
176,Colleferro,13.005,41.726
123,Vinchiaturo,14.591,41.493
176,Bionaz,7.422,45.875
86,La Torba,11.328,42.415
60,Romano di Lombardia,9.754,45.52
147,Muro Lucano,15.484,40.751
72,Salionze,10.723,45.404
253,Orzinuovi,9.924,45.404
60,Pietracamela,13.554,42.523
60,Cimolais,12.437,46.288
103,Grimaldi,16.234,39.141
72,Carro,9.606,44.274
60,Cabella Ligure,9.095,44.676
86,Selvena,11.643,42.767
176,San Vigilio,11.935,46.699
522,Martina Franca,17.341,40.701
60,Ripatransone,13.762,42.996
72,Aritzo,9.192,39.959
103,Sacile,12.507,45.959
303,Fossano,7.721,44.55
103,Osidda,9.218,40.524
147,Benetutti,9.168,40.458
103,Variano,13.11,46.028
103,Quarona,8.269,45.763
147,Roccaraso,14.081,41.847
72,Frisa,14.369,42.263
123,Albino,9.797,45.761
123,Moretta,7.536,44.763
123,Valdottavo,10.477,43.942
86,Maletto,14.863,37.83
72,San Nicolo,10.923,46.511
72,Buccheri,14.85,37.125
60,Latiano,17.72,40.551
72,Salerni,16.425,39.376
86,Priola,8.021,44.243
123,Trestina,12.237,43.368
72,Pereto,13.102,42.058
103,Borgo Tossignano,11.59,44.277
176,Ostra,13.158,43.614
176,Levanto,9.619,44.176
103,Annunziata,14.355,41.121
103,Farra d'Alpago,12.357,46.12
60,Acquaria,10.764,44.278
86,Palazzolo sull'Oglio,9.889,45.593
103,Ovindoli,13.516,42.137
72,Squillace Lido,16.57,38.779
103,Colle Sannita,14.835,41.364
72,Campochiaro,14.508,41.447
176,Copparo,11.827,44.895
86,Alberese,11.106,42.668
363,Belluno,12.217,46.151
86,Saluggia,8.011,45.238
60,Mantignana,12.291,43.16
72,Magliolo,8.246,44.191
86,San Quirico d'Orcia,11.606,43.059
72,San Bartolomeo,7.663,44.265
211,Alimena,14.113,37.694
60,Calamonaci,13.29,37.526
103,Chivasso,7.891,45.193
176,Olmedo,8.38,40.651
123,Stroncone,12.655,42.502
253,San Foca,18.404,40.299
86,Guarcino,13.314,41.799
522,Treviso,12.24,45.674
60,Mezzenile,7.396,45.295
72,Montepulciano Stazione,11.854,43.135
60,Cervaro,15.594,41.396
72,Vastogirardi,14.26,41.775
123,Barrafranca,14.201,37.38
86,Bultei,9.064,40.456
72,Rocca Imperiale Marina,16.613,40.098
60,Selegas,9.103,39.568
147,Sezze,13.057,41.5
60,Marcato Bianco,13.704,37.742
86,Graffignano,12.203,42.574
522,Ragusa,14.716,36.929
86,Ticineto,8.552,45.096
60,Cerro,8.6,45.894
86,Santa Barbara,18.078,40.224
86,Tramutola,15.788,40.318
72,Montemerano,11.49,42.623
60,Piagge,12.969,43.735
303,Bonorva,8.769,40.419
123,Montallegro,13.351,37.392
1081,Parma,10.329,44.803
176,Moena,11.661,46.377
103,Siligo,8.726,40.576
86,Maiera,15.851,39.717
253,Medicina-Buda,11.638,44.479
72,Lattarico,16.126,39.45
123,Rosarno,15.983,38.488
211,Mirandola,11.066,44.886
60,Casacastalda,12.648,43.196
103,Semproniano,11.542,42.728
103,Galeata,11.909,43.995
147,Spilimbergo,12.893,46.11
103,Paesana,7.275,44.687
86,Ponte di Legno,10.509,46.259
103,Santa Marinella,11.864,42.037
103,Sorgono,9.101,40.026
211,Egna,11.273,46.319
103,Castelraimondo,13.056,43.209
60,Puntarazzi,14.661,36.9
103,Riotorto,10.684,42.981
72,Montoggio,9.052,44.518
60,Scillato,13.907,37.857
72,Montegabbione,12.092,42.92
123,Anzi,15.924,40.517
72,Caposele,15.223,40.816
176,Serra San Bruno,16.323,38.575
72,Colfiorito,12.891,43.028
147,Piandimeleto,12.411,43.724
72,Gairo Sant'Elena,9.506,39.848
253,Cogne,7.361,45.608
103,Portovenere,9.834,44.066
60,Marciana Marina,10.196,42.803
60,Mafalda,14.712,41.942
72,Lugagnano,10.885,45.434
60,Cocullo,13.774,42.033
60,Salvo Marina,14.773,42.07
60,Cervaro,13.902,41.484
72,Spello,12.666,42.993
176,Cianciana,13.433,37.521
103,Civitella del Lago,12.284,42.71
123,Campora San Giovanni,16.094,39.068
86,Conselve,11.873,45.232
253,Minervino Murge,16.077,41.084
60,Calvari,9.286,44.382
72,Torvaianica,12.449,41.633
103,Radicondoli,11.043,43.261
86,Accadia,15.331,41.159
86,Suvereto,10.678,43.077
5572,Palermo,13.337,38.11
72,Morra,12.13,43.386
176,Montevarchi,11.568,43.528
72,Noviglio,9.051,45.359
60,Pozzomaggiore,8.661,40.398
86,Erula,8.944,40.793
72,La Dogana,12.028,43.254
103,Talana,9.497,40.042
60,Trevenzuolo,10.934,45.27
60,Santa Maria del Focallo,14.942,36.715
435,Salerno,14.792,40.68
86,Marinella,12.842,37.591
176,Faenza,11.876,44.292
60,Serrenti,8.978,39.493
123,Santa Caterina,10.49,46.413
60,Fiano,11.118,43.589
103,Noale,12.069,45.546
72,Rialto,8.262,44.227
123,Mogoro,8.776,39.685
86,Avetrana,17.734,40.352
303,Peccioli,10.715,43.55
60,Giardina Gallotti,13.521,37.352
103,Petritoli,13.66,43.069
60,Predappio,11.981,44.102
60,Castel Giuliano,12.126,42.054
123,Este,11.656,45.225
103,Manoppello Scalo,14.058,42.31
72,Sostegno,8.27,45.653
253,Varzi,9.191,44.824
103,Ornavasso,8.416,45.968
60,Tarsia,16.273,39.624
72,San Gusme,11.497,43.388
103,Mazzarrone,14.564,37.09
86,Paulilatino,8.763,40.084
60,Amaro,13.096,46.374
86,Guidomandri Marina,15.467,38.048
103,Ormea,7.919,44.155
60,San Marzano di San Giuseppe,17.505,40.454
72,Gaiola,7.407,44.335
147,Nicastro-Sambiase,16.312,38.967
60,Isola Fossara,12.738,43.433
103,Gaby,7.882,45.714
72,Piano del Voglio,11.216,44.169
123,Carpineto Romano,13.085,41.603
60,Montespertoli,11.074,43.644
60,Bellavista,11.162,43.441
72,Saracena,16.159,39.779
60,Apollosa,14.703,41.093
60,La Vecchia,10.529,44.567
86,Dolegna del Collio,13.478,46.032
176,Rocca di Mezzo,13.519,42.205
60,Abriola,15.815,40.507
72,Focene,12.213,41.815
72,Santa Croce,12.915,42.467
103,Lenola,13.459,41.406
60,Olia Speciosa,9.526,39.279
86,Caselle,11.363,45.275
60,Salo,10.519,45.609
103,Sparanise,14.095,41.187
86,Sarsina,12.143,43.92
72,Fossa,11.024,44.924
60,Branca,12.68,43.271
60,Cusano Mutri,14.511,41.336
103,Roverbella,10.769,45.267
147,Deliceto,15.384,41.223
176,Bagnasco,8.045,44.302
60,Boretto,10.545,44.902
72,Capilungo,18.068,39.922
103,Corridonia,13.508,43.247
86,Amendolara,16.581,39.952
86,Auletta,15.425,40.561
86,Monticello Conte Otto,11.581,45.595
901,Siracusa,15.273,37.084
60,Felegara,10.114,44.722
103,Solarussa,8.674,39.956
522,Piacenza,9.706,45.045
123,Pomaretto,8.049,45.152
435,Umbertide,12.336,43.305
86,Spigno Monferrato,8.334,44.543
86,Gandellino,9.946,45.99
72,Ca' Pirami,12.642,45.56
60,Listolade,12.007,46.317
86,Salice,15.494,38.251
60,Marinella,16.119,37.99
72,Cagnano Varano,15.772,41.829
72,Cusercoli,12.01,44.046
147,Ales,8.815,39.768
211,Atina Inferiore,13.79,41.632
72,Polignano a Mare,17.21,40.998
86,Osteria del Gatto,12.75,43.291
72,San Martino d'Agri,16.052,40.239
176,Nulvi,8.744,40.785
103,Bompietro,14.093,37.745
176,Marano Lagunare,13.168,45.764
60,Ameno,8.44,45.789
72,Palizzi,15.987,37.967
103,Picerno,15.643,40.641
86,Rotello,15.005,41.748
72,Agnone,14.997,40.217
86,San Lorenzo in Campo,12.947,43.602
123,Poli,12.891,41.889
123,Cogolo,10.692,46.353
60,Baselice,14.974,41.394
176,Troina,14.598,37.785
103,Taurisano,18.213,39.957
86,Introdacqua,13.898,42.01
103,Castelnuovo di Val di Cecina,10.902,43.211
103,Colombella,12.481,43.149
60,Tarsogno,9.625,44.449
86,Ardara,8.81,40.622
176,Colico Piano,9.373,46.133
147,Priolo Gargallo,15.18,37.158
103,Reggiolo,10.802,44.922
303,Tarquinia,11.757,42.248
123,Castelfranco Veneto,11.926,45.676
123,Doria,16.357,39.729
86,Vaglia,11.279,43.911
72,Sonnino,13.244,41.414
86,Creto,10.64,45.942
123,Levanzo,12.341,37.987
147,Orte,12.388,42.457
103,Varcaturo,14.063,40.904
103,Serradifalco,13.881,37.456
60,Petricci,11.557,42.757
147,Mogliano Veneto,12.236,45.562
147,Tramonti di Sopra,12.789,46.309
72,Gadoni,9.186,39.913
60,Lido Manfria,14.149,37.099
103,San Pietro Vernotico,17.996,40.491
86,Gioi,15.218,40.29
60,Giuncarico,10.992,42.907
72,Cutrofiano,18.202,40.127
60,Contignano,11.74,42.976
72,Polizzi Generosa,14.006,37.811
103,Trecate,8.738,45.436
363,Treviglio,9.592,45.524
86,San Giorgio Lucano,16.39,40.111
176,Palena,14.139,41.984
211,Badia Prataglia,11.879,43.794
60,Prato Nevoso,7.788,44.256
86,Scorzo,15.264,40.577
60,Cordignano,12.411,45.95
72,Ponterio,12.411,42.81
60,Leuca,18.358,39.799
60,Calascibetta,14.27,37.591
303,Villasimius,9.517,39.145
86,Valpiana,10.85,43.005
60,Colleridente,12.895,43.368
72,Sant'Antonio di Mavignola,10.79,46.192
147,Galatina,18.17,40.175
86,Merendaore,11.198,45.714
60,Plataci,16.433,39.899
60,Macenano,12.824,42.647
176,Ronco Canavese,7.545,45.498
86,Castel del Monte,13.727,42.366
86,Cicala,16.486,39.021
60,Cerreto d'Esi,12.985,43.319
60,Cavareno,11.138,46.409
72,Ruota,10.574,43.765
123,Borzonasca,9.39,44.42
60,Lido di Volano,12.265,44.797
72,Farindola,13.821,42.443
86,Miane,12.095,45.945
103,Isola del Gran Sasso d'Italia,13.655,42.508
86,Vaiano,11.126,43.965
103,Gombito,9.729,45.262
60,Castelsantangelo sul Nera,13.154,42.893
60,Quinto di Treviso,12.163,45.644
103,Martano,18.303,40.203
211,Castel Goffredo,10.476,45.298
103,Marina di Fuscaldo,16.007,39.42
303,Viu,7.376,45.239
123,Fiorenzuola d'Arda,9.914,44.922
147,San Martino in Passiria,11.227,46.784
60,San Calogero,16.02,38.574
72,Cattolica Eraclea,13.396,37.439
626,Policoro,16.67,40.209
86,Canicattini Bagni,15.065,37.032
123,Noasca,7.313,45.455
86,Cilavegna,8.745,45.31
60,Latignano,10.557,43.655
72,Marina,16.065,39.167
60,Cellole,13.853,41.204
123,Mercato,14.942,40.718
522,Cecina,10.519,43.314
72,Colfosco,11.855,46.554
123,Colle Sestriere,6.877,44.958
60,Oliveto,12.891,42.248
147,Budoni,9.708,40.703
176,Orosei,9.692,40.38
103,Lago,14.911,40.549
86,Fulgatore - Torretta,12.685,37.954
363,Nardo,18.031,40.179
211,Agrigento,13.589,37.321
86,Ponte Galeria-La Pisana,12.35,41.844
72,Bressana,9.132,45.079
253,Frosinone,13.351,41.639
60,Coccanile-Cesta,11.875,44.924
86,Valpelline,7.324,45.824
60,Vaccolino,12.18,44.801
1556,Perugia,12.379,43.099
123,Fonteblanda,11.17,42.566
103,Ostuni,17.576,40.728
363,Suzzara,10.745,44.99
626,Visso,13.086,42.933
86,Portofino,9.209,44.304
60,Castell'Aicardi,10.212,44.91
72,Monterosso Almo,14.765,37.089
60,Tasonis,9.269,39.308
123,San Piero Patti,14.967,38.051
60,Portalbera,9.319,45.098
147,Bastardo,12.561,42.87
60,Lutago,11.92,46.951
72,Castra,10.991,43.772
72,Macchia,14.981,40.655
72,Moneglia,9.495,44.238
123,Rocca di Neto,17.007,39.184
60,Galatone,18.069,40.145
147,Seregno,9.206,45.652
123,Illasi,11.181,45.467
60,Rivalta Bormida,8.554,44.709
147,Lungro,16.122,39.739
72,Tripi,15.097,38.047
123,San Sperate,9.008,39.359
211,Ortona,14.405,42.353
60,Montemaggiore Belsito,13.761,37.847
211,Varzo,8.246,46.21
60,Poligono,12.003,46.813
72,Mandatoriccio,16.835,39.468
123,Ferla,14.94,37.12
86,Francavilla al Mare,14.283,42.421
60,Villafranca,8.103,44.034
211,Pianoro,11.341,44.393
103,Lula,9.487,40.47
103,Marta,11.925,42.533
60,Castello Tesino,11.632,46.063
123,Ostiglia,11.136,45.074
123,Verzuolo,7.484,44.594
147,Marmirolo,10.757,45.219
86,Mattine,15.025,40.385
86,Miranda,14.248,41.645
72,Rezzato,10.316,45.514
211,Demonte,7.297,44.315
60,Antey-Saint-Andre,7.588,45.807
253,Mesoraca,16.789,39.077
363,Vipiteno,11.431,46.891
72,Calizzano,8.12,44.236
123,Roggiano Gravina,16.16,39.615
72,Pietraperzia,14.137,37.419
86,Camastra,13.791,37.255
72,Borgia,16.513,38.825
72,Guzzano,13.828,42.666
72,Santa Lucia,13.251,43.616
86,Frontino,12.376,43.765
103,Pratola Peligna,13.874,42.098
60,Raccolana,13.315,46.408
103,Narcao,8.675,39.169
60,Piazza,10.158,45.591
123,Mede,8.735,45.098
86,Villorba,12.26,45.713
253,Cremona,10.02,45.143
60,Vidor,12.046,45.871
147,Corato,16.413,41.154
103,Carrozziere,15.272,37.036
176,Fregene,12.199,41.853
72,Sabbio Chiese,10.42,45.657
103,Oulx,6.831,45.036
72,Orciano di Pesaro,12.971,43.689
211,Irsina,16.242,40.746
103,Torano,13.26,42.15
72,Corazzano,10.872,43.619
103,Cherasco,7.858,44.646
60,Lacchiarella,9.137,45.322
123,Sardara,8.82,39.616
60,Fara San Martino,14.205,42.09
147,Montalto di Castro,11.607,42.35
60,Altedo,11.49,44.671
103,Castel San Giovanni,9.436,45.059
60,Gosi - Planaval,7.777,44.337
86,Offida,13.701,42.936
72,Jenne,13.169,41.888
147,Francavilla in Sinni,16.203,40.079
86,Villadossola,8.267,46.073
147,Luino,8.749,46.001
123,San Giovanni Reatino,12.854,42.345
86,Piovene Rocchette,11.436,45.758
123,Magugnano,10.761,45.7
123,Busseto,10.042,44.98
60,Gaggio Montano,10.933,44.196
103,Casazza,9.907,45.749
86,La Vittoria,13.43,41.678
103,Fucecchio,10.802,43.734
103,San Biase,16.093,39.224
147,Arzignano,11.338,45.519
72,San Giorgio la Molara,14.928,41.272
1081,Sondrio,9.877,46.169
86,Meggiano,12.865,42.755
103,Uri,8.492,40.637
60,Delia,13.93,37.359
60,Aldeno,11.093,45.978
123,Robbio,8.595,45.29
60,Bellano,9.305,46.043
86,Bibbona,10.594,43.269
60,Porzano,10.197,45.399
72,Cerveteri,12.088,41.988
86,San Sosti,16.027,39.66
211,Vaccarizzo-Delfino,15.083,37.374
303,Mazara del Vallo,12.58,37.662
60,Leini,7.714,45.183
211,Trivento,14.551,41.777
86,Ariano,12.123,44.946
72,Catania,15.087,37.502
72,Melissa,17.029,39.31
60,Istia d'Ombrone-Le Stiacciole,11.186,42.781
72,Sibari,16.456,39.745
103,Suno,8.541,45.633
1297,Cuneo,7.545,44.397
72,Palombaio,16.609,41.069
60,Paroldo,8.071,44.433
103,Palata,14.787,41.888
123,Petrella Tifernina,14.697,41.691
123,Schilpario,10.162,46.009
147,Pieve Torina,13.046,43.043
123,Alleghe,12.025,46.407
60,Medole,10.514,45.328
72,San Martino,8.517,44.392
72,Solignano,9.976,44.613
176,Torre San Sabina,17.698,40.753
176,Terzone,13.069,42.618
72,Monte Santa Maria Tiberina,12.161,43.438
60,Seggiano,11.558,42.929
123,Mele,8.747,44.445
72,Piano Caruso,16.528,39.559
1297,Sanremo,7.757,43.819
303,Carbonia,8.523,39.165
103,Cava d'Aliga,14.69,36.731
60,Nonio,8.378,45.846
60,Gropparello,9.731,44.834
72,Borgo Vercelli,8.464,45.357
211,Monte Nai,9.571,39.252
72,Sarzana,9.956,44.116
72,Pietragalla,15.875,40.746
211,Pavullo nel Frignano,10.835,44.331
363,Sampeyre,7.19,44.578
72,San Giovanni,14.418,42.017
60,Caravaggio,9.641,45.495
103,Abano Terme,11.783,45.362
60,Pozza,13.416,42.742
72,Vigasio,10.94,45.315
123,Sanza,15.553,40.245
72,Statte,17.21,40.563
147,Fabro Scalo,12.044,42.875
123,San Giovanni,11.942,46.981
176,Castelsardo,8.71,40.914
60,Sassalbo,10.195,44.288
103,Borgo Venusio,16.579,40.723
86,Dovera,9.542,45.365
103,Caccamo,13.67,37.936
147,Filicudi Porto,14.577,38.562
123,Lama,10.732,44.307
103,Santo Stefano-Carraie,12.184,44.311
751,Livorno,10.326,43.547
72,Menniti,16.311,38.746
72,Bando,11.886,44.644
2688,Lampedusa,12.61,35.5
72,Torre di Fine,12.749,45.567
123,Accettura,16.158,40.491
72,Mercatello sul Metauro,12.334,43.647
147,Ginosa,16.756,40.58
123,Ponte dell'Olio,9.643,44.869
103,Camporeale,13.094,37.898
60,Villa Raverio,9.265,45.693
72,Montelanico,13.04,41.652
72,Rocchetta Sant'Antonio,15.462,41.103
103,Sorso,8.577,40.801
72,Ailano,14.206,41.389
72,Bisceglie,16.504,41.241
103,San Giovanni Suergiu,8.522,39.112
72,Paringianu,8.428,39.176
176,Vittorio Veneto,12.296,45.99
72,Avendita,13.051,42.754
86,Cesacastina,13.447,42.589
86,Prezza,13.835,42.059
103,Mignano Monte Lungo,13.985,41.407
363,Gorizia,13.614,45.934
626,Mantova,10.773,45.153
103,Vergato,11.113,44.285
1867,Bolzano,11.334,46.493
86,Montelibretti,12.739,42.135
60,Marcheno,10.217,45.709
211,Cortemilia,8.193,44.578
103,Castel Madama,12.866,41.974
60,Corcolle,12.73,41.914
72,Corigliano d'Otranto,18.259,40.159
60,Salmour,7.792,44.576
103,Biandrate,8.463,45.453
103,Seulo,9.236,39.87
103,Mortegliano,13.172,45.945
72,Rivarolo Mantovano,10.436,45.07
86,Sedilo,8.922,40.172
147,Scordia,14.843,37.296
103,San Bernardo,10.846,46.4
435,Bressanone,11.657,46.709
176,Ramacca,14.692,37.388
60,Cappone,12.744,43.828
147,Palestrina,12.88,41.831
72,Castelvetere sul Calore,14.986,40.93
901,Latina,12.898,41.465
86,Vietri di Potenza,15.509,40.6
103,Pegognaga,10.86,44.993
60,San Nicola,8.991,40.611
60,Fresagrandinaria,14.662,41.978
60,Ceselli,12.817,42.686
147,Rocca San Casciano,11.843,44.059
303,Vicenza,11.541,45.557
72,Caldana,10.924,42.894
147,Volturino,15.123,41.477
60,Canosio,7.082,44.455
60,Sporminore,11.03,46.237
86,Alvignano,14.337,41.245
86,Cervarezza,10.331,44.39
72,San Giovanni Incarico,13.558,41.501
72,Bistagno,8.37,44.662
211,Macerata,13.44,43.299
103,Spresiano,12.261,45.776
72,Bari Sardo,9.647,39.842
86,Cencenighe Agordino,11.971,46.347
103,Sale Marasino,10.111,45.704
123,Trecenta,11.461,45.031
72,Cernobbio,9.068,45.841
86,Guardavalle Marina,16.578,38.481
86,Palazzo Adriano,13.379,37.681
123,Alberobello,17.237,40.784
176,Enego,11.707,45.941
123,San Priamo,9.561,39.358
86,Rocca Pia,13.977,41.934
72,San Martino di Castrozza,11.801,46.263
123,San Quirico,10.691,43.969
147,Plan,11.089,46.795
72,Terento,11.78,46.831
60,San Bovio-San Felice,9.311,45.465
86,Morozzo,7.709,44.422
72,Pralormo,7.902,44.86
522,Nicosia,14.397,37.747
147,Monesiglio,8.118,44.466
86,Monforte d'Alba,7.97,44.582
60,Monterchi,12.111,43.489
60,Ceresara,10.566,45.262
60,San Giovanni d'Asso,11.591,43.152
86,Stia,11.708,43.802
103,Nove-San Floriano,12.309,46.04
86,Terlano,11.245,46.533
103,Claviere,6.752,44.939
253,Caprino Veronese,10.796,45.604
147,Taverna,16.229,39.432
60,Rio Saliceto,10.806,44.812
103,Secinaro,13.683,42.151
72,Fossacesia,14.483,42.243
103,Cerea,11.207,45.193
60,San Damiano al Colle,9.347,45.025
72,Tivoli,12.774,41.958
72,Malo,11.403,45.66
303,Rieti,12.869,42.406
86,Busso,14.559,41.557
72,Volturara Irpina,14.917,40.884
123,Moncalieri,7.686,45.008
86,Ardauli,8.913,40.084
60,Cantiere-Ponticello,9.915,44.345
72,Villa,11.762,46.745
86,Trodena,11.35,46.322
211,Novafeltria,12.289,43.895
147,Lagonegro,15.766,40.124
72,Valtopina,12.755,43.055
86,Pietracuta,12.372,43.955
176,Avigliano,15.718,40.73
86,Spelonga,13.3,42.759
86,San Casciano in Val di Pesa,11.187,43.659
72,Pescolanciano,14.337,41.679
86,Marina di Campo,10.238,42.75
60,Aliano,16.229,40.313
103,Torriglia,9.159,44.519
60,Cerano,8.781,45.408
60,Rossiglione,8.669,44.564
123,Torniella,11.154,43.074
86,Teora,15.253,40.853
86,Albareto,9.702,44.447
60,Pietra Marazzi,8.664,44.942
86,Ofena,13.759,42.326
103,Casinina,12.587,43.816
60,Montecchio Maggiore-Alte Ceccato,11.424,45.503
72,Poggio Imperiale,15.368,41.825
72,Orciano Pisano,10.511,43.494
303,Feltre,11.898,46.017
86,Borgonuovo,11.27,44.437
147,Erba,9.23,45.81
60,Traversara,12.027,44.412
123,Nesso,9.157,45.913
176,Orgosolo,9.355,40.204
147,Padru,9.522,40.767
60,Intragna,8.572,45.994
103,Spilamberto,11.017,44.534
303,Carmagnola,7.718,44.847
1081,Castrovillari,16.203,39.812
72,San Colombano al Lambro,9.492,45.181
253,Bronte,14.835,37.789
72,Isola Albarella,12.341,45.076
72,Spinoso,15.966,40.27
72,Baia,14.252,41.303
176,Vejano,12.094,42.219
72,Villatora,11.965,45.384
253,Lercara Friddi,13.604,37.746
72,Fertilia,8.282,40.594
86,Raossi,11.119,45.783
123,Recanati,13.544,43.405
72,Borgo d'Ale,8.051,45.351
123,Altare,8.333,44.337
123,Zola,11.219,44.49
86,Cesolo,13.193,43.259
60,Valla,11.933,45.707
60,Noicattaro,16.99,41.034
103,Forni di Sopra,12.581,46.422
60,Calavino,10.985,46.047
60,Colle,11.313,46.865
86,Campora,15.293,40.305
176,Pieve di Teco,7.914,44.048
60,Fiastra,13.156,43.036
103,Atella,15.651,40.88
86,San Vito al Tagliamento,12.859,45.92
176,Botricello,16.857,38.936
103,Oppeano,11.18,45.305
60,Corigliano Scalo,16.511,39.627
303,Casale Monferrato,8.458,45.133
86,Ceppo Morelli,8.069,45.971
123,Buseto Palizzolo,12.724,38.016
60,Roseto Valfortore,15.096,41.372
60,Castelluccio,13.209,42.828
123,Premia,8.333,46.266
72,Rocchetta Nuova,14.087,41.625
60,Montelupone,13.57,43.343
60,Gargazzone,11.201,46.584
123,Arnaccio,10.451,43.645
72,Castelgrande,15.429,40.786
123,Misilmeri,13.448,38.028
253,Moliterno,15.86,40.243
72,Brinzio,8.785,45.89
86,Cinelli,11.974,42.316
103,Pieve Porto Morone,9.441,45.109
72,Casabona,16.957,39.25
60,San Michele,12.112,44.405
60,Issime,7.854,45.687
72,Pieve di Coriano,11.104,45.038
72,Casamassella,18.451,40.115
86,Segni,13.013,41.688
363,Terracina,13.228,41.287
103,Bondeno,11.416,44.885
86,Secca Grande,13.24,37.436
86,Saline,10.813,43.363
60,Domegge di Cadore,12.402,46.454
60,Ligonchio,10.342,44.315
522,Andria,16.295,41.227
86,San Giovanni in Persiceto,11.184,44.64
86,Linguaglossa,15.14,37.843
751,Agropoli,14.996,40.347
72,Tregnago,11.164,45.517
147,Paterno,14.905,37.569
176,Bobbio,9.383,44.768
176,Russi,12.033,44.375
60,Lagrimone,10.24,44.493
147,Donoratico,10.569,43.17
123,Manciano,11.516,42.587
1081,Rimini,12.577,44.049
72,Casto,10.321,45.695
86,Bisaccia Nuova,15.356,41.009
123,Branzi,9.76,46.003
72,Beinette,7.645,44.365
60,Artena,12.9,41.742
303,Garessio,8.018,44.203
211,Fanano,10.801,44.214
253,Budduso,9.258,40.579
60,Case Nuove,10.309,44.834
123,Paliano,13.059,41.806
86,Villapriolo,14.194,37.63
72,Foglianise,14.672,41.163
211,Grimacco,13.599,46.173
72,Stregna,13.577,46.128
86,Brusnengo,8.251,45.593
86,Arenzano,8.673,44.404
60,Bareto,12.196,43.995
72,Sauris di Sotto,12.708,46.467
211,Braccagni,11.074,42.873
60,San Nicola,16.374,38.415
72,Nugola,10.442,43.578
72,Alessandria della Rocca,13.454,37.568
303,Longobucco,16.611,39.448
176,Gualdo Tadino,12.78,43.233
123,Chiusa,11.566,46.64
60,Poggio Sannita,14.415,41.78
60,Granozzo,8.573,45.36
60,Valle Santa,12.322,41.939
86,Sanfre,7.803,44.75
60,Airole,7.555,43.871
86,Palau,9.392,41.178
86,Ceglie Messapica,17.516,40.649
72,Campagnatico,11.274,42.884
147,Sigillo,12.741,43.331
751,Ferrara,11.619,44.836
60,Auna di Sotto,11.44,46.511
103,Pontelongo,12.025,45.247
253,Villa Santa Maria,14.352,41.952
363,Senise,16.289,40.147
60,Vallepietra,13.233,41.926
147,Magliano Sabina,12.488,42.367
60,Bagno Lad,11.079,46.578
60,Collevecchio,12.552,42.335
60,Sant'Angelo,12.018,45.519
123,Castiglione d'Orcia,11.616,43.005
86,Salto Covino,13.336,41.301
86,Cerisano,16.176,39.278
147,Dro,10.912,45.962
103,Palazzo del Pero,11.976,43.422
72,Mori,10.981,45.85
60,San Secondo,12.233,43.406
72,Fitta,11.254,45.453
60,Envie,7.371,44.682
147,Urzulei,9.508,40.093
103,Commenda,12.015,42.491
86,Netro,7.948,45.54
103,Poggio Rusco,11.118,44.974
211,Amantea,16.075,39.13
86,San Benedetto,8.527,39.363
103,San Varese,9.05,45.235
147,Forno di Zoldo,12.177,46.352
211,Crema,9.678,45.359
86,Brallo,9.282,44.738
72,Borrello,14.305,41.917
72,Pittulongu,9.57,40.947
103,Grisi,13.091,37.953
60,Papasidero,15.907,39.872
60,Scandriglia,12.843,42.161
123,Conversano,17.111,40.97
72,Petina,15.373,40.532
103,Marsaglia,7.981,44.454
522,Ceva,8.026,44.383
123,Sos Alinos,9.766,40.438
60,Giovinazzo,16.668,41.186
123,Pizzoli,13.309,42.431
60,Botteghino,10.361,44.749
86,Caorso,9.871,45.048
103,Torrita di Siena,11.78,43.169
147,Terenzo,10.088,44.612
72,Paese,12.162,45.676
60,Grange,7.691,45.265
211,Broni,9.265,45.066
103,Mineo,14.691,37.265
60,Locorotondo,17.322,40.758
72,Cozzana,17.22,40.923
60,Avacelli,12.983,43.47
72,Pedagaggi,14.938,37.192
103,Tricase,18.353,39.931
72,Petilia Policastro,16.786,39.114
86,Sant'Antonio,11.72,44.559
72,Pezzolo,15.459,38.086
86,Montalbano,17.481,40.78
72,Quarrata,10.981,43.85
123,Porto San Paolo,9.625,40.873
147,Tusa,14.236,37.984
86,Goito,10.672,45.255
60,Pancole,11.302,42.715
123,Saturnia,11.504,42.665
72,Fornovo di Taro,10.102,44.694
123,Calabritto,15.224,40.784
123,Anterselva di Mezzo,12.1,46.859
72,Millesimo,8.202,44.367
60,Felonica,11.354,44.979
147,Isola del Cantone,8.958,44.646
303,Citta di Castello,12.233,43.469
86,Morolo,13.198,41.639
103,Battaglia Terme,11.78,45.292
86,Termini,14.338,40.591
86,Strada,11.711,43.745
72,Petrignano,12.535,43.099
86,Cedegolo,10.348,46.078
72,Terranova di Pollino,16.296,39.978
72,Chiusdino,11.083,43.155
72,Cittareale,13.156,42.616
123,Baselga di Pine,11.244,46.127
72,Albinea,10.606,44.625
147,Cantu,9.14,45.729
211,Chieti,14.139,42.361
60,Offlaga,10.116,45.386
60,Passopisciaro,15.036,37.872
103,La Cretaz-Roisan,7.312,45.784
72,Lido di Dante,12.314,44.385
176,Fonni,9.254,40.117
253,Marsciano,12.347,42.903
60,Mezzanone,15.71,41.421
103,Riesi,14.082,37.282
60,Mas,12.129,46.151
176,Venafro,14.044,41.484
211,Comunanza,13.414,42.958
60,Ponzano,10.963,43.966
303,Jesi,13.24,43.529
72,Santa Maria Nuova,13.313,43.494
72,Isola Bella,12.806,41.562
86,Pescocostanzo,14.066,41.886
72,Rocca Sinibalda,12.925,42.273
211,Paola,16.039,39.358
103,Caulonia,16.409,38.382
901,Nuoro,9.311,40.318
86,Borgagne,18.377,40.24
147,Torre de' Passeri,13.934,42.244
86,Rivergaro,9.604,44.917
147,Orune,9.37,40.409
363,Zapponeta,15.956,41.457
435,Legnago,11.308,45.19
86,Ciampino,12.607,41.801
103,Berchiddeddu,9.463,40.822
86,Bibione,13.023,45.633
72,Buonabitacolo,15.62,40.271
176,Praia a Mare,15.779,39.902
86,Mussomeli,13.754,37.581
72,Gioiella,11.97,43.093
72,Campomarino,15.032,41.955
147,Manzano,13.378,45.991
86,Grigno,11.637,46.016
86,Alassio,8.164,44.008
253,Vetralla,12.078,42.31
72,Paterno,15.733,40.378
72,Romanengo,9.785,45.379
123,Serracapriola,15.162,41.81
176,Sant'Agata di Militello,14.633,38.068
435,Piombino,10.527,42.922
60,Lugagnano Val d'Arda,9.827,44.823
72,Poggiardo,18.378,40.057
72,Chions,12.712,45.844
86,Odalengo Grande,8.165,45.11
147,Villamagna,10.839,43.481
103,Aprigliano,16.342,39.24
147,Ca' Tiepolo,12.321,44.95
176,Pomonte,10.122,42.749
72,Trarivi,12.543,43.937
60,Chieuti,15.166,41.844
86,Pietramontecorvino,15.129,41.543
147,Burcei,9.359,39.343
363,Stigliano,16.231,40.401
60,Pianella,14.048,42.4
86,Dobbiaco,12.225,46.724
72,San Giovanni,12.049,44.727
176,Bitonto,16.69,41.111
211,Borgomanero,8.458,45.701
72,Carmignano,11.648,45.149
211,Ivrea,7.872,45.458
103,Collecchio,10.212,44.754
176,Castel San Lorenzo,15.226,40.421
60,Bonelli,12.461,44.872
123,Cardedu,9.625,39.796
60,Dese,12.304,45.53
103,Lugo,11.912,44.421
72,Ghibullo,12.139,44.346
86,Cerredolo,10.616,44.404
60,Massa,12.932,43.189
103,Ferentino,13.249,41.694
123,Orvinio,12.938,42.131
72,Capracotta,14.265,41.833
147,Oppido Lucano,15.989,40.763
60,Bivio,14.144,41.594
60,San Pietro in Casale,11.406,44.7
103,Sant'Elia a Pianisi,14.875,41.622
72,Gardola,10.721,45.741
147,Priverno,13.187,41.469
72,Gesico,9.107,39.617
86,Cavaglia,8.093,45.407
103,Priatu,9.316,40.936
72,Centa San Nicolo,11.233,45.969
253,Paquier,7.624,45.88
60,Mongiana,16.318,38.513
211,Piazza Armerina,14.371,37.388
147,Casina,10.499,44.51
103,Sellia Marina,16.748,38.886
147,Collelongo,13.584,41.887
303,Siderno,16.297,38.279
60,Ruffano,18.246,39.984
123,Fubine,8.43,44.963
72,Macchie,12.073,43.06
72,Montecalvo,11.378,44.432
123,Arpino,13.612,41.648
60,Lupara,14.734,41.762
86,Zavattarello,9.266,44.867
86,Pignone,9.725,44.178
86,Locri,16.264,38.237
147,Borello,12.179,44.053
86,Albano di Lucania,16.036,40.584
123,Lesa,8.556,45.821
72,Santa Domenica Vittoria,14.963,37.915
147,Valdagno,11.304,45.648
86,Decollatura,16.353,39.05
86,Fortogna,12.289,46.232
147,Casoli,14.291,42.113
363,Mistretta,14.361,37.929
72,Sant'Angelo dei Lombardi,15.18,40.926
72,Ronta,11.432,44.005
86,Calci,10.518,43.73
72,Tizzano Val Parma,10.199,44.521
147,Goro,12.3,44.855
86,Rossi,8.059,44
86,Adelfia,16.872,41.001
176,Piano di Coreglia-Ghivizzano,10.505,44.033
72,Alfano,15.425,40.177
60,Buccino,15.381,40.634
123,Brisighella,11.77,44.221
72,Pioraco,12.986,43.179
72,Robecco sul Naviglio,8.887,45.437
103,Lariano,12.833,41.721
72,Zeme,8.669,45.198
72,Stroppo,7.126,44.51
86,Taverna Ravindola,14.128,41.521
123,Barcellona Pozzo di Gotto,15.211,38.147
72,San Sebastiano Curone,9.065,44.787
123,Dimaro,10.871,46.326
72,Casaloldo,10.475,45.255
72,Sant'Albano Stura,7.724,44.508
123,Laghetto,12.726,41.855
123,Capizzi,14.478,37.848
123,Scopello,8.093,45.773
86,Castellina in Chianti,11.279,43.472
60,Acerenza,15.936,40.794
103,Orciatico,10.726,43.435
253,Montefiascone,12.033,42.542
72,Collebrincioni,13.415,42.399
60,Mottaziana,9.508,45.016
123,Oleggio,8.643,45.601
86,Gorfigliano,10.25,44.145
60,Vagliagli,11.348,43.421
123,Castelfranco Emilia,11.051,44.596
72,Longi,14.753,38.027
147,Molinella,11.671,44.618
123,Verbicaro,15.91,39.759
86,Perino,9.503,44.819
72,Montepulciano,11.787,43.102
72,Vita,12.823,37.872
72,Asuni,8.946,39.872
86,Gossolengo,9.619,45.003
86,Valli,12.191,45.223
176,Ovaro,12.867,46.486
60,Portopalo di Capo Passero,15.135,36.683
123,Settime,8.114,44.962
72,Vivaro,12.776,46.077
176,Figline Valdarno,11.47,43.62
435,Benevento,14.776,41.125
103,Mattarello,11.129,46.008
103,Orsara di Puglia,15.267,41.282
522,Lucca,10.501,43.86
147,Bivio Santa Cecilia,15,40.523
60,Cortemaggiore,9.931,44.994
123,Cannobio,8.696,46.064
72,Campotosto,13.368,42.559
147,Castel Volturno,13.941,41.035
522,Macomer,8.766,40.262
60,San Chirico Raparo,16.076,40.191
60,Polverara,11.956,45.309
103,San Felice,11.131,46.493
72,Pettineo,14.292,37.967
72,Apecchio,12.419,43.558
60,Casorzo,8.341,45.022
86,Quartu Sant'Elena,9.239,39.229
435,San Severo,15.377,41.686
147,Livorno Ferraris,8.075,45.284
86,Lizzano,17.447,40.391
103,Colle Isarco,11.443,46.937
86,Termine,13.209,42.444
103,Ranchio,12.081,43.97
147,Perfugas,8.883,40.832
103,Cerqueto,12.318,42.953
60,Alberone,9.518,45.136
123,Vinovo,7.634,44.948
86,Bracciano,12.171,42.104
72,Mezzolara,11.565,44.59
147,Giugliano in Campania,14.195,40.929
72,Castellucchio,10.649,45.147
103,Arona,8.556,45.75
60,Santa Croce,12.331,46.092
60,Salvatonica,11.451,44.925
72,Consandolo,11.775,44.653
103,Zappolino,11.11,44.435
60,Sarezzo,10.196,45.661
176,Arce,13.574,41.586
72,Dubino,9.43,46.171
72,Castellammare del Golfo,12.886,38.019
103,Rassina,11.835,43.649
103,Otricoli,12.477,42.421
435,Asti,8.209,44.901
72,Prato Sesia,8.373,45.65
147,Bovolone,11.127,45.256
123,Chiesa in Valmalenco,9.848,46.265
60,Chiesanuova,13.325,43.338
60,Marciano,11.786,43.304
72,Presina,11.752,45.561
72,Pietrabbondante,14.384,41.747
86,Sestri Levante,9.393,44.27
123,Faicchio,14.476,41.278
253,Bozzolo,10.482,45.104
72,Cis,11.002,46.399
123,Valvori,13.889,41.564
72,Gradella,9.532,45.425
86,Vighizzolo,10.364,45.432
86,Poviglio,10.54,44.844
626,Resia,10.518,46.83
72,Pianello,12.554,43.513
363,Monterotondo,12.625,42.057
123,Sesta Godano,9.674,44.291
176,Bormio,10.37,46.469
60,Isnello,14.007,37.944
123,Fiesso Umbertiano,11.604,44.961
103,Rosolina,12.243,45.075
86,Scilla,15.719,38.253
86,Poggio Piccolo,11.613,44.438
72,Salbertrand,6.883,45.072
60,San Pietro d'Olba,8.589,44.487
363,Alcamo,12.962,37.983
72,Perteole,13.377,45.85
60,Trevignano,12.067,45.736
72,Pecorara,9.384,44.877
253,Troia,15.313,41.364
72,Castelnuovo,13.695,42.729
123,Canonica,12.406,44.058
103,Borore,8.804,40.217
103,Usseaux,7.026,45.049
147,Borriana,8.038,45.506
522,Lanciano,14.388,42.217
123,Forenza,15.857,40.859
60,Trecasali,10.275,44.938
72,Monzone,10.128,44.165
86,Crevalcore,11.15,44.72
751,Livigno,10.135,46.535
303,Cles,11.034,46.365
60,Zocca,10.991,44.347
123,Cesenatico,12.402,44.198
72,Giuliano,15.772,40.683
211,Malfa,14.837,38.578
103,Felitto,15.25,40.371
253,Voghera,9.001,44.991
60,Poggiodomo,12.932,42.713
86,Longare,11.611,45.473
72,Crodo,8.323,46.219
123,Collodi,10.662,43.892
60,Mascioni,13.348,42.528
123,Rivarolo Canavese,7.717,45.331
60,Monte Petrosu,9.657,40.842
86,Masella,15.755,37.966
253,Breo,7.817,44.395
60,Sandrigo,11.596,45.661
147,Ottone,9.333,44.624
60,Castelluccio,14.465,42.133
72,Roveleto,9.852,44.963
72,Siusi,11.561,46.545
72,Lido di Ostia,12.274,41.737
147,Caramanico Terme,14.008,42.16
60,San Clemente,11.457,43.719
86,Ghiare,9.928,44.552
176,Montresta,8.5,40.374
176,Grado,13.387,45.675
103,Gesuiti,16.135,39.359
103,Grassina Ponte a Ema,11.294,43.725
211,Pieve di Cadore,12.366,46.423
253,Ariano Irpino-Martiri,15.092,41.154
60,Rina,11.879,46.715
211,Comacchio,12.181,44.696
60,Aquilonia,15.475,40.987
103,Gaifana-Colle,12.79,43.168
72,Riomaggiore,9.74,44.1
60,Montemurro,15.992,40.297
86,Apiro,13.132,43.39
123,Revello,7.391,44.655
253,Molfetta,16.597,41.201
147,Trino,8.296,45.192
72,Piano,8.31,44.456
72,Torre San Severo,12.063,42.672
60,Cortoghiana,8.462,39.212
72,Maissana,9.534,44.338
60,Baja Sardinia,9.479,41.138
123,Campanella-Gianforma,14.835,36.927
60,Lerma,8.708,44.633
123,Meiern,10.783,46.564
72,Runzi,11.506,44.988
72,Cutigliano,10.755,44.102
147,Fondo,11.138,46.438
123,Apricena,15.444,41.787
72,Frasso Telesino,14.527,41.157
86,Casale di Pari,11.291,43.053
60,Traversetolo,10.378,44.642
72,Cittadella del Capo,15.877,39.557
60,Feletto,7.745,45.304
86,Tavernelle,12.884,43.732
123,Apice,14.93,41.12
176,Caltavuturo,13.893,37.82
60,Norma,12.972,41.588
60,Pancarana,9.051,45.075
211,Conegliano,12.295,45.877
86,Calimera,18.278,40.251
72,Crevoladossola,8.299,46.15
60,Pievescola,11.131,43.311
72,Simala,8.827,39.721
60,Santa Lucia di Piave,12.292,45.846
147,Poirino,7.846,44.922
86,Altomonte,16.139,39.695
86,Torre Orsaia,15.476,40.133
60,Ateleta,14.199,41.855
72,Isca,15.584,40.538
522,Tertenia,9.577,39.697
103,Stazione di Allerona,12.037,42.784
60,Hone,7.738,45.614
72,Montagano,14.675,41.645
60,Fai della Paganella,11.068,46.175
60,Agugliaro,11.587,45.324
147,Finale Emilia,11.292,44.833
72,Novi di Modena,10.902,44.891
103,Zafferana Etnea,15.108,37.682
147,Catenanuova,14.692,37.57
211,Cervia,12.35,44.261
60,Nespolaro,15.982,38.454
147,Gubbio,12.579,43.353
211,Fidenza,10.067,44.863
123,Siculiana,13.424,37.335
86,Valle Castellana,13.497,42.736
60,Castelseprio,8.862,45.716
147,Racconigi,7.674,44.767
253,Pitigliano,11.674,42.635
86,Racalmuto,13.735,37.407
86,Nocera Scalo,16.121,39.014
123,Montemonaco,13.33,42.899
253,Francavilla Fontana,17.584,40.533
60,Anticoli Corrado,12.991,42.009
123,Casalbuono,15.686,40.215
60,Saronsella,7.927,45.162
86,Pozza di Fassa,11.69,46.431
303,Pinerolo,7.333,44.884
303,Mondragone,13.889,41.113
60,Montenerodomo,14.252,41.975
72,Eia,10.265,44.834
147,Re,8.549,46.132
72,Ponte Buggianese,10.748,43.848
72,Limiti di Greccio,12.768,42.454
60,Gioia,16.396,39.521
86,San Fratello,14.598,38.017
72,Esperia,13.688,41.383
86,San Genesio,11.924,46.658
86,Santo Stefano di Magra,9.917,44.156
86,Rocchetta Tanaro,8.346,44.857
123,Mormanno,15.994,39.896
123,Barcis,12.561,46.191
60,Monreale,13.292,38.08
60,Maruggio,17.573,40.322
103,Sante Marie,13.203,42.103
103,Cavo,10.42,42.859
103,Oliveto Citra,15.23,40.686
103,Acquaviva delle Fonti,16.843,40.898
60,Gravellona Toce,8.431,45.93
60,Medesano,10.139,44.757
60,Fratte,13.853,42.334
60,Col-Roncan,12.295,46.149
60,Morsella,8.81,45.284
123,Vallelunga Pratameno,13.832,37.682
72,Rudalza,9.533,41.001
60,Mezzoldo,9.665,46.012
123,Brusago,11.326,46.182
86,Valenzani,8.3,44.919
103,Villadoro,14.262,37.693
176,Brunico,11.929,46.795
60,Villa Rendena,10.71,46.064
147,Laives,11.335,46.423
86,Pievepelago,10.616,44.205
147,Santa Croce di Magliano,14.989,41.71
176,Ittiri,8.567,40.593
86,Arborio,8.387,45.495
147,San Giovanni Rotondo,15.72,41.705
72,Sperlonga,13.433,41.26
103,Riva del Garda,10.846,45.897
60,Bene Vagienna,7.828,44.543
103,Valfenera,7.962,44.899
72,Rassa,8.011,45.769
72,Putifigari,8.46,40.562
72,Le Forna,12.972,40.926
60,Castelfidardo,13.539,43.46
147,Strongoli,17.054,39.266
60,Boccasette,12.424,44.999
176,Quercianella,10.368,43.459
123,Brancaleone-Marina,16.097,37.962
86,Taggia,7.852,43.842
103,Bella Farnia,12.976,41.366
72,Pianella,11.415,43.354
522,Bibbiena,11.814,43.696
86,Sefro,12.948,43.147
123,Frabosa Soprana,7.806,44.289
72,Bolgheri,10.619,43.234
123,Rodigo,10.625,45.2
303,Fermo,13.73,43.166
147,Orani,9.18,40.25
86,Dualchi,8.897,40.229
103,Carovilli,14.295,41.713
72,Oseacco,13.311,46.364
211,Bitti,9.386,40.48
86,Gallese,12.395,42.375
103,Fossombrone,12.812,43.691
60,Palinuro,15.288,40.038
60,Pietrapertosa,16.063,40.518
176,Golfo Aranci,9.614,41.006
103,Castelvetrano,12.791,37.683
253,Abbadia San Salvatore,11.676,42.878
60,Goriano Valli,13.667,42.18
86,Gottolengo,10.268,45.293
435,Sinalunga,11.748,43.215
72,Savelli,16.777,39.313
86,Pietralunga,12.435,43.441
86,Brenna,11.233,43.203
60,Mamoiada,9.281,40.216
123,Villa d'Agri,15.826,40.356
123,Novalesa,7.015,45.192
72,Caprese Michelangelo,11.985,43.639
60,San Giovanni-Patoni,13.276,41.77
147,Taurianova,16.011,38.357
60,Scheggia,12.667,43.404
123,Vestone,10.4,45.709
103,Salsomaggiore Terme,9.98,44.815
86,Pontedassio,8.015,43.938
86,Villamassargia,8.641,39.274
86,Fossona,11.693,45.403
60,Soriano Calabro,16.222,38.602
522,Pavia,9.16,45.184
72,Ospitale di Cadore,12.322,46.327
123,Scicli,14.702,36.79
86,Pontelandolfo,14.689,41.294
60,Paveto,8.903,44.538
211,Codroipo,12.985,45.957
123,Marsaglia,9.382,44.713
72,Cotignola,11.939,44.387
86,Palazzo San Gervasio,15.983,40.931
86,Colosimi,16.399,39.12
176,Randazzo,14.951,37.877
123,Lode,9.539,40.591
103,Citta della Pieve,12.005,42.956
435,Villaggio San Domino,15.49,42.116
253,Paularo,13.118,46.528
303,Sciacca,13.076,37.509
123,Celano,13.544,42.083
103,Agira,14.52,37.656
86,Aurelia,11.785,42.137
147,Escalaplano,9.354,39.625
60,Rimasco,8.061,45.859
72,Ciafe,13.34,41.673
72,Jelsi,14.799,41.518
86,None,7.539,44.933
60,Pratolino,11.297,43.861
211,Vieste,16.176,41.883
86,Arcole,11.288,45.359
86,Curinga,16.311,38.827
72,Marina di Ragusa,14.558,36.785
123,Assemini,9.006,39.286
901,San Benedetto del Tronto,13.881,42.934
72,Vernole,18.303,40.289
147,Mercatale,12.138,43.256
176,Mazzarino,14.21,37.302
60,Il Castagno d'Andrea,11.659,43.897
60,Configni,12.642,42.424
86,Pretare,13.302,42.798
103,Destro,16.695,39.491
86,Sestino,12.298,43.709
103,Arta Terme,13.019,46.48
60,Serravalle di Carda,12.497,43.542
147,Marineo,13.414,37.953
86,Civago,10.477,44.254
72,Atzara,9.077,39.993
72,Gressoney-Saint-Jean,7.827,45.775
103,Gorzegno,8.135,44.512
103,Marina di Grosseto,10.981,42.72
123,Luogosanto,9.205,41.046
72,Farneta,16.403,40.015
72,Morfasso,9.703,44.723
86,San Lorenzo in Banale,10.909,46.076
147,Piazza Brembana,9.675,45.947
86,Fontanellato,10.172,44.881
103,San Giovanni Lupatoto,11.05,45.38
60,Paganica-Tempera,13.472,42.36
60,Balze,12.093,43.778
72,Roccamonfina,13.985,41.291
147,Pistoia,10.915,43.921
86,Piano,8.164,44.317
86,Perrero,7.113,44.939
103,Maglie,18.299,40.117
60,Bagnolo Mella,10.182,45.429
60,Passo di Treia,13.328,43.283
103,Rovegno,9.278,44.578
363,San Vincenzo,10.541,43.093
60,Pietrelcina,14.844,41.2
86,Soragna,10.123,44.929
211,Imperia,8.013,43.88
60,Valle,10.429,46.069
147,Niscemi,14.395,37.147
60,Porto Ercole,11.203,42.401
60,Castelferro,8.621,44.758
60,Visano,10.369,45.317
86,Forino,14.736,40.862
60,Barolo,7.943,44.611
86,Ittireddu,8.901,40.544
103,Arqua Polesine,11.739,45.01
176,Busachi,8.897,40.033
103,Canosa di Puglia,16.066,41.22
72,Molini,8.184,46.01
176,Asiago,11.508,45.875
86,Pizzano,11.41,44.353
211,Jerzu,9.518,39.791
103,Avolasca,8.964,44.804
72,Arluno,8.947,45.506
176,Ferrandina,16.456,40.501
60,Crone,10.479,45.739
72,Aglientu,9.113,41.08
86,Rivalta,10.893,45.657
86,Foiano di Val Fortore,14.976,41.351
72,San Mauro Castelverde,14.19,37.915
60,Campi Salentina,18.019,40.399
86,Sala,12.383,44.159
72,San Martino in Strada,9.526,45.276
72,Fratina,10.6,43.858
72,Scalera,15.719,40.86
72,Avigliano Umbro,12.428,42.655
123,Capoterra,8.972,39.176
363,Cortina d'Ampezzo,12.136,46.536
72,Dervio,9.304,46.076
86,Cumiana,7.377,44.979
86,Solarolo,11.845,44.36
103,Orotelli,9.112,40.304
60,Quadrelli,9.54,44.849
147,Castelluccio Inferiore,15.986,40.001
103,Palanzano,10.195,44.437
303,Schio,11.357,45.714
103,Petacciato,14.862,42.011
72,Sant'Antonio,10.836,44.367
123,Sambuca Pistoiese,10.99,44.105
147,Campana,16.824,39.413
60,Precenicco,13.078,45.794
86,Aversa,14.207,40.973
211,Cesena,12.244,44.157
60,Nuraminis,9.014,39.443
103,Trevinano,11.87,42.822
72,Cascia,13.018,42.718
176,Valgrisenche,7.062,45.628
72,Comiso,14.608,36.95
103,San Giorgio a Liri,13.765,41.407
86,Solarolo,10.55,45.547
86,San Pietro,9.383,46.258
86,Rosa,11.762,45.725
60,Sant'Agata,11.335,44.021
72,Alzo,8.379,45.791
103,Posta,13.098,42.527
72,Stornarella,15.731,41.256
211,Porto Torres,8.4,40.836
123,Preci,13.036,42.88
60,Magasa,10.617,45.782
72,Rioveggio,11.198,44.273
60,Crocevie,12.656,38.034
60,Massarosa,10.34,43.868
72,Asproli,12.419,42.739
103,Gimigliano,16.531,38.974
60,Montebruno,9.248,44.526
86,D'Orzio,9.661,45.885
86,Chiaramonti,8.822,40.747
147,Marina di Andora,8.149,43.955
147,Floresta,14.911,37.988
211,Buronzo,8.269,45.481
123,Caltabellotta,13.215,37.575
72,Castelnovo di Sotto,10.568,44.808
86,Toffia,12.754,42.212
72,Candia Canavese,7.883,45.326
86,Gambettola,12.338,44.119
123,Thiene,11.48,45.709
60,Portonovo,11.754,44.532
103,Gaeta,13.562,41.219
72,Suni,8.549,40.281
103,Francavilla di Sicilia,15.137,37.903
60,Monte Forte,8.264,40.737
72,Canussio,12.994,45.842
86,Costa Paradiso,8.957,41.058
303,Rossano Stazione,16.634,39.599
72,Colere,10.083,45.974
211,Menfi,12.968,37.606
176,Marradi,11.611,44.074
123,Peschici,16.016,41.945
901,Avezzano,13.427,42.031
103,Capua,14.214,41.106
103,San Bartolomeo in Galdo,15.019,41.423
86,Grammichele,14.632,37.214
72,Asciano,11.568,43.23
60,Chieve,9.616,45.341
72,Gargnano,10.66,45.689
72,Gambatesa,14.915,41.51
103,Villa Verucchio,12.434,44.004
147,San Donato Val di Comino,13.813,41.708
86,Bognanco,8.178,46.123
86,Volta Mantovana,10.658,45.323
60,Borgo Ticino,8.602,45.689
72,Selino Basso,9.534,45.813
303,Capo di Ponte,10.348,46.031
86,Venarotta,13.492,42.882
60,Pilzone,10.08,45.674
147,Pago Veiano,14.864,41.242
60,Lonigo,11.393,45.385
60,Scamardella,17.154,40.897
123,Roccamena,13.155,37.84
72,Capradosso,13.024,42.328
435,Viterbo,12.107,42.425
72,Cervignano del Friuli,13.344,45.817
86,Pompagnano,12.701,42.692
72,Favale di Malvaro,9.259,44.452
86,San Donaci,17.926,40.45
60,Badia,11.127,44.408
123,Collepasso,18.162,40.071
72,Primaluna,9.431,45.986
147,Milano,9.175,45.473
435,Argentera,6.936,44.397
435,Chioggia,12.278,45.196
86,Orneta,15.113,41.113
103,Berceto,9.99,44.509
72,Aci Castello,15.148,37.554
72,Fordongianus,8.81,39.994
103,Torre Melissa,17.106,39.311
103,Anagni,13.151,41.745
86,Bagnara Calabra,15.804,38.288
72,Capriolo,9.933,45.635
176,Vizzini,14.749,37.161
86,Ripa Teatina,14.237,42.362
147,Palazzolo Acreide,14.905,37.06
60,Montepaone Lido,16.534,38.721
72,Turi,17.02,40.917
147,Fauglia,10.515,43.57
147,Thiesi,8.719,40.523
103,Cinzano,7.926,45.095
60,Genio Civile,12.686,41.544
211,Santhia,8.173,45.367
72,Gualdo,13.343,43.068
86,Stazione di Parlesca e Solfagnano,12.412,43.22
86,Galliate,8.697,45.482
72,San Polo,10.358,44.89
86,Coazzolo,8.146,44.728
211,Uscio,9.161,44.413
72,Rivello,15.756,40.079
211,Fraviano,10.691,46.297
72,Polinago,10.725,44.344
72,Quincinetto,7.807,45.562
1867,Tarvisio,13.593,46.503
176,Balsorano,13.559,41.809
72,Garaguso,16.228,40.548
72,Ripabianca,12.403,42.94
103,Mandello del Lario,9.319,45.919
123,Veglie,17.963,40.335
60,Guardia Lombardi,15.208,40.954
103,Villanova Monteleone,8.47,40.504
86,Vespolate,8.668,45.351
176,Tolentino,13.291,43.213
103,Montesarchio,14.64,41.065
103,Villanova,9.998,45.026
103,Santa Eufemia Lamezia,16.253,38.92
211,Gallo,12.714,43.786
103,Riccione,12.655,44
86,Siliqua,8.808,39.3
103,Meana Sardo,9.073,39.944
60,Punta Milocca,15.281,37.008
103,Monte Romano,11.894,42.268
103,Pisticci,16.559,40.39
103,Vico del Gargano,15.957,41.898
176,Fobello,8.155,45.891
86,Carbognano,12.263,42.331
147,Candela,15.515,41.138
147,Plati,16.046,38.22
176,Fiuggi,13.22,41.799
60,Mottola,17.035,40.634
60,Santa Lucia Inferiore,14.956,40.581
60,Budrio,11.536,44.538
60,Balzola,8.404,45.184
86,Paduli,14.887,41.167
123,Torre del Greco,14.387,40.785
123,Malcesine,10.811,45.764
123,Roccastrada,11.167,43.01
72,Avio,10.937,45.734
435,Marsala,12.49,37.821
60,Soci,11.811,43.728
86,Colle Orzo,14.551,42.101
103,Manerbio,10.135,45.355
72,Agna,11.961,45.174
103,Verchiano,12.882,42.95
60,Rovere,13.516,42.176
103,Castellammare di Stabia,14.489,40.715
123,Sabaudia,13.028,41.299
60,San Liberato,12.44,42.48
72,San Mauro Forte,16.248,40.487
60,San Severino Lucano,16.139,40.019
303,Matera,16.603,40.668
86,Sasso,12.046,42.056
123,Poggiorsini,16.255,40.917
211,Portoferraio,10.314,42.811
86,Corniglio,10.087,44.476
72,Africo Nuovo,16.139,38.052
72,Borghetto,10.928,45.698
60,Malnate,8.878,45.79
60,Capaccio Scalo,15.01,40.456
363,Portogruaro,12.839,45.777
435,Fabriano,12.903,43.341
303,Cento,11.288,44.726
60,San Felice sul Panaro,11.143,44.834
72,Fighille,12.107,43.519
60,Placanica,16.452,38.412
60,Lido di Savio,12.342,44.31
103,Sindacale,12.878,45.705
72,Torretta,11.302,45.095
522,Vibo Valentia,16.095,38.673
72,Santa Teresa,14.159,42.432
60,Chiaromonte,16.218,40.124
60,Padelli,16.195,39.643
72,Limina,15.272,37.942
103,Pai,10.724,45.653
72,Alberoni,12.321,45.349
60,San Gregorio d'Ippona,16.102,38.645
123,Francavilla Marittima,16.398,39.815
72,Mirabello,13.905,42.404
60,Caloveto,16.76,39.505
147,Rena Majore,9.183,41.163
86,Capistrello,13.399,41.974
86,Gallicchio,16.139,40.289
103,Villa Opicina,13.786,45.688
147,Paganico,11.271,42.934
253,Vasto,14.708,42.125
211,Fundres,11.705,46.892
86,Castelbaldo,11.453,45.12
86,Trenzano,10.011,45.478
123,Casalmaggiore,10.419,44.994
72,Sassetta,10.643,43.129
60,Presenzano,14.097,41.376
253,Ghedi,10.279,45.401
303,Poggibonsi,11.146,43.472
103,Marsiliana,11.342,42.537
86,Ronciglione,12.214,42.291
60,Zanengo,9.852,45.216
176,Follonica,10.765,42.93
303,Anzio,12.62,41.486
60,Comano,10.13,44.293
72,San Marino,11.692,45.897
176,Monterotondo Marittimo,10.856,43.146
253,Seui,9.323,39.839
72,Bellante,13.808,42.742
72,Rignano Garganico,15.589,41.679
72,Castiglione della Pescaia,10.88,42.765
86,Piedicavallo,7.955,45.69
103,Trasacco,13.535,41.957
103,Metaponto,16.811,40.371
86,Grotte Santo Stefano,12.174,42.515
123,Sant'Anna,8.649,39.812
123,Noci,17.134,40.791
86,Cireglio,10.852,43.995
103,Garlasco,8.922,45.197
147,San Prospero,11.023,44.789
72,Priero,8.094,44.376
147,San Gavino Monreale,8.791,39.551
103,Grottammare,13.867,42.989
60,Pastena,13.491,41.469
60,Osigo,9.3,45.877
60,Granarolo,11.936,44.361
123,Villaurbana,8.778,39.886
86,Andrano,18.383,39.983
72,Alia,13.715,37.779
86,Forano,12.596,42.297
103,Besenello,11.111,45.939
86,Stagno,10.351,43.592
1556,Ponza,12.965,40.894
103,Marconia,16.691,40.366
86,Siurgus Donigala,9.185,39.597
72,Rigolato,12.852,46.553
60,Favara,13.661,37.317
72,Casamaina,13.392,42.258
147,Scauri,11.986,36.761
86,Gonnosfanadiga,8.662,39.496
123,Ara Nova,12.242,41.927
86,Porto Cesareo,17.898,40.263
60,Caggiano,15.495,40.567
60,Sant'Oreste,12.515,42.232
86,Rotondella,16.526,40.171
60,Aggius,9.066,40.93
60,Calciano,16.192,40.588
72,Cetona,11.901,42.967
103,Floridia,15.154,37.087
123,Borgosesia,8.277,45.716
86,Villa Minozzo,10.467,44.365
123,Balzo,13.332,42.841
253,Acilia-Castel Fusano-Ostia Antica,12.348,41.769
103,Casarano,18.164,40.015
103,Ampezzo,12.799,46.414
72,Annicco,9.878,45.243
86,San Michele di Ganzaria,14.429,37.281
123,Scoglitti,14.433,36.892
103,Grottazzolina,13.605,43.118
60,Raiano,13.814,42.102
901,Catanzaro,16.599,38.89
103,Rignano Flaminio,12.48,42.206
211,Bardi,9.729,44.63
72,Cavasso Nuovo,12.773,46.197
103,Fratte,12.531,43.893
253,Bovalino,16.178,38.158
60,Sacco,15.38,40.377
123,Vescovato,10.164,45.175
72,Gesturi,9.021,39.734
103,Madonna,10.858,46.724
211,Pontedera,10.634,43.664
86,Corleto Perticara,16.041,40.383
147,Dogliani,7.948,44.531
103,San Pietro Specchiarica,17.674,40.311
147,Palmi,15.849,38.36
72,Maida,16.36,38.863
72,Cornedo Vicentino,11.342,45.612
103,Domusnovas,8.653,39.321
363,Porto Viro,12.22,45.029
60,Cercemaggiore,14.723,41.461
176,Moncalvo,8.264,45.05
123,Sant'Andrea Frius,9.169,39.479
123,Sannazzaro de' Burgondi,8.905,45.102
176,Aprilia,12.655,41.575
60,Virle Piemonte,7.57,44.864
253,Carpi,10.885,44.782
147,Vicari,13.571,37.824
435,Santa Sofia,11.908,43.945
60,Pozza-San Marco,13.285,42.396
176,Butera,14.184,37.191
60,Castel Bolognese,11.797,44.321
363,Capraia Isola,9.844,43.048
60,Cantalupo,12.584,42.966
60,Oliveto,15.705,38.048
72,Roseto Capo Spulico,16.604,39.987
147,Cutro,16.983,39.035
72,Quarantoli,11.098,44.92
147,Tortona,8.865,44.892
176,Viareggio,10.258,43.873
123,Omegna,8.408,45.88
72,Batignano,11.165,42.867
72,Carapelle,15.693,41.364
72,Micigliano,13.053,42.451
147,Mango,8.151,44.686
363,Stromboli,15.238,38.804
123,Fluminimaggiore,8.497,39.44
72,Forno,10.185,44.088
176,Canale,7.992,44.794
86,Nocera Inferiore,14.64,40.751
176,Leonforte,14.397,37.642
72,Pozzo San Nicola,8.244,40.837
60,Gorino,12.348,44.823
103,Monte Sant'Angelo,15.959,41.707
123,Badalucco,7.847,43.917
123,Carpignano Sesia,8.419,45.534
60,San Fermo,10.543,45.198
72,Civitella Marittima,11.282,42.996
86,Foggiano,15.574,40.958
253,Desulo,9.226,40.01
176,Raffadali,13.533,37.404
211,Nogara,11.068,45.173
60,Ponticelli,11.653,44.321
86,Dongo,9.281,46.131
72,Montalcino,11.49,43.053
147,Latronico,16.008,40.089
60,Alvito,13.747,41.69
60,Anchiano,10.532,43.969
211,Brennero,11.504,47.001
1081,Grosseto,11.107,42.771
72,Rifiano,11.181,46.704
103,Scheggino,12.831,42.713
60,San Giacomo-Marinella,16.821,39.576
86,Camerata Nuova,13.109,42.02
147,Villafranca in Lunigiana,9.95,44.295
72,Ugento,18.158,39.926
103,Marotta,13.149,43.762
72,Villa Bartolomea,11.356,45.155
60,Villagrande Strisaili,9.508,39.96
72,Borgo Liberta,15.713,41.186
86,Padola,12.481,46.602
86,Salussola,8.112,45.447
123,Borgo San Dalmazzo,7.485,44.333
147,Naro,13.791,37.297
435,Arezzo,11.866,43.472
103,Castelnuovo Don Bosco,7.964,45.04
60,Craco,16.438,40.379
86,Forno d'Ono,10.373,45.753
60,Ora,11.295,46.345
72,Giano,12.577,42.834
72,Canneto,15.201,40.548
72,Camponogara,12.084,45.382
60,Gradoli,11.856,42.645
72,Lingua,14.868,38.539
60,Fiume Lao,15.799,39.783
86,San Lucido,16.051,39.311
123,Montese,10.942,44.269
86,Casale sul Sile,12.324,45.599
522,Ponte,8.426,46.377
1297,Genova,8.904,44.421
303,Marettimo,12.074,37.968
103,Santa Margherita di Belice,13.019,37.692
123,Monticiano,11.175,43.141
176,Cefalu,14.02,38.033
103,Dogna,13.314,46.449
72,Lido Azzurro,17.137,40.518
103,Roccagorga,13.153,41.525
147,Accumoli,13.248,42.694
86,Rapallo,9.226,44.353
60,Tiana,9.147,40.068
60,Bernezzo,7.436,44.385
60,Muffa,11.109,44.508
103,Montesilvano Marina,14.152,42.517
72,Cavriago,10.524,44.696
86,Allai,8.863,39.957
72,Pertegada,13.045,45.722
60,San Pellegrino,13.148,42.757
123,Francofonte,14.882,37.228
303,Dorgali,9.588,40.293
86,Sant'Arsenio,15.485,40.473
60,Case Androni,14.501,40.768
176,Fabrizia,16.301,38.486
103,Indiprete,14.339,41.546
103,Vinadio,7.175,44.308
60,Flaibano,12.983,46.059
60,Pioppe,11.166,44.313
86,Ordona,15.627,41.316
123,Monti,9.326,40.806
72,Acquafredda,15.672,40.036
103,Tricarico,16.146,40.62
363,Avola,15.138,36.909
123,Colorno,10.378,44.928
86,Meleti,9.835,45.121
86,Mensano,11.055,43.301
522,Portocivitanova,13.721,43.307
72,Torre del Lago Puccini,10.288,43.829
86,Barga,10.48,44.074
103,Murci,11.411,42.733
211,Osimo,13.484,43.483
103,Ali Terme,15.423,38.004
86,Vodo,12.245,46.42
60,Reino,14.823,41.293
72,Silius,9.293,39.517
103,Sellano,12.921,42.887
86,Prevalle,10.422,45.553
72,La Torre,12.704,43.742
72,Santa Caterina,8.49,40.109
86,San Vito dei Normanni,17.709,40.658
147,Rosia,11.223,43.247
211,Teulada,8.77,38.967
86,Foresto I,9.633,45.752
123,Fagnano Castello,16.053,39.563
103,Centallo,7.588,44.499
176,Marina,15.161,40.15
363,Cirie,7.599,45.235
60,Arlena di Castro,11.821,42.463
103,Pieve del Cairo,8.804,45.047
363,Spoleto,12.714,42.748
253,Pergola,12.836,43.558
86,Pieve Vergonte,8.268,46.007
123,Gioiosa Ionica,16.302,38.337
626,Capri,14.243,40.55
72,Pogno,8.385,45.755
72,Rofrano,15.429,40.213
211,Sansepolcro,12.141,43.575
147,Vittoria,14.53,36.952
303,Acri,16.385,39.494
522,Como,9.087,45.806
211,Baunei,9.664,40.032
253,Vercelli,8.415,45.323
72,Gavi,8.806,44.688
103,Tursi,16.471,40.248
103,Marcellina,12.807,42.022
176,Velletri,12.778,41.67
123,Savigliano,7.657,44.65
86,Lido Adriano,12.304,44.42
60,Bottrighe,12.087,45.026
60,Villa Badessa,14.038,42.353
123,Neri,11.461,43.534
103,Velina,15.16,40.204
60,Passatempo,13.444,43.45
60,Ortezzano,13.606,43.03
123,Telti,9.352,40.876
60,Casale Marittimo,10.615,43.296
72,Villafranca di Verona,10.846,45.351
901,Ancona,13.506,43.588
103,Carraia,11.183,43.896
176,Nova Siri Scalo,16.636,40.132
72,San Godenzo,11.618,43.926
72,Salve,18.295,39.862
176,Campodolcino,9.353,46.402
176,Locana,7.46,45.417
60,Costigliole Saluzzo,7.485,44.565
86,Campobello di Mazara,12.744,37.635
60,Illorai,9.001,40.355
86,Scalo di Baragiano,15.573,40.693
86,Occhiobello,11.581,44.92
123,Rivanazzano,9.014,44.926
86,San Demetrio Corone,16.36,39.57
253,Senigallia,13.218,43.71
60,Cerchio,13.601,42.063
176,Sarentino,11.356,46.643
72,Rumanedda,8.359,40.687
60,Joppolo,15.894,38.58
103,Canelli,8.292,44.721
103,Ripalimosani,14.664,41.611
103,Cimina,16.142,38.247
103,Lazzate,9.085,45.672
86,Corinaldo,13.048,43.65
176,Langhirano,10.267,44.614
303,Foligno,12.704,42.959
86,Minerbe,11.357,45.235
176,Solofra,14.837,40.83
72,Marone,10.094,45.736
72,Tuenno,11.024,46.33
176,Trebisacce,16.531,39.871
60,San Leonardo in Passiria,11.246,46.813
86,Grumo Appula,16.709,41.012
72,Pereta,11.323,42.645
103,Licusati,15.365,40.052
176,Enna,14.284,37.56
303,Ciro Marina,17.126,39.373
147,Filiano,15.71,40.811
103,Valmontone,12.92,41.778
72,Morgex,7.038,45.76
435,Civitavecchia,11.801,42.092
253,Punta Ala,10.753,42.805
103,Poggio Bustone,12.887,42.502
123,Venzone,13.138,46.331
60,Motta San Giovanni,15.698,38.002
72,La Caletta,9.748,40.608
86,Bolognola,13.229,42.993
147,Cantoira,7.386,45.339
86,Porto Azzurro,10.399,42.766
60,Dazio,9.601,46.161
86,Sozza,9.492,40.728
60,San Cassiano,11.688,44.147
303,Capo d'Orlando,14.73,38.144
176,Santa Valburga,11.004,46.548
86,La Grancia,13.433,41.862
72,Pizzone,14.037,41.672
86,Piano,12.212,44.977
72,Sant'Alberto,12.153,44.54
253,Predoi,12.106,47.041
123,Agnone,14.378,41.81
86,Sassano,15.56,40.337
60,Casaletto di Sopra,9.782,45.418
123,Dicomano,11.523,43.891
72,La Serra,7.879,44.399
72,Sant'Anna Arresi,8.646,39.002
86,Rocchetta di Vara,9.758,44.251
103,Conselice,11.834,44.512
147,Partanna,12.889,37.727
72,Tatti,11.028,43.023
522,Bardonecchia,6.703,45.078
123,Ceggia,12.646,45.691
72,Pergusa,14.308,37.524
103,Olevano Romano,13.032,41.86
176,La Villa,11.904,46.586
435,Rovigo,11.793,45.08
176,Prazzo,7.054,44.484
147,Montalbano Jonico,16.569,40.288
60,Sant'Agata di Esaro,15.983,39.623
72,Camalo,12.172,45.751
86,Segrate,9.28,45.494
123,Valle Agricola,14.255,41.425
60,Morano Calabro,16.136,39.843
103,Paolo VI,17.276,40.52
72,Valsinni,16.444,40.17
72,Vasanello,12.347,42.414
86,Blera,12.032,42.272
176,Scansano,11.33,42.687
211,Caorle,12.881,45.599
60,Belfiore,11.21,45.382
626,L'Aquila,13.396,42.364
86,Montegrosso,16.141,41.173
103,La Fiora,13.198,41.335
72,Sant'Anna,12.272,45.16
176,Chiari,9.924,45.534
86,Travagliato,10.085,45.519
123,Mogliano,13.474,43.183
103,Bosco Chiesanuova,11.032,45.622
72,Mareson-Pecol,12.107,46.392
60,Marina di Casal Velino,15.125,40.179
72,Abbiategrasso,8.919,45.401
253,Vigevano,8.861,45.314
60,San Gimignano,11.043,43.469
123,Tirano,10.165,46.216
176,Cariati,16.96,39.491
435,Crotone,17.125,39.08
303,Quasano,16.575,40.967
86,Ruinas,8.898,39.907
72,Soverano,16.252,39.542
363,Manfredonia,15.91,41.625
60,Ghiffa,8.617,45.958
176,Santeramo in Colle,16.755,40.793
303,Pomarance,10.871,43.298
60,Canaro,11.675,44.933
103,Madonna di Campiglio,10.825,46.225
60,Gravina in Puglia,16.416,40.82
147,Pennabilli,12.267,43.818
147,Tuturano,17.949,40.545
103,Marzabotto,11.206,44.34
103,Campello sul Clitunno,12.769,42.825
60,Decimoputzu,8.915,39.335
103,Pico,13.558,41.45
60,Pomarico,16.547,40.518
72,Ponte della Maddalena,10.461,43.901
72,Senis,8.938,39.822
60,Colle di Fuori,12.181,46.776
123,Panni,15.275,41.222
86,Genola,7.661,44.589
147,Acquapendente,11.865,42.744
1297,Messina,15.55,38.191
60,Ruvo del Monte,15.542,40.849
103,San Giorgio del Sannio,14.852,41.07
147,Pizzo,16.167,38.736
86,Guardamiglio,9.681,45.108
86,Coloretta,9.757,44.343
86,Santa Caterina Villarmosa,14.037,37.591
86,Avigna,11.353,46.564
86,Palagonia,14.744,37.329
72,Prata,10.986,43.084
435,Monasterace Marina,16.571,38.435
147,Firenzuola,11.38,44.119
86,Canolo Nuova,16.162,38.332
1297,Taranto,17.233,40.473
60,Varna,11.638,46.738
123,Falcone,15.082,38.117
72,Lamporecchio,10.894,43.809
1081,Terni,12.638,42.566
147,Paggese-Santa Maria,13.417,42.778
147,Dolianova,9.178,39.379
86,Solanas,9.428,39.138
211,Massafra,17.112,40.589
123,Leonessa,12.96,42.566
103,Stresa,8.533,45.883
60,Pompiano,9.989,45.432
72,Camposanto,11.142,44.787
86,Santa Caterina dello Ionio Marina,16.568,38.527
86,Cesate,9.075,45.596
86,Carisio,8.199,45.409
60,Briatico,16.028,38.723
86,Perdasdefogu,9.44,39.682
60,San Pellegrino Terme,9.665,45.838
103,Vivo d'Orcia,11.641,42.932
176,Ferriere,9.499,44.644
103,Campo Tizzoro,10.859,44.04
123,Piazza al Serchio-San Michele,10.294,44.185
72,Lagosanto,12.143,44.761
60,Ronsecco,8.278,45.252
86,Caraglio,7.435,44.415
86,Fraine,14.487,41.905
60,Portocannone,15.008,41.916
72,Aune,11.822,46.07
103,Borgo San Pietro,13.066,42.272
86,Marsico Nuovo,15.735,40.424
72,Mezzojuso,13.465,37.865
103,Padula,15.655,40.337
60,Velo,11.566,45.773
86,Ciavolo,12.538,37.777
176,Soresina,9.854,45.289
103,Pila,12.483,44.967
60,Contrada Cardeto Nord,15.8,38.107
103,Le Castella,17.021,38.913
363,Rovereto,11.045,45.886
60,Palagano,10.648,44.322
211,Villamaina,15.088,40.97
60,Monteleone di Spoleto,12.951,42.651
72,Campitello,10.606,45.088
522,Gioia Tauro,15.896,38.431
363,Solda,10.593,46.525
86,Vernazza,9.683,44.135
147,Regalbuto,14.639,37.653
103,Caselle in Pittari,15.541,40.174
123,Cave del Predil,13.57,46.442
86,Bagnoregio,12.087,42.629
253,Polla,15.5,40.515
103,Grottaglie,17.437,40.54
103,Calvello,15.85,40.475
86,Ussassai,9.395,39.81
72,Dozza,11.632,44.36
60,Muggia,13.768,45.604
86,Tufo Basso,13.114,42.151
86,Casciano,11.326,43.162
60,Villagrande,12.359,43.841
211,Pachino,15.094,36.716
176,Ploaghe,8.742,40.665
60,Sassa,10.692,43.26
123,San Giuliano Milanese,9.29,45.395
1297,Foggia,15.549,41.461
72,Motina,12.038,43.573
60,Trevignano Romano,12.232,42.161
60,Sant'Angelo in Colle,11.462,42.995
60,Montefalcone nel Sannio,14.639,41.867
147,Pocenia,13.1,45.835
60,Quarto,12.087,43.892
123,Storo,10.576,45.85
72,Pont-Canavese,7.596,45.423
123,Sepino,14.618,41.408
1081,Potenza,15.811,40.643
86,Ispica,14.906,36.788
60,Montecerboli,10.88,43.248
60,Sarroch,9.01,39.064
72,Salerni,16.229,39.387
123,Poggio Renatico,11.486,44.767
303,Pesaro,12.891,43.903
176,Atri,13.992,42.577
72,Mascalucia,15.033,37.592
60,Fiumana,11.986,44.141
72,Marliana,10.77,43.934
72,Marrara,11.686,44.722
103,Altavilla Irpina,14.781,41.006
72,Silanus,8.891,40.288
253,Pigna,7.657,43.932
86,Mezzano,12.088,44.464
60,Ingria,7.57,45.467
176,Buonconvento,11.483,43.133
60,San Giacomo,7.9,44.721
60,Oria,17.643,40.501
253,Civita Castellana,12.408,42.295
103,Faiano,14.903,40.662
60,Sipicciano,12.229,42.545
72,Pettorano sul Gizio,13.961,41.972
60,Ponte Filo-Barca,15.556,40.421
211,Rozzano,9.151,45.381
86,Bergantino,11.253,45.062
72,Sessano del Molise,14.329,41.64
60,Villafranca-San Martino,12.018,44.293
123,Pellestrina,12.302,45.278
86,Masarolis,13.43,46.173
901,Udine,13.244,46.066
176,Pescopagano,15.398,40.835
435,Bernalda,16.69,40.412
211,Corvaro,13.267,42.202
211,Courmayeur,6.968,45.794
363,Cassino,13.831,41.493
86,Lido di Spina,12.249,44.65
123,Crucoli,17.002,39.424
72,Giazza,11.123,45.654
147,Calendano,16.411,41.081
363,Ozieri,9.002,40.584
60,Bagnolo San Vito,10.875,45.088
147,Castel del Rio,11.504,44.214
211,Giulianova,13.958,42.757
147,San Valentino alla Muta,10.533,46.765
72,Sant'Eufemia a Maiella,14.027,42.126
123,Samassi,8.907,39.481
60,Sant'Andrea-Pizzone-Ciamprisco,14.04,41.142
103,Frassinoro,10.57,44.295
72,Monti,11.425,43.402
86,Vitorchiano,12.172,42.465
86,Castelbelforte,10.894,45.215
72,Mezzanego,9.377,44.384
147,Montella,15.018,40.844
60,Riva di Tures,12.066,46.949
123,Borgo San Lorenzo,11.384,43.956
86,Limone Piemonte,7.577,44.201
103,Pozzol Groppo,9.034,44.868
86,Dueville,11.553,45.635
72,Lama,11.249,43.1
86,Valle Lomellina,8.668,45.153
751,Verona,10.997,45.434
72,Castilenti,13.917,42.534
60,Robella,7.307,44.653
72,Planol,10.579,46.722
103,Arcevia,12.944,43.501
103,Camigliano,16.852,39.547
147,Melfi,15.651,40.995
60,Torre San Giorgio,7.528,44.735
103,Canova-San Zeno,9.403,45.729
103,Venturina,10.603,43.028
72,Casteldelci,12.153,43.792
60,Manoppello,14.06,42.258
60,Villapiana,16.457,39.845
72,Marola,11.628,45.541
103,Acerno,15.06,40.737
60,Minturno,13.735,41.252
86,Carovigno,17.66,40.703
86,Terontola,12.01,43.21
522,Siniscola,9.692,40.572
72,Carcoforo,8.048,45.91
253,Caiazzo,14.36,41.181
86,Ciano d'Enza,10.41,44.599
86,Bellante Stazione,13.834,42.706
86,Sinagra,14.849,38.08
86,Montemurlo,11.037,43.927
86,Montaquila,14.113,41.567
72,Rivamonte Agordino,12.024,46.253
72,Torretta,17.036,39.453
72,Castelfranco in Miscano,15.084,41.298
147,Santo Stefano di Camastra,14.351,38.013
72,Sassoleone,11.484,44.262
60,Campertogno,8.032,45.799
147,Verzino,16.857,39.313
86,Santa Teresa Gallura,9.188,41.24
60,Sant'Eusanio del Sangro,14.326,42.169
72,Cravagliana,8.201,45.849
211,Antrodoco,13.08,42.417
60,Fiume Veneto,12.746,45.925
60,Carpasio,7.867,43.961
72,Magliano in Toscana,11.294,42.598
147,Orta Nova,15.711,41.33
1297,Ustica,13.192,38.711
363,Sulmona,13.928,42.048
901,Olbia,9.505,40.923
72,Pabillonis,8.722,39.591
253,Ambra,11.603,43.416
72,Lanuvio,12.692,41.672
176,Bosconero,7.764,45.267
60,Ponsacco,10.631,43.624
123,Cavarzere,12.082,45.137
123,Caserma,12.179,44.243
86,Carignano,7.675,44.907
147,Claut,12.513,46.269
103,Tergu,8.716,40.867
72,Proves,11.02,46.476
60,Raddusa,14.535,37.475
626,La Maddalena,9.412,41.221
103,Rivoli,7.527,45.071
60,Mioglia,8.415,44.491
626,Altamura,16.548,40.828
60,Vagli Sotto,10.289,44.11
176,Pescasseroli,13.785,41.804
60,Pietracatella,14.873,41.581
123,Montebello Vicentino,11.383,45.456
103,Sella di Corno,13.184,42.365
123,San Piero in Bagno,11.978,43.858
123,Sambucetole,12.437,42.598
60,Cersosimo,16.351,40.047
72,Terraseo,8.626,39.205
60,Strovina,8.849,39.525
72,Casalborsetti,12.276,44.553
86,Pescopennataro,14.294,41.878
86,Codogne,12.427,45.871
211,Prato,11.077,43.884
60,Borgo Vodice,13.105,41.34
86,Azzano Decimo,12.713,45.882
60,Parabiago,8.946,45.555
86,Ovodda,9.162,40.096
123,San Demetrio ne' Vestini,13.557,42.29
60,Montefiorino,10.624,44.353
86,Piano,7.9,44.351
103,Sant'Ilario d'Enza,10.447,44.757
60,Motta Montecorvino,15.115,41.508
86,Servigliano,13.492,43.08
60,San Romualdo,12.171,44.496
103,Predazzo,11.599,46.309
123,Acqualagna,12.678,43.628
86,Vicero,13.314,41.737
176,Palmadula,8.189,40.748
211,Lucera,15.335,41.508
147,Riccia,14.833,41.482
86,Valva,15.269,40.74
72,Limana,12.189,46.104
123,Lama dei Peligni,14.186,42.041
72,Zovello,12.951,46.529
103,Martinsicuro,13.913,42.882
123,Alicudi Porto,14.36,38.536
103,Samo,16.06,38.074
86,Sambuca di Sicilia,13.11,37.649
253,Cana,11.427,42.797
123,Santa Rania,16.788,39.188
626,Borgo Val di Taro,9.77,44.486
72,Cittaducale,12.956,42.387
103,Lanzo Torinese,7.484,45.279
72,Montecalvo Irpino,15.033,41.195
123,Castelfiorentino,10.971,43.606
60,Macari,12.74,38.141
86,Foza,11.629,45.899
123,Vulcano Porto,14.956,38.412
86,Cataeggio,9.638,46.215
72,Selva,11.761,46.554
60,Santo Stefano Quisquina,13.491,37.626
253,Carsoli,13.086,42.102
86,Verzago,9.168,45.771
72,Magliano de' Marsi,13.364,42.091
60,Borgo San Michele,12.967,41.439
103,Lavena Ponte Tresa,8.865,45.959
86,Casacalenda,14.847,41.738
60,Forno,11.628,46.349
211,Valenza,8.642,45.014
60,Lamporo,8.093,45.23
123,Mercatale-San Quirico,11.153,44.046
176,Putignano,17.121,40.852
303,Staffa,7.966,45.97
72,Teglio,10.064,46.173
103,Tubre,10.463,46.644
147,Oderzo,12.498,45.789
123,Roccasecca,13.667,41.552
86,Foiano della Chiana,11.815,43.255
60,Ceriale,8.22,44.089
147,Frigole,18.246,40.428
123,Mortara,8.738,45.252
86,Sambuco,7.074,44.339
123,Reggio nell'Emilia,10.619,44.709
72,Santa Croce Camerina,14.527,36.83
147,Montorio al Vomano,13.637,42.583
103,Sorano,11.715,42.681
522,Lecce,18.178,40.357
103,Crispiano,17.231,40.605
86,Dodici Morelli,11.291,44.793
72,Italba,12.16,44.889
72,Rivarolo del Re,10.475,45.032
103,Melle,7.319,44.562
363,Scalea,15.796,39.811
147,Cividale del Friuli,13.427,46.095
253,Transacqua,11.834,46.176
72,Tre Re-Mezzana Corti,9.12,45.126
60,Caprile,11.995,46.438
123,Geraci Siculo,14.151,37.854
103,Palo del Colle,16.702,41.058
303,Novi Ligure,8.793,44.76
60,Martignana,10.991,43.674
86,Bardineto,8.134,44.191
72,San Damiano d'Asti,8.063,44.834
86,Tavernole,10.24,45.748
60,Aglie,7.765,45.363
147,Chianni,10.642,43.482
86,Baiso,10.604,44.501
253,Longarone,12.301,46.272
522,Sala Consilina,15.599,40.391
60,Filo,11.93,44.59
211,Montereale,13.245,42.524
176,Alfonsine,12.041,44.506
72,Verecchie,13.251,42.036
176,Favignana,12.329,37.93
86,Anzola dell'Emilia,11.198,44.543
123,Airali,7.247,44.818
123,Villanova Tulo,9.212,39.781
253,Codogno,9.701,45.162
147,Valguarnera Caropepe,14.39,37.496
253,Varese,8.824,45.819
86,Castellaneta Marina,16.937,40.47
123,Campodarsego,11.909,45.501
123,Triora,7.766,43.993
176,Darfo Boario Terme,10.183,45.883
86,Simbario,16.338,38.612
147,Termini,14.628,42.197
86,Roveredo in Piano,12.619,46.011
72,Parmezzana Calzana,10.099,45.634
60,Montegrotto Terme,11.788,45.331
72,Marzolara,10.172,44.632
103,Ospedaletto,12.219,42.835
72,Mareta,11.352,46.892
60,Scampitella,15.305,41.093
72,San Biagio Platani,13.526,37.509
303,Ladispoli,12.078,41.95
72,Zibello,10.13,45.019
103,Noventa Vicentina,11.547,45.295
86,Chamois,7.621,45.838
147,Giglio Porto,10.923,42.358
86,Volpiano,7.777,45.198
72,Tirli,10.894,42.845
60,Piana Ferrara,14.934,41.205
363,Caltagirone,14.516,37.217
72,Cusino,9.153,46.074
86,Santa Ninfa,12.877,37.771
60,Ardea,12.523,41.605
103,Castelbianco,8.062,44.116
123,Stroppiana,8.453,45.23
60,Abetone,10.664,44.145
72,Montalto Dora,7.863,45.491
211,Rilievo,12.54,37.918
103,Gioia dei Marsi,13.695,41.953
60,Eboli,15.058,40.614
86,Castelmauro,14.71,41.829
60,Scorze,12.104,45.576
103,Tobia,12.101,42.36
123,Fasano,17.358,40.835
72,Madesimo,9.357,46.437
86,Naturno,11.005,46.649
86,San Bonifacio,11.285,45.399
147,Meldola,12.062,44.129
72,Montescaglioso,16.663,40.55
60,Salcito,14.51,41.748
363,Termini Imerese,13.696,37.984
103,Montecchio,12.762,43.855
60,Erbe,10.969,45.242
72,Alto,8.002,44.11
103,Santo Stefano di Cadore,12.552,46.558
103,Armeno,8.443,45.821
72,Torre Santa Susanna,17.742,40.464
60,Prasco,8.549,44.65
123,Tolfa,11.926,42.148
103,Zappulla,14.803,36.787
103,Vallermosa,8.796,39.365
72,Mansue,12.536,45.822
60,Romagnese,9.33,44.839
72,Borgomale,8.131,44.621
72,Forni Avoltri,12.776,46.587
60,Castrofilippo,13.751,37.35
60,Fabbrico,10.81,44.873
626,Caltanissetta,14.047,37.49
176,Novate Mezzola,9.449,46.22
147,Molveno,10.964,46.142
123,Ragalna,14.952,37.644
176,Podenzano,9.685,44.956
86,Villadose,11.894,45.069
60,Burgio,13.287,37.601
86,Valsavarenche,7.21,45.592
60,Casteldelfino,7.069,44.59
72,Casei,8.927,45.008
72,Ostiano,10.255,45.221
435,Porto Santo Stefano,11.123,42.433
303,Edolo,10.332,46.178
72,Livo,9.305,46.169
72,Castiglione in Teverina,12.203,42.65
176,Bolotana,8.962,40.325
60,Chiusa Sclafani,13.27,37.678
60,Gonzaga,10.82,44.952
147,Balme,7.215,45.303
176,Imola,11.711,44.349
123,Stilo,16.468,38.477
72,Alfedena,14.034,41.733
123,Custonaci,12.688,38.074
72,Valentano,11.832,42.561
123,Porto Ceresio,8.897,45.904
147,Ala dei Sardi,9.328,40.65
86,Givoletto,7.493,45.156
123,Mira Taglio,12.137,45.434
123,Badolato Marina,16.567,38.574
60,Aiello Calabro,16.166,39.117
86,Nusco,15.094,40.886
253,Brindisi,17.938,40.628
103,Gissi,14.545,42.018
72,Ciro,17.066,39.382
123,Badesi,8.885,40.965
60,Agra,8.77,46.036
60,Villafrati,13.484,37.906
253,Giaveno,7.349,45.041
60,Pancole,11.007,43.501
211,Corvara,11.149,46.872
60,Badia Tedalda,12.183,43.71
60,Secchiano,12.315,43.923
72,Villa Literno,14.074,41.01
72,Montone,12.326,43.361
60,Pisticci Scalo,16.548,40.421
253,Acate,14.492,37.024
72,Montechiaro d'Asti,8.111,45.007
176,Modigliana,11.794,44.161
103,Roncone,10.668,45.982
60,Laghi di Sibari,16.497,39.714
60,Cecci,15.655,40.827
72,Craco Peschiera,16.496,40.359
60,Girelli,10.82,45.466
86,Scorrano,13.82,42.591
72,Materdomini,17.96,40.662
72,Cappella,15.263,40.89
72,San Nicola,15.684,41.08
72,San Pasquale,15.958,41.675
60,Colle di Val d'Elsa,11.131,43.415
103,Pescia Romana,11.496,42.398
103,Cerzeto,16.115,39.508
253,Bono,9.033,40.415
123,Nicotera,15.936,38.548
103,Mesagne,17.809,40.56
123,Terlizzi,16.544,41.13
103,Castelverde,9.996,45.189
60,Aidone,14.445,37.416
72,Lecore,11.074,43.8
86,Antronapiana,8.115,46.061
86,Rauscedo-Domanins,12.829,46.04
211,Cairo Montenotte,8.277,44.402
103,Sindia,8.656,40.296
147,Morcone,14.672,41.343
103,Nurallao,9.08,39.79
60,Barbasso,10.907,45.12
86,Serravalle Scrivia,8.859,44.722
303,Canicatti,13.851,37.36
123,Lozzo di Cadore,12.444,46.487
103,Pontecorvo,13.666,41.46
211,Laconi,9.052,39.852
103,Pilastri,11.288,44.947
60,Villaggio Quadrifoglio,16.687,40.9
72,Faieto,13.587,42.62
72,Giancola,17.874,40.682
60,Rezzanello,9.518,44.911
103,San Nicola,16.395,39.61
60,Casette,12.673,43.959
103,Scopello,12.814,38.076
72,Pozzillo,14.682,36.863
123,Varsi,9.848,44.662
123,Fano,13.015,43.842
72,Pastina,10.563,43.461
86,Cleulis,13.006,46.567
147,Modica,14.768,36.848
147,Vignola,11.005,44.482
86,Granieri,14.578,37.128
60,Le Gotte,13.499,41.612
303,Norcia,13.097,42.79
60,Imposte,13.526,42.687
86,Pisciotta,15.234,40.107
86,San Martino in Pensilis,15.014,41.87
72,Montemesola,17.338,40.565
60,Cassano,14.715,41.031
103,Castenaso,11.465,44.509
86,Gallo,12.772,42.311
253,Corleone,13.298,37.817
60,Supersano,18.243,40.018
147,Bianco,16.151,38.089
86,Scalo dei Saraceni,15.897,41.53
103,Sciali di Lauro,15.888,41.573
147,Arpinova,15.593,41.532
176,Segezia,15.494,41.386
60,Marina di Lesina,15.277,41.895
60,Tivoli,15.185,37.056
103,Pezzo,14.79,37.888
60,Santa Lucia,9.476,40.972
60,Tavazzano,9.403,45.328
72,Tesis,12.786,46.113
103,Isola Rossa,8.876,41.013
363,Castel di Sangro,14.104,41.775
60,Bonito,15,41.097
60,Dalmine,9.598,45.649
211,Ascoli Piceno,13.602,42.848
72,Bobbio Pellice,7.117,44.809
103,Cassolnovo,8.808,45.362
176,San Vero Milis,8.599,40.015
60,Caderzone Terme,10.757,46.13
60,Pezzo,10.522,46.288
72,Maschito,15.83,40.909
86,Granitola Torretta,12.659,37.575
86,San Benedetto Po,10.932,45.048
60,Campi,13.097,42.852
72,Serralonga A,16.353,39.417
72,Riano,12.517,42.095
60,Selvino,9.757,45.788
211,Vallo della Lucania,15.262,40.23
147,Camigliatello Silano,16.445,39.339
86,Limone sul Garda,10.787,45.807
86,Fratta Todina,12.369,42.857
303,Senorbi,9.13,39.535
253,Adrano,14.836,37.662
103,Finale Ligure,8.346,44.173
72,Carassai,13.69,43.033
86,Premilcuore,11.778,43.979
123,Cisterna di Latina,12.829,41.595
147,Taverna,16.582,39.02
103,Scardovari,12.452,44.899
103,San Salvo,14.728,42.044
176,Roseto degli Abruzzi,14.022,42.667
435,Stintino,8.219,40.954
123,Moie,13.132,43.503
72,Correggio,10.785,44.768
147,Rosignano Solvay-Castiglioncello,10.439,43.388
86,Vianino,9.935,44.681
72,Pian Cardillo,15.812,40.611
72,Lagaro' Lupinacci,16.47,39.411
86,Villaggio Gaudiano,15.878,41.087
901,Oristano,8.594,39.902
60,Carpenedolo,10.432,45.365
123,Cardinale,16.386,38.649
60,Gibellina,12.964,37.796
72,Celenza Valfortore,14.981,41.56
103,La Salute di Livenza,12.801,45.654
86,Carrega Ligure,9.174,44.62
72,Cansano,14.014,42.003
147,Fondi,13.429,41.355
72,Ostia Parmense,9.846,44.519
86,Vasari,13.236,43.654
86,Carra,16.476,38.876
60,Concio-Via Bellini,16.672,40.182
72,Localita Montagnola,16.33,40.56
60,Calvisi,16.306,39.128
123,Castiglion Fiorentino,11.92,43.342
103,Montemilone,15.968,41.029
303,Ghigo,7.051,44.889
147,Carloforte,8.303,39.143
147,Ficuzza,13.378,37.883
60,Pietramala,11.336,44.165
176,Sassoferrato,12.857,43.433
86,Brienza,15.628,40.478
123,Patti,14.965,38.147
123,Ceccano,13.329,41.567
103,Siddi,8.888,39.673
211,Sant'Antioco,8.454,39.063
176,Sora,13.613,41.718
72,Grottole,16.378,40.604
147,Orroli,9.251,39.693
103,Olivadi,16.423,38.726
72,Cavedine,10.974,45.995
123,Pignola,15.784,40.573
147,Settimo Torinese,7.768,45.142
103,Petrosino,12.496,37.712
176,Bolsena,11.984,42.644
60,Vinca,10.158,44.138
72,Ceriana,7.773,43.882
72,Sovicille,11.226,43.279
147,Villagrande,13.301,42.295
147,Pontebba,13.308,46.509
176,Viadana,10.519,44.93
901,Domodossola,8.291,46.112
86,Bortolani,11.075,44.339
60,Moscano,12.952,43.4
72,Campione I,17.168,39.015
147,Loconia,15.938,41.159
147,Trevi,12.736,42.878
60,Murgetta,16.439,40.849
103,Cassari,16.296,38.44
147,Casalvecchio di Puglia,15.111,41.594
60,Cantorato II,17.102,39.177
72,Castrignano del Capo,18.352,39.832
86,Porpetto,13.218,45.858
303,San Teodoro,9.672,40.775
86,Momo,8.555,45.575
147,Milena,13.737,37.469
72,Ussana,9.074,39.394
103,Davagna,9.092,44.467
103,Viano,10.625,44.545
72,San Giovanni a Piro,15.453,40.053
60,Becerica,13.579,43.37
60,Musebbi I,14.824,36.833
86,San Giacomo Mulino,14.829,36.98
60,Localita Piano Spito,13.273,37.471
60,Borgo Europa,14.464,36.927
60,Santa Maria di Rispescia,11.135,42.707
60,Greggio,8.384,45.451
211,Bra,7.855,44.698
86,Villa Castelli,17.474,40.585
86,Fontanarosa,15.021,41.019
103,Bedonia,9.634,44.501
103,Gonte,8.652,45.995
522,Biella,8.058,45.573
86,Bassacutena,9.261,41.11
72,Bussi sul Tirino,13.824,42.214
72,Saluzzo,7.488,44.646
60,Ellera,8.466,44.363
176,Gallipoli,17.999,40.056
86,Capriati a Volturno,14.146,41.468
72,Cassano all'Ionio,16.317,39.784
72,Prato allo Stelvio,10.593,46.62
176,San Vito lo Capo,12.734,38.172
86,Castronovo di Sicilia,13.603,37.678
363,San Nicandro Garganico,15.565,41.838
176,Verres,7.688,45.662
86,Strove,11.171,43.378
72,Rangasile,14.515,37.184
72,Masseria d'Amari,13.452,37.992
103,Larderia,15.505,38.14
211,Sparta',15.535,38.292
86,Quadrato,12.787,41.452
103,Bucine,11.612,43.477
103,Molochio,16.031,38.307
86,Santadi,8.715,39.094
60,Montalto delle Marche,13.609,42.99
60,Arquata Scrivia,8.88,44.692
86,Cuggiono,8.815,45.511
176,Tuscania,11.87,42.421
103,Monticelli d'Ongina,9.93,45.09
86,San Leo Bastia,12.156,43.324
72,San Chirico Nuovo,16.081,40.677
176,Melito di Porto Salvo,15.772,37.923
60,Bucchianico,14.183,42.303
60,Pederobba,11.95,45.876
103,Fondachelli-Fantina,15.162,37.981
147,Fiumefreddo di Sicilia,15.21,37.791
103,Donori,9.127,39.431
103,Castel di Iudica,14.651,37.494
86,Buja,13.116,46.207
522,Novara,8.614,45.441
435,Campobasso,14.668,41.56
211,Tempio Pausania,9.108,40.902
103,Trani,16.413,41.276
522,Iglesias,8.537,39.313
751,Tortoli,9.666,39.929
176,Massa,10.114,44.022
522,Forli,12.053,44.222
176,Barletta,16.289,41.312
303,Villacidro,8.738,39.458
86,Monza,9.274,45.583
211,Castelnovo ne' Monti,10.404,44.434
86,Lemie,7.29,45.229
86,Almese,7.394,45.119
103,Carru,7.877,44.481
86,Fiorentina,10.536,42.964
72,Brucciano,11.288,43.243
72,Lido Rossello,13.458,37.298
60,Prato Fiorito,14.843,37.69
123,Baratz,8.242,40.67
86,Eden Beach,8.593,40.84
72,Porto Tramatzu,9.639,39.454
72,Barega,8.55,39.261
72,Capestrano,13.766,42.269
60,Sant'Angelo Muxaro,13.546,37.479
72,Mercatale,11.43,44.391
86,Piazza,10.423,45.511
72,Campo Ligure,8.698,44.537
60,Ferruccia,10.998,43.883
60,San Giuseppe,12.218,44.722
60,Piana Battolla,9.854,44.193
86,Domus de Maria,8.863,38.944
60,Avelengo,11.225,46.646
123,Malles Venosta,10.543,46.69
72,Migliaro,12.01,44.81
60,Coredo,11.089,46.351
123,Borgoforte,10.749,45.051
72,Inno,11.097,43.728
72,Capo Comino,9.792,40.535
123,Monti Nieddu,9.322,39.276
147,Mandriola,8.397,40.034
103,Don,11.956,46.222
60,Montenero,11.473,42.943
86,Collagna,10.275,44.347
103,Maratea,15.715,39.998
72,Arba,12.79,46.146
60,Pradamano,13.306,46.034
60,Pescorocchiano,13.148,42.205
103,Venosa,15.816,40.964
60,Etroubles,7.231,45.821
103,San Luca,16.065,38.148
303,Alba,8.025,44.691
211,Calitri,15.41,40.916
176,Prizzi,13.432,37.722
103,Chiaramonte Gulfi,14.702,37.03
72,Baia Azzurra-Levagnole,13.849,41.148
72,Trignano,10.032,45.378
60,San Pietro,11.612,46.603
60,San Cipriano,11.557,46.472
60,Trabia,13.634,38.005
176,Adria,12.056,45.057
60,Incoronata,15.661,41.392
72,Talava,9.635,40.682
103,Molino-Pera,8.309,44.49
86,Santu Lussurgiu,8.658,40.141
72,Balestrate,13.004,38.052
522,Termoli,14.999,41.989
60,Cabanette,8.583,44.885
123,Bondione,10.006,46.034
60,Centro Climatico San Paolo,17.326,40.645
72,Carpinone,14.324,41.591
123,San Vito Chietino,14.443,42.292
86,Bagolino,10.462,45.824
60,Miratoio,12.244,43.762
72,Surbo,18.135,40.396
60,Orsogna,14.276,42.221
103,Guiglia,10.965,44.423
86,Ceresole Alba,7.822,44.8
60,Belverde,11.31,43.349
60,Montefalco,12.649,42.891
60,Valprato Soana,7.554,45.527
103,Tavernelle,12.149,43.003
72,Cannara,12.579,42.996
72,Torre di Santa Maria,9.852,46.233
176,Ravanusa,13.969,37.267
72,Presta,14.462,41.11
72,Masseria Maiorano,15.242,40.983
60,Carosina di Sopra,15.3,41.039
60,Casilina Sud,13.419,41.543
103,Pila-Ciel Blu,7.298,45.691
72,Calvo,7.555,43.829
72,Vignola,12.296,43.998
60,Montagnana,10.83,44.479
147,Loiano,11.33,44.261
72,Bibbiano,10.478,44.664
176,Pozzuoli,14.101,40.834
60,Ravina,11.112,46.04
211,Ballao,9.362,39.548
103,Oliena,9.403,40.272
60,Scarlino,10.852,42.907
72,Sticciano Scalo,11.119,42.926
147,Camaiore,10.304,43.938
86,Piazza,11.152,45.878
103,Acciaroli,15.027,40.179
86,Castell'Arquato,9.875,44.855
123,San Vito,12.207,46.46
60,Mellame,11.747,45.991
86,Noto,15.069,36.892
103,Portoscuso,8.381,39.209
60,Sternatia,18.228,40.219
103,Riola,11.058,44.23
86,Cesuna,11.457,45.837
72,Torre Rinalda,18.179,40.469
72,Compart,10.118,46.498
86,Santa Maria,11.535,43.58
253,Casamassima,16.919,40.958
60,Mezzaselva,11.574,46.807
435,Teramo,13.714,42.662
103,Smerillo,13.444,43.005
103,Longastrino,12.011,44.588
72,Borno,10.204,45.946
60,Scano di Montiferro,8.587,40.215
86,Savazza,11.399,44.3
60,Villa Inferno,12.315,44.231
72,Cura Carpignano,9.254,45.213
86,Villa San Giovanni,15.64,38.217
60,Astura,12.784,41.423
123,Vairano,9.254,45.272
72,Sant'Isidoro,17.937,40.222
103,San Giorgio,11.738,42.197
72,San Cataldo,18.3,40.391
60,Spineto,15.116,40.591
72,Marina,12.366,41.979
60,Olmo,14.912,40.603
72,Braies,12.133,46.72
211,Roure,7.129,45.001
123,Sorbolo,10.444,44.849
86,Colli Verdi,9.273,44.928
60,Ca' d'Andrea,10.278,45.12
103,Valdilana,8.161,45.664
103,Valmala,7.342,44.514
60,Valchiusa,7.777,45.495
86,Presicce,18.263,39.899
123,Valbrenta,11.668,45.849
72,Ro,11.76,44.946
72,Salorno sulla strada del vino#Salurn an der Weinstrasse,11.212,46.239
86,Conco,11.609,45.8
147,Riva del Po,11.979,44.979
123,Tresignana,11.897,44.818
103,Barberino Tavarnelle,11.172,43.561
72,Sassocorvaro Auditore,12.499,43.779
147,Borgo Valbelluna,12.079,46.062
123,Pieve del Grappa,11.839,45.827
147,Negrar di Valpolicella,10.938,45.53
100000,Milano,9.182,45.541
9627,Napoli,14.339,40.851
2240,Roma,12.501,41.883
1297,Torino,7.644,45.067
1556,Catania,15.067,37.536
2240,Bologna,11.336,44.494
1081,Firenze,11.238,43.774
363,Bergamo,9.651,45.707
147,Busto Arsizio,8.905,45.6
3225,Cagliari,9.143,39.237
435,Caserta,14.304,41.064
1867,Padova,11.871,45.412
626,Brescia,10.217,45.562
1867,Pescara,14.202,42.466
303,Mestre,12.225,45.491
253,Gallarate,8.795,45.665
303,Pisa,10.439,43.705
5572,Sassari,8.556,40.734
147,Acireale,15.127,37.608
2688,Cosenza,16.242,39.317
901,Trento,11.129,46.071
751,Trapani,12.538,38.021
363,Savona,8.475,44.31
123,Venezia,12.346,45.426
363,Pordenone,12.659,45.967
176,Battipaglia,14.973,40.61
253,Sassuolo,10.815,44.539
176,Bagheria,13.519,38.081
435,Avellino,14.802,40.918
123,San Giuseppe Vesuviano,14.495,40.837
303,Lecco,9.389,45.854
176,Osio Di Sotto,9.598,45.621
123,Nola,14.534,40.941
123,Sesto Fiorentino-Padule,11.2,43.836
86,Ariccia,12.668,41.723
176,Bassano del Grappa-Quartiere Largo Parolini,11.744,45.765
103,Capurso,16.925,41.058
253,Casamicciola Terme,13.912,40.74
176,Sant'Agnello-Maiano,14.401,40.631
147,Empoli-Terrafino,10.943,43.721
86,Pieve a Nievole,10.783,43.88
147,Talsano,17.267,40.403
147,San Don di Piave,12.569,45.631
363,Carlentini-Masseria Piano Viola,15.005,37.28
147,Borgetto,13.122,38.047
123,Magenta,8.901,45.469
363,Chiavari-Sampierdicanne,9.326,44.315
435,Giarre-Altarello,15.192,37.725
253,Monfalcone,13.528,45.805
86,Conca dei Marini,14.586,40.638
147,Colle Laghetto,12.628,41.987
103,Olginate,9.421,45.806
103,Santa Maria,16.613,38.841
103,Orbassano,7.533,45.006
147,Lomagna,9.377,45.662
60,Municipio 5,16.759,41.156
103,Baiano,14.618,40.951
147,Santa Maria a Vico,14.478,41.023
86,Vimercate-White Towers,9.371,45.613
103,Porto Sant'Elpidio,13.762,43.252
123,Quartiere Primavera,12.499,41.668
86,Casaletto Lodigiano,9.329,45.356
901,Racale,18.09,39.968
60,Castel Volturno,13.961,41.005
86,Augusta,15.223,37.228
72,Cattolica,12.738,43.962
60,Merate-Cicognola,9.426,45.69
147,Bastia Umbra-Bastiola,12.556,43.066
60,Venetico-Piano del bosco,15.373,38.219
626,Clusone,9.966,45.888
303,Jesolo,12.639,45.515
211,Terrasini,13.091,38.155
103,Costa di Mezzate,9.808,45.668
60,Rutigliano,17.006,41.006
60,Villongo,9.947,45.668
86,San Pietro in Lama,18.142,40.303
123,Tortoreto,13.934,42.819
60,Maserada sul Piave,12.344,45.716
435,Orvieto,12.118,42.725
72,Noventa Padovana,11.952,45.419
303,Poggiardo,18.392,40.023
176,Castel Maggiore,11.36,44.581
147,Anguillara Sabazia,12.281,42.081
86,Cavaion Veronese,10.75,45.532
123,Trinitapoli,16.089,41.357
72,San Ferdinando di Puglia,16.072,41.303
103,Borgo Valsugana,11.491,46.061
176,Fiano Romano,12.594,42.15
123,Ossi,8.575,40.672
253,San Giovanni Gemini,13.639,37.63
303,Chiavenna-Crotti di Pratogiano,9.395,46.313
211,Tricesimo,13.222,46.162
211,San Cipirello,13.181,37.967
103,Inverso Pinasca-Haute Perl,7.227,44.933
522,Santa Teresa di Riva,15.382,37.959
147,Telese Terme,14.523,41.215
123,Zogno,9.67,45.811
147,Renate,9.282,45.733
435,Gemona del Friuli,13.115,46.274
176,Bussoleno-Cervetto,7.188,45.133
72,Manziana,12.123,42.14
123,Municipio Roma V,12.607,41.916
147,Borghetto Santo Spirito,8.251,44.119
303,Maniago,12.705,46.163
123,Narni,12.519,42.525
72,Lurate Caccivio,9.01,45.771
123,Scandiano,10.691,44.596
86,Sesto Calende,8.638,45.721
211,Felino,10.248,44.699
176,Valperga,7.653,45.388
86,Buti,10.607,43.721
103,Solesino,11.749,45.185
147,Tremezzina-Monti di Nava,9.212,45.97
86,Cosio Valtellino-Mellarolo,9.567,46.134
123,Lovere-Porto Turistico di Lovere,10.084,45.82
123,Polistena-Primogenito,16.08,38.408
103,Pontassieve-Podere Catese,11.435,43.774
60,Vanzaghello,8.799,45.58
103,Tarcento-Borgo Patochis,13.196,46.219
86,Leffe,9.893,45.804
123,Gavardo,10.445,45.591
123,Carrara,10.098,44.078
60,Municipio Roma XII,12.353,41.877
211,Sessa Aurunca,13.926,41.222
86,Capaccio Paestum,15.009,40.429
253,Satriano,16.548,38.689
123,Matelica,13.009,43.258
60,Azzano Mella,10.107,45.459
363,Calto,11.295,45.014
176,La Storta,12.38,42.013
86,Soliera-Villa Gaddi,10.917,44.73
303,Salemi,12.796,37.828
303,Chtillon-Govergnau,7.628,45.748
103,Vitulazio,14.22,41.162
253,Rogliano,16.317,39.193
72,Arcisate,8.862,45.856
626,Barge,7.321,44.744
123,Casorate Primo,9.016,45.315
211,Tropea,15.891,38.675
211,Nizza Monferrato,8.358,44.773
60,San Giorgio di Piano-Corte Ca' Ramandola,11.36,44.645
103,Campagnano di Roma,12.374,42.131
72,Sortino,15.033,37.16
86,Camisano Vicentino,11.715,45.522
72,Latina Scalo,12.949,41.531
147,Val Polcevera,8.902,44.498
72,San Daniele del Friuli,13.001,46.168
303,Portomaggiore,11.807,44.694
253,Tolmezzo,13.017,46.401
123,Torgiano,12.378,43.023
103,Nepi,12.351,42.245
147,VII Circoscrizione,13.277,38.2
123,Lendinara,11.604,45.087
211,Porlezza-Monte di Palo,9.133,46.041
211,Penne,13.926,42.452
86,Amelia,12.43,42.549
363,Cetraro,15.948,39.511
123,Cividate Camuno-Borgo Olcese,10.28,45.939
103,Lume,15.652,38.031
123,Strambino,7.882,45.389
303,Ilartzi/Ghilarza,8.827,40.128
123,Magione,12.22,43.141
123,Girifalco,16.417,38.831
435,Cavalese,11.45,46.29
123,Subbiano-Fighille,11.862,43.565
72,Spinetta Marengo,8.7,44.88
147,Monteroni d'Arbia,11.403,43.244
86,Trescore Cremasco,9.625,45.409
147,Robecco d'Oglio,10.086,45.268
72,Grazzanise,14.111,41.09
103,Sedico,12.106,46.124
86,Lanusi/Lanusei,9.544,39.884
303,Subiaco,13.09,41.93
253,Chianciano Terme,11.818,43.059
86,Casteltermini,13.643,37.541
86,Giardinello,13.17,38.09
123,Taormina,15.282,37.847
103,Chiusi,11.957,43.004
86,Laureana di Borrello,16.084,38.49
123,Rivolta d'Adda,9.515,45.467
176,Bojano,14.473,41.491
86,Archi,15.661,38.15
103,Urbino,12.63,43.735
72,Barberino di Mugello,11.236,43.994
72,Cavallino-Treporti,12.439,45.455
363,Castelnuovo di Garfagnana-Alla Chiossa,10.408,44.121
123,Argenta,11.834,44.612
60,Brolo,14.841,38.157
123,Santi Cosma e Damiano,13.815,41.282
211,Aulla,9.964,44.222
103,Sommatino,13.997,37.335
147,Vallerano,12.272,42.384
303,Busalla-Prele,8.962,44.569
123,Pontinia-Borgo Pasubio,13.046,41.41
103,Volterra,10.861,43.402
147,Brugnera,12.531,45.903
103,Casteggio-Cascina Monteriolo,9.122,45.01
86,Guardia Sanframondi,14.615,41.253
147,Spezzano Albanese,16.301,39.67
60,Morrovalle,13.591,43.274
103,Levico Terme,11.311,46.01
72,Belgioioso-Ca' Po,9.316,45.162
147,Genzano di Lucania,16.024,40.847
123,Castellabate,14.951,40.287
60,Castellarano-Le Malee,10.73,44.509
72,Pont-Saint-Martin-Pra Signore,7.792,45.598
211,Gangi,14.206,37.795
103,Cori,12.915,41.644
72,Campogalliano,10.847,44.692
103,Rufina-Docciolino,11.488,43.826
176,Arzachena,9.39,41.077
86,Bisignano,16.28,39.505
86,Caluso,7.888,45.294
103,Rudiano,9.882,45.486
