rs,name,lon,lat
435,Bryne,5.653,58.734
147,Naerboe,5.645,58.667
1081,Egersund,5.999,58.448
1081,Kristiansand,7.999,58.147
253,Vennesla,7.976,58.268
123,Soegne,7.817,58.096
363,Mandal,7.455,58.029
363,Flekkefjord,6.665,58.295
626,Arendal,8.775,58.466
253,Grimstad,8.594,58.344
176,Lillesand,8.376,58.251
211,Notodden,9.265,59.561
901,Krageroe,9.413,58.872
522,Porsgrunn/Skien,9.614,59.179
176,Larvik,10.053,59.051
103,Stavern,10.032,59
211,Sandefjord,10.224,59.131
253,Toensberg,10.409,59.268
103,Horten,10.484,59.416
147,Holmestrand,10.315,59.489
303,Kongsberg,9.651,59.671
435,Hoenefoss,10.257,60.166
363,Drammen,10.222,59.743
303,Aamot/Geithus,9.966,59.935
626,Lillehammer,10.459,61.12
211,Gjoevik,10.692,60.794
147,Raufoss,10.614,60.727
1867,Hamar,11.079,60.795
303,Elverum,11.562,60.886
176,Brumunddal,10.943,60.884
435,Kongsvinger,11.996,60.186
100000,Oslo,10.723,59.916
303,Raaholt,11.176,60.284
147,Kloefta,11.136,60.074
522,Jessheim,11.173,60.146
147,Fetsund,11.161,59.928
123,Nesoddtangen,10.664,59.859
147,Droebak,10.636,59.651
86,Aas,10.791,59.664
363,Ski,10.837,59.717
363,Moss,10.658,59.434
303,Askim,11.166,59.584
123,Mysen,11.326,59.553
1297,Fredrikstad/Sarpsborg,11.106,59.28
303,Halden,11.386,59.122
103,Tranby,10.265,59.812
363,Sand,6.254,59.487
253,Hauge,6.288,58.344
435,Skjold,19.295,69.027
435,Leknes,13.629,68.146
211,Straumen,15.599,67.35
253,Straumen,11.298,63.871
60,Leknes,5.377,60.573
253,Sand,11.538,60.393
435,Fagernes,9.237,60.988
176,Farsund,6.787,58.092
176,Skjold,5.577,59.503
303,Haga,5.769,60.386
303,Dale,5.82,60.585
363,Dale,5.396,61.36
211,Sande,5.795,61.323
211,Husoey,17.661,69.544
303,Boe,14.466,68.616
253,Husoey,12.096,66.503
72,Kvaal,10.282,63.231
103,Roed,10.943,59.075
72,Saetre,10.525,59.681
60,Soevik,6.278,62.547
103,Saetre,6.094,62.303
2240,Foerde,5.848,61.456
60,Slettebrotane,7.831,58.268
435,Haegeland,7.742,58.384
211,Skjaerhalden,11.036,59.025
72,Hellvik,5.88,58.48
211,Moi,6.55,58.458
123,Liknes,6.963,58.315
72,Feda,6.818,58.27
253,Lyngdal,7.068,58.137
123,Vigeland,7.302,58.083
253,Mehamn,27.851,71.035
176,Kiberg,31.002,70.286
211,Breivikbotn,22.294,70.59
103,Vestre Jakobselv,29.332,70.113
522,Deanusaldi,28.191,70.199
626,Kirkenes,30.042,69.728
901,Lakselv,24.947,70.053
60,Movik,19.098,69.717
86,Opphaug,9.691,63.729
522,Brekstad,9.665,63.689
363,Fillan,8.974,63.605
86,Svorkmo,9.744,63.17
72,Askjem,9.993,63.514
176,Selbekken,9.819,63.506
60,Trolla,10.307,63.451
60,Spongdal,10.163,63.358
147,Meldal,9.711,63.047
103,Torvikbukt,7.85,62.943
1867,Oppdal,9.693,62.595
253,Sistranda,8.828,63.728
72,Hasle,11.162,59.316
72,Skivika,11.081,59.218
147,Skjeberg,11.196,59.208
86,Sponvika,11.226,59.095
147,Tomter,11.004,59.66
60,Slitu,11.265,59.585
176,Kirkebygden,10.874,59.49
103,Skiptvet,11.161,59.476
103,Svinndal,11.013,59.423
60,Fuglevik,10.658,59.389
103,Ryggebyen,10.763,59.375
86,Jelsnes,11.163,59.379
72,Larkollen,10.667,59.337
147,Degernes,11.424,59.356
123,Forsand,6.1,58.9
103,Ploganes,6.014,60.262
176,Lervik,10.745,59.275
86,Slevik,10.818,59.193
211,Buskogen,10.94,59.181
303,Rakkestad,11.342,59.427
103,Faaberg,10.406,61.169
86,Stavsjoe,10.839,60.807
103,Heggenes,9.069,61.143
123,Gran/Ringstad,10.572,60.36
60,Revetal/Bergsaasen,10.263,59.372
60,Oddevall/Sjaastad,10.216,59.864
72,Lauve/Viksjord,10.159,59.065
60,Vadfoss/Helle,9.379,58.901
147,Aalgaard/Figgjo,5.854,58.765
86,Padlene,5.474,59.381
60,Aakrehamn,5.191,59.261
176,Oestenstad,5.629,59.425
72,Kleppe/Verdalen,5.631,58.774
751,Sogndalsfjoera,7.095,61.231
522,Lyngseidet,20.217,69.572
363,Skibotn,20.274,69.392
253,Gibostad,18.075,69.356
103,Nordkjosbotn,19.566,69.217
103,Bleik,15.96,69.273
147,Borkenes,16.171,68.773
147,Andselv,18.522,69.07
435,Myre,15.086,68.916
751,Setermoen,18.351,68.861
147,Straume,14.48,68.688
103,Sigerfjord,15.512,68.646
253,Bjerkvik,17.557,68.552
147,Bogen,17.008,68.524
123,Melbu,14.807,68.505
211,Ramsund,16.523,68.493
123,Beisfjord,17.6,68.371
253,Ballangen,16.828,68.341
60,Gravdal,13.539,68.119
147,Ballstad,13.545,68.075
103,Reine,13.089,67.935
303,Rognan,15.395,67.102
363,Inndyr,14.033,67.035
363,Lovund,12.36,66.368
72,Hauknes,14.053,66.283
211,Hemnesberget,13.624,66.226
363,Nesna,13.025,66.195
147,Bjerka,13.837,66.146
363,Korgen,13.811,66.076
435,Gladstad,11.959,65.678
303,Hattfjelldal,13.999,65.597
363,Trofors,13.405,65.534
211,Berg,12.201,65.368
123,Vik,12.168,65.312
253,Eikefjord,5.464,61.589
60,Skogsvaagen,5.105,60.257
60,Sekkingstad,4.984,60.355
86,Slaattevik,5.464,59.312
123,Ferkingstad,5.189,59.213
103,Kolnes,5.587,58.901
103,Vatne,5.787,58.857
86,Missingmyr,10.937,59.345
60,Blaker,11.302,60.001
123,Hogsetfeltet,11.358,59.974
86,Aursmoen,11.451,59.925
86,Fjellsrud,11.236,59.883
253,Flateby,11.143,59.835
123,Fjellstrand,10.608,59.792
72,Longum,8.773,58.508
60,Sandvoll,10.916,59.765
103,Lunner,10.582,60.305
123,Lommedalen,10.471,59.964
176,Jondal,6.255,60.279
86,Uggdalseidet,5.499,59.996
72,Tingnes,10.943,60.764
103,Torvika,5.788,61.921
103,Leikanger,5.318,62.118
60,Haugsbygda,5.584,62.236
176,Mosvik,11.003,63.816
147,Hunn,11.771,64.462
103,Namsskogan sentrum,13.154,64.931
60,Vikvaagen,16.267,68.739
103,Minnesund,11.201,60.39
86,Eidsvoll,11.261,60.328
103,Maura,11.036,60.257
60,Sessvollmoen,11.148,60.235
72,Teigebyen,11.023,60.223
72,Skogrand,11.51,60.229
86,Nordkisa,11.262,60.188
123,Opakermoen,11.515,60.176
60,Fjellfoten,11.465,60.092
72,Kirkebygda,11.15,59.761
176,Ytre Enebakk,11.04,59.73
303,Moelv,10.702,60.932
72,Ingeberg,11.135,60.827
211,Torget,11.063,60.437
147,Roverud,12.057,60.251
60,Neskollen,11.341,60.122
123,Aulifeltet,11.351,60.034
60,Fjellstad,11.095,59.865
103,Mesnali,10.699,61.101
103,Ilseng,11.231,60.776
60,Romedal Sentrum,11.296,60.739
147,Stange,11.19,60.717
103,Gata,11.346,60.682
72,Kjellmyra,12.036,60.645
363,Tangen,11.267,60.616
626,Flisa,12.012,60.613
72,Mo,11.635,60.429
176,Skarnes,11.679,60.249
72,Sander,11.806,60.227
211,Skotterud,12.125,59.984
60,Magnor,12.203,59.951
103,Braskereidfoss,11.808,60.724
176,Os,11.231,62.497
176,Tolga,11,62.409
626,Tynset,10.777,62.272
176,Kolvereid,11.603,64.864
103,Dalvvesvaggi,20.529,69.606
522,Hansnes,19.613,69.962
435,Storsteinnes,19.218,69.237
303,Gryllefjord,17.05,69.361
123,Moen,18.62,69.121
253,Tennevoll,17.807,68.748
211,Grov,17.125,68.674
253,Ibestad,17.171,68.78
72,Rypefjord,23.683,70.634
522,Storslett,21.025,69.767
1081,Andenes,16.12,69.319
103,Leland,12.942,66.064
303,Stokmarknes,14.91,68.566
103,Stamsund,13.845,68.134
303,Sulitjelma,16.063,67.139
522,Sauda,6.356,59.652
253,Nedstrand,5.854,59.347
123,Skudeneshamn,5.265,59.151
123,Judaberg,5.871,59.166
103,Tau,5.924,59.055
211,Stenebyen,5.594,58.842
72,Sviland,5.82,58.823
123,Oltedal,6.034,58.828
303,Gilja,6.253,58.809
60,Lyefjell,5.732,58.732
86,Undheim,5.774,58.683
103,Varhaug,5.646,58.618
303,Tonstad,6.72,58.664
253,Vigrestad,5.689,58.569
60,Brusand,5.744,58.541
123,Sunde/Valen,5.716,59.837
86,Espeland,5.461,60.378
123,Skoge/Moevik,5.017,60.325
751,Vossevangen,6.422,60.631
176,Fanahammeren,5.34,60.263
86,Oma,5.97,60.218
303,Norheimsund,6.158,60.372
253,Ulsteinvik,5.851,62.345
123,Glomfjord,13.956,66.818
253,Lauvsnes,10.914,64.501
211,Storforshei,14.527,66.405
147,Silvalen,12.292,65.987
123,Ranemsletta,11.95,64.494
435,Grong,12.313,64.466
435,Namdalseid,11.224,64.223
211,Malm,11.215,64.069
176,Follafoss,11.105,63.988
72,Trones,11.414,63.822
60,Lysthaugen,11.62,63.761
176,Ekne,11.039,63.7
86,Skogn,11.185,63.703
363,Leksvik,10.621,63.672
123,Vanvikan,10.216,63.555
86,Skatval,10.815,63.511
147,Bangsund,11.394,64.396
123,Velde,11.397,64.11
103,Sparbu,11.437,63.919
123,Hommelvik,10.803,63.41
626,Midtbygda,11.76,63.421
60,Eggkleiva,10.047,63.283
363,Mebonden,11.036,63.231
86,Ler,10.308,63.196
86,Korsvegen,10.103,63.166
211,Lundamo,10.287,63.153
103,Hovin,10.223,63.102
176,Soknedal,10.186,62.948
522,Renbygda,11.315,62.84
60,Hammarvika,8.807,63.7
86,Kvaloeysletta,18.879,69.697
303,Kvalsund,23.985,70.5
123,Forsoel,23.799,70.722
72,Hanoey,5.095,60.45
253,Krossen,8.062,59.695
60,Leikong,5.783,62.249
103,Rophus,5.3,59.492
86,Steinvaag,5.222,59.735
123,Avaldsnes,5.281,59.356
103,Vestby,10.75,59.604
103,Fagerstrand,10.594,59.737
626,Hemnes,11.45,59.717
72,Ringvoll,10.847,59.557
123,Siggerud,10.885,59.793
363,Skei/Surnadalsoera,8.696,62.966
211,Stjoerdalshalsen,10.921,63.469
1297,Karasjohka,25.513,69.474
1297,Guovdageaidnu,23.039,69.014
103,Senjehopen,17.485,69.499
522,Boe,9.069,59.413
60,Farsund,5.942,61.431
147,Fagernes,19.185,69.561
86,Arna,5.473,60.423
72,Askje,5.694,59.067
103,Bokn,5.437,59.229
363,Burfjord,22.052,69.939
123,Vikeboe,5.053,60.563
147,Torsteinvik,4.941,60.491
60,Frommereid,5.082,60.502
176,Drag,16.082,68.044
72,Dragsund,5.816,62.281
60,Sundgot,5.836,62.316
86,Vassoey,5.787,58.998
253,Orkanger/Fannrem,9.858,63.31
123,Melhus,10.275,63.286
123,Rotnes,10.864,60.06
72,Spydeberg,11.083,59.62
303,Knarvik,5.281,60.545
435,Sortland,15.413,68.701
1297,Rjukan,8.588,59.879
253,Seljord,8.628,59.487
253,Dalen,8.004,59.443
103,Hjukse,9.321,59.509
72,Folkestad,9.076,59.445
147,Kviteseid,8.474,59.409
253,Nordagutu,9.327,59.416
86,Gvarv,9.172,59.386
72,Bjervamoen,9.104,59.296
211,Ulefoss,9.272,59.278
363,Fyresdal,8.092,59.185
211,Preststranda,9.061,59.096
435,Tveitsund,8.524,59.021
211,Neslandsvatn,9.163,58.972
103,Kil,9.298,58.892
211,Tvedestrand,8.926,58.623
147,Kilsund,8.978,58.556
86,Blakstad,8.643,58.507
123,Rykene,8.64,58.408
72,Jortveit,8.512,58.27
147,Herre,9.559,59.101
435,Hovden,7.36,59.561
435,Bykle,7.333,59.35
147,Gjerstad,9.021,58.88
176,Eikeland,9.082,58.804
303,Aamli,8.482,58.759
435,Myra,8.865,58.75
176,Byglandsfjord,7.805,58.668
901,Evje,7.813,58.587
103,Sira,6.664,58.42
147,Birkeland,8.231,58.33
60,Skarpengland,7.842,58.295
103,Tveit,8.102,58.222
626,Beitostoelen,8.923,61.243
103,Hoevaag,8.244,58.17
60,Fiksdal,6.851,62.619
86,Hollingen,6.991,62.779
103,Bratsberg,10.476,63.348
751,Skjervoey,20.967,70.031
303,Sommaroey,18.006,69.635
176,Soerreisa,18.161,69.145
176,Sjoevegan,17.855,68.873
1867,Svolvaer,14.564,68.238
60,Kabelvaag,14.472,68.211
751,Kjoepsvik,16.374,68.099
363,Oppeid,15.627,68.082
176,Loeding,14.738,67.299
901,Oernes,13.713,66.869
522,Terraak,12.371,65.086
751,Roervik,11.236,64.865
123,Bjoernevatn,29.968,69.67
1081,Baatsfjord,29.704,70.631
363,Berlevaag,29.09,70.862
363,Kjoellefjord,27.35,70.944
103,Alsvaag,15.273,68.901
211,Evenskjaer,16.574,68.586
435,Soervaagen,13.021,67.887
522,Loedingen,15.983,68.409
176,Henningsvaer,14.203,68.153
86,Reipaa,13.639,66.912
86,Stroemsnes,15.173,67.302
303,Roestlandet,12.117,67.517
751,Soerland,12.698,67.667
72,Haakvik,17.322,68.405
3225,Roeyrvik,13.563,64.887
363,Hoeylandet,12.297,64.629
435,Snaasa,12.382,64.246
176,Aasen,11.051,63.609
60,Boersa,10.072,63.327
176,Klaebu,10.478,63.299
522,Stoeren,10.287,63.039
1081,Roeros,11.383,62.576
1081,Aa,10.214,63.966
176,Lysoeysund,9.878,63.883
86,Botngaard,9.809,63.767
211,Raakvaagen,10.075,63.76
211,Aarnset,9.965,63.586
123,Langoerjan,10.141,63.417
253,Kyrksaeteroera,9.078,63.293
211,Loekken Verk,9.701,63.125
60,Storaas,9.599,63.093
211,Batnfjordsoera,7.678,62.893
363,Berkaak,10.012,62.83
103,Heiaas,11.299,59.702
123,Skjoenhaug,11.327,59.644
147,Oerje,11.657,59.482
86,Troemborg,11.362,59.508
72,Vaak,10.794,59.458
211,Bjoerkelangen,11.564,59.884
176,Loeken,11.462,59.797
60,Kraakstad,10.887,59.68
103,Hoelen,10.74,59.541
123,Loestad,10.828,60.117
147,Aarnes,11.468,60.121
60,Aaneby,10.868,60.087
72,Kampaa,11.392,60.222
103,Aasgrenda,10.982,60.183
72,Eltonaasen,11.02,60.139
123,Loeten,11.349,60.824
123,Vaaler,11.837,60.675
303,Kirkenaer,12.062,60.454
72,Disenaa,11.64,60.215
1081,Dombaas,9.13,62.076
211,Vaagaamo,9.098,61.875
123,Bjoelstad,9.284,61.76
147,Faavang,10.2,61.456
123,Roen,9.059,61.035
253,Aal,8.558,60.63
522,Roedberg,8.945,60.269
253,Kroederen,9.787,60.125
103,Roeyken,10.399,59.746
176,Aasgaardstrand,10.462,59.355
86,Hoeyjord,10.125,59.368
72,Barkaaker,10.402,59.318
103,Aaroeysund,10.459,59.184
86,Tjoeme,10.392,59.118
72,Sandoeya,9.731,59.048
626,Aamot,7.992,59.572
303,Risoer,9.231,58.721
147,Skaalevik,8.014,58.081
60,Sagvaag,5.393,59.778
123,Skaanevik,5.93,59.73
147,Langevaag,5.212,59.602
123,Oelen,5.815,59.605
303,Vikevaag,5.703,59.101
123,Aalvik,6.435,60.433
123,Taelavaag,4.984,60.261
60,Soefteland,5.45,60.238
86,Soere oeyane,5.369,60.14
86,Saeboevik,5.713,59.797
363,Roeldal,6.822,59.833
176,Aagotnes,5.011,60.405
60,Brandsoey,5.135,61.602
123,Fotlandsvaag,5.524,60.591
176,Storeboe,5.247,60.086
147,Vaage,5.523,60.04
147,Aaraas,4.924,60.781
751,Lindaas,5.153,60.735
1081,Maaloey,5.112,61.938
253,Kalvaag,4.872,61.767
253,Oevre Aardal,7.805,61.309
147,Aardalstangen,7.711,61.24
303,Viksoeyri,6.583,61.085
303,Laerdalsoeyri,7.483,61.098
103,Aarset,6.398,62.504
147,Grodaas,6.528,61.97
176,Brattvaag,6.44,62.589
60,Sjoeholt,6.816,62.484
176,Kaarvaag,7.439,63.013
176,Tingvollvaagen,8.2,62.915
253,Elnesvaagen,7.157,62.855
253,Eidsvaag,8.055,62.776
435,Sunndalsoera,8.563,62.674
60,Groea,8.713,62.647
3870,Vadsoe,29.75,70.076
1556,Hammerfest,23.696,70.666
1556,Alta,23.257,69.966
5572,Tromsoe,18.956,69.651
1081,Harstad,16.541,68.8
626,Narvik,17.426,68.436
522,Fauske,15.394,67.26
16634,Bodoe,14.405,67.28
1867,Mo i Rana,14.138,66.315
363,Sandnessjoeen,12.627,66.018
1081,Mosjoeen,13.195,65.837
901,Namsos,11.501,64.466
1081,Steinkjer,11.49,64.012
103,Verdalsoera,11.452,63.788
522,Levanger,11.298,63.743
86,Malvik,10.615,63.436
6686,Trondheim,10.418,63.422
901,Kristiansund,7.73,63.112
522,Molde,7.169,62.74
1867,Aalesund,6.159,62.474
522,Oersta,6.127,62.201
123,Volda,6.076,62.145
522,Floroe,5.033,61.599
3225,Bergen,5.325,60.393
60,Askoey,5.22,60.407
435,Osoeyro,5.473,60.185
751,Odda,6.547,60.067
522,Leirvik,5.502,59.784
1081,Haugesund,5.287,59.415
303,Kopervik,5.309,59.281
123,Joerpeland,6.043,59.02
72,Hommersaak,5.847,58.923
1867,Stavanger/Sandnes,5.729,58.951
72,Vanse,6.692,58.095
86,Nodeland,7.832,58.156
147,Krossen,7.519,58.095
303,Rosendal,6.014,59.987
303,Fitjar,5.326,59.921
72,Dimmelsvik,5.981,59.951
103,Uskedal,5.865,59.93
147,Svortland,5.187,59.795
176,Mosterhamn,5.383,59.702
253,Etne,5.943,59.666
176,Sveio,5.341,59.539
123,Sandeid,5.865,59.546
103,Vikedal,5.905,59.497
211,Ulvik,6.917,60.569
86,Tyristrand,10.096,60.085
147,Steinsaasen,10.29,60.089
60,Sundvollen,10.314,60.062
86,Nakkerud,10.051,60.047
123,Hvittingfoss,10.008,59.486
522,Geilo,8.208,60.536
103,Noresund,9.621,60.179
123,Veggli,9.147,60.044
176,Prestfoss,9.635,60.043
123,Sysle,9.916,59.994
60,Vikersund,9.994,59.966
123,Sylling,10.287,59.895
147,Lampeland,9.579,59.839
176,Skotselv,9.887,59.846
86,Svene,9.585,59.794
123,Vestfossen,9.875,59.733
72,Darbu,9.794,59.7
60,Hyggen,10.366,59.719
123,Tofte,10.563,59.548
211,Klevjer,10.208,59.649
72,Nesbygda,10.384,59.655
123,Svelvik,10.407,59.617
103,Selvik,10.262,59.57
86,Berger,10.386,59.55
86,Hof,10.084,59.531
103,Moltustranda,5.626,62.292
253,Larsnes,5.579,62.204
211,Selje,5.349,62.042
176,Bryggja,5.451,61.941
522,Nordfjordeid,5.995,61.909
253,Stryn,6.718,61.905
103,Innvik,6.617,61.85
147,Olden,6.809,61.835
303,Sandane,6.217,61.776
103,Re,6.407,61.737
147,Byrkjelo,6.507,61.733
751,Hardbakke,4.843,61.078
103,Austnes,6.264,62.639
253,Vestnes,7.089,62.622
103,Tomra,6.938,62.589
86,Vatne,6.621,62.559
103,Nordstrand,6.131,62.519
60,Leitebakk,6.036,62.477
901,Sandvika,13.593,64.461
253,Skodje,6.704,62.504
72,Hareid,6.025,62.372
211,Sykkylven,6.579,62.389
147,Stordal,6.993,62.383
103,Straumgjerde,6.593,62.336
176,Stranda,6.935,62.309
363,Hellesylt,6.861,62.09
303,Aure,8.531,63.268
60,Bremsnes,7.658,63.084
72,Solsletta,7.883,63.082
176,Storbakken,7.778,63.031
176,Nerland,7.114,62.961
176,Rindal,9.21,63.057
211,Bud,6.916,62.906
123,Eide,7.447,62.919
72,Tornes,7.027,62.843
303,Steinshamn,6.467,62.783
123,Malme,7.229,62.8
123,Rausand,8.122,62.832
176,Midsund,6.676,62.673
176,Voll,7.439,62.53
86,Sneltvedt,9.639,59.219
60,Nykirke,10.387,59.424
103,Kodal,10.116,59.229
60,Yli,9.195,59.56
363,Svarstad,9.959,59.399
147,Andebu,10.184,59.304
211,Siljan,9.7,59.274
72,Sem,10.331,59.281
103,Stokke,10.296,59.222
123,Kvelde,9.971,59.195
123,Langangen,9.803,59.085
60,Verningen,10.099,59.092
72,Hvasser,10.448,59.08
253,Tinn Austbygd,8.825,59.996
123,Miland,8.765,59.929
211,Roald,6.12,62.583
72,Ersfjordbotn,18.621,69.693
435,Folldal,9.991,62.135
363,Alvdal,10.632,62.108
211,Bismo,8.262,61.884
522,Fossbergom,8.562,61.838
103,Lalm,9.276,61.814
176,Eidfjord,7.074,60.467
253,Kinsarvik,6.726,60.376
123,Hammarsland,5.078,60.206
176,Eikelandsosen,5.748,60.245
103,Tyssedal,6.562,60.118
211,Skarde,6.596,59.931
123,Haugland,4.928,60.699
86,Austmarka,5.179,60.619
60,Stanghelle,5.743,60.552
60,Frekhaug,5.239,60.517
86,Valestrandfossen,5.426,60.508
211,Vaksdal,5.74,60.48
123,Granvin,6.723,60.526
72,Flesland,5.211,60.293
363,Otta,9.54,61.773
103,Sandbumoen,9.531,61.72
363,Otnes,11.171,61.759
147,Kvam,9.683,61.666
1556,Vinstra,9.746,61.598
103,Hundorp,9.942,61.554
626,Koppang,11.048,61.572
211,Ringebu,10.141,61.529
1081,Innbygda,12.263,61.316
103,Nybergsund,12.327,61.263
363,Rena,11.364,61.136
147,Vingrom,10.425,61.049
60,Biri,10.62,60.95
60,Bybrua,10.588,60.804
147,Tretten,10.306,61.315
253,Granrudmoen,10.444,61.246
86,Follebu,10.28,61.216
211,Slidre,8.988,61.089
147,Aurdal,9.413,60.922
363,Bagn,9.546,60.825
626,Dokka,10.071,60.836
72,Nordlia,10.759,60.747
176,Kapp,10.864,60.714
303,Hov,10.353,60.698
86,Reinsvoll,10.616,60.682
86,Lena,10.813,60.674
123,Skreia,10.927,60.653
211,Eina,10.599,60.627
253,Brandbu/Jaren,10.505,60.418
123,Grua,10.657,60.255
147,Jevnaker,10.387,60.241
211,Harestua,10.717,60.199
363,Hemsedal,8.555,60.863
1556,Gol,8.933,60.697
147,Torpo,8.715,60.665
176,Hol,8.293,60.616
253,Nesbyen,9.104,60.571
103,Hallingby,10.187,60.27
253,Sokna,9.925,60.238
147,Bekkjarvik,5.195,60.011
176,Manger,5.039,60.639
147,Fedje,4.703,60.779
103,Raudeberg,5.135,61.986
147,Bremanger,4.978,61.841
363,Svelgen,5.297,61.769
363,Skei,6.483,61.573
123,Naustdal,5.717,61.512
123,Langhaugane,6.061,61.482
176,Askvoll,5.063,61.349
363,Gaupne,7.293,61.405
176,Hafslo,7.201,61.317
103,Austreim,5.949,61.167
211,Balestrand,6.531,61.209
72,Hermansverk/Leikanger,6.851,61.188
103,Kaupanger,7.24,61.185
211,Eivindvik,5.079,60.982
147,Byrknes,4.837,60.897
522,Aurlandsvangen,7.19,60.906
72,Kleive,7.632,62.794
176,Hjelset,7.508,62.783
176,Nesjestranda,7.428,62.697
147,Rafsbotn,23.53,70.022
147,Tverrelvdalen,23.489,69.927
253,Hjelmelandsvaagen,6.182,59.235
123,Ydsteboehamn,5.403,59.062
72,Hoele,6.009,58.897
211,Vikesaa,6.08,58.633
211,Oeysleboe,7.552,58.17
103,Hoellen,7.147,58.045
901,Honningsvaag,25.979,70.982
363,Havoeysund,24.663,70.998
522,Vardoe,31.104,70.371
435,Oeksfjord,22.354,70.237
363,Aandalsnes,7.687,62.562
60,Broennsletten,7.697,62.535
147,Fiskaabygd,5.559,62.1
751,Finnsnes,17.982,69.232
72,Groenlund,10.998,60.076
522,Hoeyanger,6.074,61.22
103,Liland,16.883,68.481
751,Broennoeysund,12.202,65.463
626,Hasvik,22.168,70.486
123,Hestvika,9.192,63.559
103,Fosnavaag,5.63,62.342
176,Solfjellsjyen,12.492,66.111
60,Hamnaas,11.405,59.616
176,Botten,9.558,58.969
147,Vangsvik,17.743,69.171
211,Kaafjordbotn,20.833,69.496
123,Ubergsmoen,8.823,58.682
86,Blomvaag,4.872,60.534
211,Liaboe,8.314,63.118
522,Bygland,7.8,58.828
176,Frosta,10.742,63.589
147,Bruflat,9.645,60.892
72,Torhaug,7.319,62.729
86,Furuflaten,20.151,69.441
72,Rossnes,4.861,60.568
60,Bru,5.658,59.037
176,Lesja,8.855,62.12
123,Skeie,7.234,58.464
211,Byremo,7.401,58.423
176,Austmarka,12.321,60.101
60,Lismarka,10.625,61.071
103,Heimdal,11.37,60.871
123,Heradsbygd,11.641,60.825
86,Farestad,7.529,57.988
86,Trengereid,5.625,60.428
123,Ask,5.216,60.479
60,Hesthagen,7.318,62.758
147," Gamvik",28.24,71.064
86,Bergen,5.331,60.353
176,Asker,10.439,59.827
72,Krokstadelva,10.03,59.76
86,Sunde,5.614,58.962
253,Skedsmokorset,11.028,59.997
