rmax,name,lon,lat
100000,Bucureşti,26.101,44.44
4644,Cluj-Napoca,23.592,46.773
3225,Timişoara,21.227,45.754
2240,Iaşi,27.58,47.158
1867,Constanţa,28.63,44.176
1867,Craiova,23.8,44.317
3225,Galaţi,28.035,45.436
2240,Braşov,25.609,45.649
1297,Ploieşti,26.018,44.939
1556,Oradea,21.932,47.057
435,Brăila,27.956,45.274
1081,Piteşti,24.863,44.857
1556,Sibiu,24.15,45.792
1081,Arad,21.316,46.18
1867,Bacău,26.913,46.561
626,Târgu Mureş,24.56,46.54
901,Buzău,26.817,45.152
2240,Baia Mare,23.572,47.653
1081,Botoşani,26.657,47.745
522,Satu Mare,22.878,47.79
435,Drobeta-Turnu Severin,22.658,44.633
435,Râmnicu Vâlcea,24.368,45.104
751,Focşani,27.182,45.69
751,Piatra Neamţ,26.375,46.932
363,Târgovişte,25.462,44.923
1556,Târgu Jiu,23.275,45.037
901,Tulcea,28.798,45.177
522,Slatina,24.367,44.431
901,Călărași,27.325,44.202
901,Bistrita,24.492,47.135
1297,Giurgiu,25.963,43.896
901,Hunedoara,22.909,45.759
303,Deva,22.908,45.874
435,Suceava,26.243,47.644
901,Bârlad,27.673,46.228
626,Sfântu Gheorghe,25.789,45.865
522,Municipiul Alba Iulia,23.571,46.075
626,Municipiul Zalău,23.057,47.187
303,Roman,26.931,46.924
901,Municipiul Vaslui,27.73,46.642
522,Municipiul Slobozia,27.369,44.564
253,Municipiul Alexandria,25.328,43.97
751,Lunca Bârzavei,21.875,45.323
435,Municipiul Mediaş,24.342,46.159
147,Municipiul Medgidia,28.267,44.248
363,Municipiul Oneşti,26.769,46.251
901,Municipiul Mangalia,28.579,43.813
751,Petroșani-Colonie,23.373,45.408
363,Oraş Năvodari,28.608,44.325
303,Municipiul Miercurea Ciuc,25.802,46.359
435,Municipiul Lugoj,21.906,45.689
522,Municipiul Odorheiu Secuiesc,25.301,46.308
303,Municipiul Râmnicu Sărat,27.046,45.382
751,Oraş Borşa,24.649,47.655
363,Câmpina,25.739,45.128
253,Drăgăneşti / Barcea / Umbrăreşti / Iveşti / Lieşti,27.502,45.699
522,Municipiul Caracal,24.348,44.111
86,Suceava Burdujeni,26.28,47.673
303,Municipiul Dej,23.876,47.137
253,Oraş Mioveni,24.939,44.958
435,Municipiul Tecuci,27.43,45.843
176,Slobozia / Piatra Șoimului / Zăneşti / Borleşti / Rediu,26.513,46.815
626,Municipiul Reghin,24.7,46.775
303,Municipiul Făgăraş,24.976,45.839
435,Turda,23.811,46.556
435,Municipiul Sighetu Marmaţiei,23.893,47.931
303,Municipiul Sighişoara,24.803,46.222
303,Municipiul Câmpulung,25.053,45.276
211,Municipiul Roşiori de Vede,24.989,44.112
211,Municipiul Huşi,28.065,46.676
522,Oltenița,26.638,44.093
176,Municipiul Lupeni,23.206,45.352
303,Municipiul Rădăuţi,25.916,47.841
522,Municipiul Fălticeni,26.299,47.458
211,Municipiul Curtea de Arges,24.673,45.148
253,Bilca,25.685,47.917
72,Municipiul Vulcan,23.296,45.372
303,Municipiul Caransebeş,22.222,45.415
253,Municipiul Gherla,23.907,47.033
86,Municipiul Câmpia Turzii,23.886,46.542
303,Vălenii de Munte,26.04,45.2
72,Valea Domanului,21.881,45.291
751,Municipiul Turnu Măgurele,24.872,43.753
363,Municipiul Paşcani,26.719,47.252
72,Municipiul Codlea,25.446,45.696
363,Municipiul Carei,22.467,47.686
435,Municipiul Dorohoi,26.4,47.95
211,Municipiul Feteşti,27.822,44.415
303,Municipiul Sebeş,23.57,45.957
103,Floreşti,23.492,46.744
103,Oraş Cernavoda,28.032,44.346
363,Municipiul Târgu Secuiesc,26.131,45.998
253,Oraş Buftea,25.945,44.565
626,Municipiul Motru,22.97,44.802
103,Oraş Petrila,23.381,45.447
103,Săcele,25.707,45.617
211,Municipiul Blaj,23.92,46.175
363,Municipiul Gheorgheni,25.594,46.721
363,Dâmbovicioara,25.545,44.662
751,Municipiul Salonta,21.654,46.802
522,Dănești,25.77,46.546
211,Izvoarele,26.007,45.29
1081,Calafat,22.933,43.989
363,Oraş Cugir,23.363,45.838
211,Municipiul Târnăveni,24.298,46.328
522,Urziceni,26.645,44.714
103,Filipeştii de Pădure,25.748,44.978
363,Moinești,26.487,46.479
211,Cisnădie-Piața Nouă,24.15,45.713
147,Balotești / Corbeanca,26.067,44.607
211,Traian,26.96,47.011
123,Chitila,25.983,44.506
435,Oraş Sânnicolau Mare,20.623,46.071
303,Roșia Jiu,23.16,44.897
72,Municipiul Orăştie,23.194,45.841
176,Oraş Zimnicea,25.363,43.657
303,Municipiul Aiud,23.72,46.31
253,Oraş Târgu Neamţ,26.367,47.205
211,Oraş Râşnov,25.463,45.589
211,Măgureni,25.77,45.04
211,Municipiul Adjud,27.185,46.097
72,Matca,27.536,45.856
86,Marginea,25.815,47.818
303,Municipiul Marghita,22.335,47.35
751,Municipiul Drăgăşani,24.262,44.658
176,Oraş Drăgăneşti-Olt,24.526,44.163
176,Oraş Ovidiu,28.568,44.255
303,Oraş Balş,24.118,44.344
147,Oraş Pecica,21.069,46.166
147,Poienile de Sub Munte,24.427,47.828
176,Fundeni,26.323,44.394
103,Oraş Vişeu de Sus,24.433,47.704
211,Gura Humorului,25.89,47.554
522,Municipiul Vatra Dornei,25.357,47.347
211,Oraş Corabia,24.502,43.778
176,Cumpăna,28.556,44.111
363,Eforie Sud,28.645,44.016
147,Comănești,26.442,46.422
176,Pasărea,26.326,44.467
751,Oraş Sinaia,25.55,45.345
147,Poiana Mare,23.072,43.921
123,Zărneşti,25.317,45.56
435,Oraş Sântana,21.504,46.347
303,Oraş Negreşti-Oaş,23.432,47.87
103,Oraş Dărmăneşti,26.491,46.37
363,Municipiul Băileşti,23.346,44.023
303,Oraş Mizil,26.441,45.004
522,Oraş Valea Lui Mihai,22.131,47.521
86,Moroeni / Pietroşiţa / Buciumeni,25.443,45.196
147,Municipiul Orşova,22.401,44.727
522,Cornetu,27.049,45.506
103,Vârteșcoiu,27.08,45.751
253,Susenii Bârgăului,24.717,47.216
211,Oraş Covasna,26.181,45.846
303,Oraş Buhuşi,26.706,46.718
303,Oraş Sângeorz-Băi,24.67,47.371
901,Oraş Oraviţa,21.704,45.038
751,Oraş Babadag,28.718,44.891
303,Fundeni,26.871,45.269
303,Oraş Luduş,24.094,46.474
303,Oraş Sovata,25.069,46.596
147,Oraş Podu Iloaiei,27.26,47.213
253,Oraş Panciu,27.072,45.919
253,Periș / Niculeşti,25.982,44.682
103,Oraş Târgu Frumos,27.013,47.211
86,Slănic,25.95,45.208
176,Schitu Goleşti / Godeni,24.993,45.178
363,Municipiul Brad,22.795,46.126
147,Oraş Buşteni,25.536,45.41
123,Oraş Simeria,23.009,45.852
123,Joseni,25.506,46.687
303,Oraş Ţăndărei,27.661,44.641
363,Oraş Filiaşi,23.523,44.552
303,Conțești / Frumoasa / Bragadiru,25.5,43.778
86,Brăhăşeşti,27.35,46.051
86,Oraş Otopeni,26.072,44.547
176,Vlăhița,25.522,46.347
435,Oraş Dăbuleni,24.091,43.804
211,Oraş Ocna Mureş,23.856,46.385
303,Oraş Ineu,21.839,46.433
363,Colibași,26.193,44.205
176,Gugești,27.119,45.562
103,Oraş Şimleu Silvaniei,22.795,47.23
211,Brazi,26.005,44.861
103,Oraş Murfatlar,28.416,44.176
60,Chirnogi,26.571,44.111
211,Oraş Siret,26.067,47.95
147,Oraş Călimăneşti,24.361,45.239
211,Clinceni,25.974,44.372
86,Brașov Nord-Est,25.646,45.677
435,Borcea,27.738,44.33
147,Plopeni,25.95,45.045
176,Izbiceni,24.665,43.829
103,Oraş Mărăşeşti,27.227,45.878
103,Apahida,23.738,46.797
72,Tărlungeni,25.775,45.643
303,Municipiul Beiuş,22.349,46.666
123,Afumați,26.248,44.526
176,Municipiul Câmpulung Moldovenesc,25.565,47.526
176,Oraş Cajvana,25.961,47.703
123,Oraş Curtici,21.31,46.345
363,Cleja,26.925,46.403
86,Oraş Baia Sprie,23.694,47.661
303,Oraş Oţelu Roşu,22.356,45.515
253,Fârţăneşti / Măstăcani / Folteşti,28.019,45.773
72,Mihail Kogălniceanu,28.46,44.366
363,Băbeni,24.231,44.962
363,Oraş Haţeg,22.952,45.61
303,Belceşti,27.092,47.308
751,Usije,21.62,44.728
147,Şiria,21.638,46.276
147,Axente Sever,24.228,46.102
176,Feldioara / Hăghig,25.575,45.831
435,Victoria,24.703,45.731
253,Oraş Pucioasa,25.434,45.076
303,Oraş Şegarcea,23.744,44.094
211,Oraş Seini,23.289,47.747
72,Săbăoani,26.865,47.011
103,Oraş Bolintin-Vale,25.765,44.45
123,Oraş Fieni,25.417,45.127
253,Oraş Nădlac,20.745,46.167
435,Oraş Aleşd,22.399,47.055
435,Municipiul Topliţa,25.349,46.925
147,Oraş Găeşti,25.322,44.721
522,Oraş Lipova,21.693,46.088
176,Bicaz / Tarcău,26.109,46.906
123,Maieru,24.75,47.408
176,Oraş Măcin,28.136,45.243
211,Oraş Năsăud,24.409,47.284
60,Dumbrăveni,26.419,47.661
211,Oraş Strehaia,23.186,44.623
147,1 Decembrie,26.055,44.289
123,Cudalbi,27.684,45.774
211,Oraş Hârşova,27.948,44.683
147,Oraş Săcueni,22.098,47.352
147,Brebu Megieșesc,25.757,45.186
176,Oraş Beclean,24.177,47.178
72,Oraş Târgu Ocna,26.616,46.276
253,Oraş Costeşti,24.883,44.671
123,Oraş Bocşa,21.72,45.375
253,Ciorani,26.408,44.824
211,Dofteana,26.531,46.323
72,Băicoi,25.87,45.033
123,Bosanci,26.313,47.587
253,Oraş Jibou,23.257,47.259
147,Oraş Anina,21.852,45.082
751,Oraş Ianca,27.479,45.132
147,Oraş Fundulea,26.504,44.467
86,Bălan,25.813,46.653
147,Oraş Chişineu-Criş,21.514,46.521
103,Oraş Avrig,24.38,45.725
86,Oraş Călan,23.027,45.728
176,Oraş Tăşnad,22.584,47.476
211,Sadova,23.955,43.902
147,Baia,26.207,47.415
435,Oraş Ştei,22.458,46.539
123,Peretu,25.089,44.045
435,Cobadin,28.236,44.062
363,Oraş Huedin,23.029,46.863
211,Zagavia,26.904,47.429
123,Cilieni / Tia Mare,24.619,43.89
176,Băleni,25.653,44.818
103,Roseti,27.449,44.217
435,Oraş Însurăţei,27.608,44.916
72,Techirghiol,28.597,44.053
86,Jilava,26.079,44.334
123,Munteni-Buzău / Căzăneşti,26.989,44.633
72,Oraş Uricani,23.126,45.333
211,Gilău,23.388,46.755
363,Oraş Bumbeşti-Jiu,23.382,45.179
211,Măgurele,26.032,45.111
123,Homocea,27.239,46.14
103,Sângeorgiu de Mureş,24.606,46.577
176,Oraş Teiuş,23.678,46.204
522,Oraş Videle,25.527,44.278
626,Diosig,21.999,47.306
103,Oraş Pâncota,21.691,46.331
103,Berceni,26.188,44.311
363,Lehliu-Gară,26.867,44.429
103,Oraş Amara,27.314,44.62
303,Dragalina,27.336,44.434
363,Cartojani,25.475,44.432
147,Oraş Cristuru Secuiesc,25.03,46.289
72,Plosca,25.15,44.026
123,Oraş Urlaţi,26.229,44.991
303,Oraş Jimbolia,20.718,45.794
147,Cojasca,25.838,44.725
363,Oraş Negreşti,27.461,46.833
72,Oraş Tălmaciu,24.26,45.669
103,Oraş Iernut,24.231,46.451
303,Vâlcele / Izvoarele,24.539,44.275
60,Rodna,24.813,47.421
103,Dancu,27.669,47.154
60,Răşinari,24.068,45.704
176,Fierbinți-Târg,26.38,44.684
9627,Oraş Darabani,26.591,48.187
147,Dumbrăveni,24.576,46.229
253,Oraş Agnita,24.619,45.976
211,Ruscova / Leordina,24.274,47.791
86,Scorţeni,25.846,45.09
176,Oraş Săveni,26.854,47.956
211,Oraş Topoloveni,25.082,44.812
253,Giarmata,21.309,45.842
103,Voluntari-Pipera,26.136,44.501
147,Poiana Sibiului / Jina,23.711,45.8
