rs,name,lon,lat,r1
123,Ljungbyhed,13.235,56.075,50
72,Norra Asum,14.144,55.99,50
86,Onslunda,14.052,55.599,50
363,Osby,14.001,56.385,50
211,Perstorp,13.399,56.136,50
72,Rinkaby,14.272,55.983,50
103,Sankt Olof,14.13,55.638,50
86,Sibbhult,14.198,56.268,50
60,Skillinge,14.279,55.471,50
72,Skanes-Fagerhult,13.469,56.373,50
72,Stroevelstorp,12.839,56.175,50
176,Soesdala,13.677,56.039,50
176,Tomelilla,13.944,55.544,50
147,Torekov,12.63,56.426,50
86,Tormestorp,13.745,56.111,50
60,Torsebro,14.117,56.102,50
86,Vankiva,13.743,56.201,50
123,Vejbystrand,12.773,56.311,50
86,Vinsloev,13.904,56.096,50
60,Vittskoevle,14.146,55.857,50
60,Asljunga,13.362,56.31,50
211,Astorp,12.949,56.135,50
435,Aengelholm,12.877,56.253,50
72,Oennestad,14.024,56.059,50
60,Oestra Karup,12.948,56.421,50
103,Oestra Ljungby,13.064,56.189,50
123,Glimakra,14.139,56.31,50
72,Mala,13.71,56.24,50
103,Andersloev,13.32,55.438,50
72,Riala,18.533,59.63,50
211,Bua,12.12,57.238,50
435,Falkenberg,12.496,56.903,50
72,Fjaeras kyrkby,12.173,57.458,50
60,Frillesas,12.173,57.319,50
86,Fyllinge,12.935,56.635,50
147,Getinge,12.733,56.816,50
86,Glommen,12.365,56.932,50
72,Gullbrandstorp,12.732,56.706,50
1081,Halmstad,12.899,56.675,147
123,Harplinge,12.73,56.745,50
123,Hishult,13.313,56.427,50
60,Holm,12.861,56.734,50
363,Hyltebruk,13.241,57.005,50
86,Kinnared,13.102,57.026,50
72,Kvibille,12.835,56.783,50
147,Landeryd,13.27,57.079,50
103,Skivarp,13.572,55.425,50
72,Stangby,13.194,55.75,50
103,Tagarp,12.955,55.925,50
72,Langas,12.449,56.977,50
253,Oskarstroem,12.976,56.797,50
72,Rolfstorp,12.457,57.146,50
123,Simlangsdalen,13.129,56.721,50
123,Skaellinge,12.47,57.181,50
86,Sloeinge,12.693,56.856,50
86,Saeroe,11.944,57.52,50
123,Torup,13.074,56.954,50
123,Traesloevslaege,12.281,57.055,50
60,Tangaberg,12.228,57.173,50
253,Ullared,12.716,57.133,50
86,Vallberga,13.024,56.467,50
86,Vallda,11.963,57.479,50
435,Varberg,12.27,57.112,103
103,Veinge,13.068,56.554,50
60,Pershagen,17.657,59.152,50
72,Eldsberga,12.986,56.598,50
176,Knaered,13.323,56.519,50
60,Billesholm,12.976,56.058,50
86,Bjuv,12.915,56.081,50
103,Blentarp,13.6,55.585,50
60,Domsten,12.607,56.119,50
123,Ekeby,12.975,55.999,50
72,Flyinge,13.365,55.754,50
60,Holsbybrunn,15.198,57.436,50
103,Horda,14.257,57.036,50
60,Klockrike,15.337,58.496,50
435,Norrkoeping,16.179,58.591,72
253,Ringarum,16.444,58.335,50
303,Tjaellmo,15.354,58.716,50
147,Bottnaryd,13.826,57.771,50
147,Eksjoe,14.971,57.668,50
103,Grimstorp,14.698,57.558,50
147,Hanger,13.972,57.076,50
103,Ingatorp,15.413,57.639,50
1081,Joenkoeping,14.16,57.755,176
303,Klevshult,14.098,57.354,50
123,Kulltorp,13.791,57.264,50
86,Grisslehamn,18.807,60.101,50
60,Gustavsberg,18.391,59.328,50
363,Hallstavik,18.599,60.054,50
176,Herraeng,18.647,60.13,50
147,Hoeloe,17.539,59.025,50
123,Karby,18.221,59.561,50
60,Kopparmora,18.58,59.331,50
147,Kungsberga,17.636,59.406,50
211,Karsta,18.268,59.655,50
72,Lidingoe,18.148,59.362,50
60,Lindholmen,18.107,59.586,50
60,Odensberg,13.44,58.154,50
103,Mariedal,17.68,59.569,50
72,Moelnbo,17.421,59.048,50
123,Nykvarn,17.427,59.177,50
60,Oskar-Fredriksborg,18.435,59.396,50
60,Resaroe,18.341,59.433,50
123,Johansfors,15.536,56.695,50
147,Kastloesa,16.424,56.443,50
211,Kristdala,16.206,57.4,50
86,Kristvallabrunn,16.052,56.779,50
176,Loftahammar,16.687,57.902,50
86,Langasjoe,15.447,56.582,50
123,Maleras,15.567,56.908,50
147,Malilla,15.788,57.384,50
435,Moensteras,16.441,57.042,50
123,Moerlunda,15.866,57.32,50
363,Nybro,15.906,56.745,60
176,Orrefors,15.746,56.839,50
1081,Oskarshamn,16.432,57.257,123
147,Paryd,15.924,56.566,50
176,Paskallavik,16.454,57.166,50
123,Ruda,16.115,57.11,50
103,Silverdalen,15.75,57.541,50
72,Johannishus,15.42,56.224,50
86,Kallinge,15.288,56.252,50
363,Karlshamn,14.856,56.174,86
626,Karlskrona,15.624,56.198,123
72,Kaettilsmala,15.739,56.281,50
72,Listerby,15.397,56.19,50
147,Norje,14.67,56.127,50
103,Naevragoel,15.567,56.373,50
72,Pukavik,14.68,56.16,50
211,Ronneby,15.278,56.209,50
123,Roedeby,15.622,56.26,50
123,Sturkoe,15.674,56.115,50
72,Spjutsbygd,15.592,56.312,50
123,Svaengsta,14.77,56.265,50
176,Soelvesborg,14.576,56.048,50
123,Torhamn,15.848,56.096,50
211,Tving,15.468,56.307,50
60,Vilshult,14.482,56.355,50
103,Arkelstorp,14.289,56.172,50
60,Ballingsloev,13.845,56.213,50
72,Hummelsta,16.945,59.626,50
123,Jaerlasa,17.204,59.885,50
86,Karlholmsbruk,17.625,60.522,50
123,Knutby,18.269,59.911,50
123,Lillkyrka,17.249,59.559,50
60,Laenna,17.957,59.872,50
86,Marma,17.424,60.491,50
211,Mehedeby,17.403,60.447,50
86,Skoby,18.021,60.029,50
176,Skutskaer,17.397,60.64,50
86,Raby,17.498,59.534,50
123,Fornasa,15.232,58.479,50
103,Slottsskogen,17.609,59.69,50
123,Soederfors,17.234,60.387,50
176,Vaesterhaninge,18.063,59.114,50
626,Tierp,17.52,60.345,72
103,Braas,15.056,57.061,50
303,Lammhult,14.582,57.17,50
147,Stroemsnaesbruk,13.735,56.551,50
103,Urshult,14.818,56.533,50
253,Vislanda,14.454,56.786,50
253,Vaeckelsang,14.918,56.643,50
1556,Vaexjoe,14.798,56.894,211
123,Aby,14.777,57.024,50
72,Aelghult,15.575,57.008,50
751,Aelmhult,14.137,56.55,72
86,Algutsrum,16.531,56.68,50
103,Berga,16.037,57.22,50
86,Bockara,16.068,57.263,50
303,Borgholm,16.662,56.876,50
303,Degerhamn,16.417,56.354,50
103,Edsbruk,16.471,58.019,50
253,Emmaboda,15.553,56.633,50
86,Eriksmala,15.486,56.735,50
176,Fagerhult,15.664,57.146,50
176,Figeholm,16.549,57.374,50
103,Fliseryd,16.254,57.125,50
86,Froedinge,16.002,57.701,50
103,Fagelfors,15.844,57.206,50
253,Gamleby,16.401,57.893,50
103,Gullringen,15.719,57.8,50
72,Gunnebo,16.527,57.722,50
176,Hagby,16.182,56.559,50
123,Halltorp,16.101,56.499,50
253,Hjorted,16.309,57.623,50
363,Hultsfred,15.838,57.49,50
103,Storebro,15.842,57.588,50
522,Vaernamo,14.041,57.185,103
522,Aseda,15.353,57.167,60
123,Raella,16.57,56.772,50
147,Soedra Vi,15.793,57.742,50
86,Totebo,16.186,57.63,50
72,Trekanten,16.116,56.7,50
60,Tvaerskog,16.046,56.621,50
1081,Uppsala,17.634,59.851,123
72,Vattholma,17.731,60.015,50
147,Aelvkarleby,17.454,60.57,50
103,Oerbyhus,17.706,60.227,50
123,Oesterbybruk,17.894,60.198,50
626,Oesthammar,18.361,60.26,86
211,Alberga,16.116,59.281,50
123,Ramstalund,17.444,59.799,50
86,Skaerplinge,17.76,60.472,50
86,Bettna,16.64,58.907,50
176,Bie,16.211,59.089,50
86,Bjoerkvik,16.522,58.837,50
72,Buskhyttan,16.942,58.663,50
522,Eskilstuna,16.503,59.371,60
60,Hallsta,16.459,59.295,50
60,Haellberga,16.6,59.32,50
72,Haerad,16.902,59.361,50
103,Hoegsjoe,15.669,59.026,50
626,Katrineholm,16.205,58.992,103
363,Malmkoeping,16.724,59.135,50
211,Mariefred,17.23,59.266,50
123,Merlaenna,16.982,59.28,50
435,Nykoeping,17.023,58.757,103
72,Naevekvarn,16.798,58.633,50
103,Runtuna,17.075,58.872,50
103,Skogstorp,16.475,59.326,50
123,Sparreholm,16.822,59.074,50
123,Stigtomta,16.783,58.802,50
176,Strangsjoe,16.193,58.904,50
86,Svalsta,16.867,58.743,50
103,Torshaella,16.467,59.422,50
303,Trosa,17.546,58.899,50
147,Tystberga,17.236,58.851,50
86,Vagnhaerad,17.487,58.947,50
72,Sund,17.409,58.962,50
72,Valla,16.377,59.02,50
60,Aerla,16.679,59.287,50
147,Bjoersaeter,16.021,58.336,50
303,Boxholm,15.045,58.192,50
176,Brokind,15.679,58.217,50
72,Fagelsta,15.039,58.457,50
72,Gistad,15.89,58.466,50
86,Soederakra,16.064,56.448,50
147,Oeregrund,18.445,60.333,50
72,Kraegga,17.404,59.607,50
103,Marmorbyn,16.07,59.046,50
72,Stjaernhov,17.008,59.081,50
123,Alberga,16.578,58.725,50
72,Grebo,15.871,58.3,50
103,Gusum,16.495,58.267,50
176,Hestra,15.074,57.955,50
176,Horn,15.843,57.9,50
103,Haestholmen,14.64,58.278,50
86,Haelleforsnaes,16.502,59.156,50
176,Oxeloesund,17.087,58.676,50
86,Stallarholmen,17.205,59.368,50
72,Torshaella huvud,16.46,59.454,50
211,Vrena,16.703,58.861,50
103,Falerum,16.207,58.144,50
72,Kimstad,15.966,58.549,50
435,Kisa,15.635,57.984,60
1867,Linkoeping,15.621,58.404,211
147,Ljusfallshammar,15.503,58.786,50
303,Mjoelby,15.13,58.333,50
435,Motala,15.041,58.547,72
60,Norsholm,15.971,58.518,50
176,Rimforsa,15.682,58.137,50
72,Rydsnaes,15.152,57.798,50
147,Simonstorp,16.156,58.786,50
123,Skaerblacka,15.921,58.584,50
86,Slaka,15.565,58.368,50
72,Svaertinge,16.025,58.654,50
211,Soederkoeping,16.325,58.473,50
303,Valdemarsvik,16.596,58.21,60
72,Vanga,15.814,58.582,50
103,Vaederstad,14.924,58.313,50
60,Vaestra Husby,16.175,58.485,50
363,Atvidaberg,15.998,58.198,50
303,Oesterbymo,15.273,57.827,50
176,Oestra Husby,16.562,58.576,50
147,Oestra Ryd,16.165,58.405,50
303,Aneby,14.808,57.835,50
211,Bankeryd,14.125,57.858,50
60,Bjoerkoeby,14.905,57.518,50
211,Bodafors,14.705,57.505,50
123,Bredaryd,13.732,57.173,50
72,Bruzaholm,15.275,57.642,50
147,Oelmstad,14.397,57.925,50
147,Ekenaessjoen,15.02,57.49,50
103,Flisby,14.801,57.783,50
147,Forserum,14.471,57.7,50
60,Forsheda,13.831,57.162,50
303,Gislaved,13.565,57.302,60
123,Gnosjoe,13.743,57.354,50
103,Gripenberg,14.855,57.992,50
253,Hestra,13.593,57.447,50
86,Hillerstorp,13.884,57.311,50
72,Linghem,15.786,58.432,50
147,Nykyrka,14.973,58.624,50
103,Stralsnaes,15.089,58.237,50
211,Oedeshoeg,14.651,58.229,50
72,Broaryd,13.253,57.123,50
86,Stavsjoe,16.435,58.729,50
72,Skaerstad,14.363,57.886,50
103,Oelme,14.008,59.363,50
123,Vaeskinde,18.42,57.69,50
60,Ovesholm,14.038,55.994,50
86,Holmeja,13.274,55.555,50
86,Aselstad,16.225,58.546,50
211,Kyrksten,14.393,59.437,50
211,Baelgviken,16.458,59.248,50
86,Skeda udde,15.56,58.291,50
103,Brevikshalvoen,18.355,59.221,50
103,Bro,17.633,59.518,50
303,Djuroe,18.701,59.312,50
123,Edsbro,18.489,59.896,50
123,Ekeby,17.522,59.254,50
253,Rimbo,18.36,59.744,50
86,Rosersberg,17.888,59.583,50
72,Rydbo,18.186,59.462,50
123,Ranaes,18.304,59.804,50
72,Sigtuna,17.718,59.621,50
72,Lugnet och Skaelsmara,18.542,59.248,50
211,Stenhamra,17.687,59.335,50
72,Stora Vika,17.787,58.956,50
147,Svanberga,18.662,59.839,50
72,Jordbro,18.127,59.145,50
751,Nynaeshamn,17.944,58.905,50
123,Soederby-Karl,18.702,59.892,50
103,Soedersvik,18.918,59.752,50
123,Upplands Vaesby,17.924,59.514,50
176,Vaxholm,18.334,59.404,50
60,Varsta,17.79,59.167,50
147,Aelmsta,18.812,59.971,50
176,Almunge,18.048,59.878,50
303,Alunda,18.085,60.066,50
123,Vaenge,17.436,59.858,50
211,Balsta,17.521,59.578,50
147,Fjaerdhundra,16.922,59.774,50
211,Gimo,18.184,60.173,50
86,Grillby,17.257,59.626,50
123,Gunsta,17.832,59.855,50
86,Gavsta,17.876,59.944,50
86,Hargshamn,18.466,60.169,50
86,Grevie,12.781,56.39,50
86,Gaersnaes,14.182,55.549,50
103,Hammenhoeg,14.157,55.503,50
72,Huaroed,13.971,55.842,50
253,Haessleholm,13.774,56.16,60
72,Immeln,14.247,56.206,50
253,Kivik,14.221,55.687,50
147,Klippan,13.144,56.136,50
147,Knislinge,14.087,56.195,50
60,Kvidinge,13.052,56.134,50
86,Linderoed,13.822,55.932,50
103,Oersjoe,15.751,56.701,50
435,Burgsvik,18.277,57.033,50
363,Faroesund,19.05,57.859,50
176,Havdhem,18.327,57.162,50
751,Hemse,18.383,57.239,103
253,Ljugarn,18.707,57.333,50
147,Laerbro,18.786,57.786,50
363,Slite,18.795,57.712,60
103,Stanga,18.471,57.283,50
103,Tingstaede,18.604,57.732,50
1297,Visby,18.314,57.639,253
176,Backaryd,15.153,56.346,50
72,Braekne-Hoby,15.117,56.232,50
60,Gaengletorp,15.748,56.167,50
86,Hallabro,15.102,56.391,50
176,Hassloe,15.469,56.111,50
253,Holmsjoe,15.539,56.421,50
60,Haellevik,14.695,56.013,50
86,Bovallstrand,11.33,58.476,50
176,Donsoe,11.801,57.602,50
123,Elloes,11.473,58.179,50
123,Fagerhult,12.023,58.418,50
253,Fjaellbacka,11.29,58.598,50
123,Haellingsjoe,12.439,57.619,50
72,Grundsund,11.427,58.212,50
3870,Goeteborg,11.999,57.685,751
86,Hamburgsund,11.278,58.557,50
147,Hedekas,11.793,58.643,50
86,Hindas,12.445,57.703,50
60,Hjuvik,11.734,57.71,50
103,Hunnebostrand,11.304,58.438,50
123,Haellesaker,12.184,57.599,50
103,Haellevadsholm,11.538,58.578,50
103,Haelleviksstrand,11.446,58.123,50
60,Steninge,12.631,56.773,50
303,Veddige,12.329,57.267,50
60,Bergby,17.035,60.931,50
522,Bergsjoe,17.059,61.98,50
147,Bjoerke,17.19,60.764,50
901,Bollnaes,16.372,61.348,103
253,Delsbo,16.555,61.805,50
363,Enanger,17.013,61.546,50
60,Forsbacka,16.909,60.612,50
147,Faerila,15.839,61.796,50
176,Gnarp,17.237,62.05,50
2688,Gaevle,17.122,60.69,211
72,Hammarby,16.571,60.544,50
60,Hamrangefjaerden,17.057,60.902,50
86,Harmanger,17.222,61.931,50
123,Hedesunda,16.998,60.397,50
1297,Hudiksvall,17.116,61.729,176
60,Hybo,16.198,61.797,50
123,Halsjoe,16.78,61.827,50
176,Iggesund,17.076,61.645,50
86,Jaederfors,16.689,60.665,50
123,Jaedraas,16.468,60.841,50
303,Jaerbo,16.6,60.72,50
103,Jaettendal,17.249,61.979,50
253,Hassela,16.691,62.115,50
211,Ljusne,17.126,61.211,50
626,Los,15.168,61.735,72
86,Lottefors,16.41,61.422,50
72,Njutanger,17.057,61.61,50
211,Norrsundet,17.138,60.933,50
123,Naesviken,16.877,61.765,50
363,Ockelbo,16.719,60.892,50
72,Sandarne,17.153,61.269,50
176,Sandviken,16.775,60.619,50
147,Skog,16.839,61.168,50
72,Stocka,17.337,61.893,50
123,Saelgsjoen,17.113,60.617,50
60,Soederala,16.923,61.285,50
363,Soederhamn,17.056,61.309,86
60,Tallasen,16,61.861,50
123,Torsaker,16.48,60.511,50
123,Troedje,17.211,60.821,50
103,Vallsta,16.366,61.519,50
211,Amot,16.446,60.964,50
123,Arsunda,16.735,60.515,50
211,Oesterfaernebo,16.801,60.31,50
86,Skare,13.433,59.44,50
211,Storfors,14.275,59.535,50
123,Sulvik,12.407,59.681,50
363,Sunne,13.143,59.834,60
103,Sunnemo,13.729,59.884,50
363,Sysslebaeck,12.868,60.732,86
176,Saeffle,12.924,59.133,50
435,Torsby,13,60.13,72
147,Uddheden,12.909,59.947,50
123,Vallargaerdet,13.577,59.475,50
103,Valberg,13.185,59.391,50
176,Vaese,13.849,59.381,50
211,Amotfors,12.369,59.769,50
626,Arjaeng,12.133,59.385,72
72,Oersloesa,13.004,58.511,50
522,Askersund,14.911,58.89,50
147,Degerfors,14.43,59.237,50
86,Ekeby-Almby,15.337,59.258,50
123,Finneroedja,14.436,58.923,50
147,Fjugesta,14.868,59.174,50
253,Froevi,15.365,59.471,50
123,Garphyttan,14.951,59.304,50
86,Gusselby,15.221,59.644,50
123,Hallsberg,15.099,59.067,50
86,Hasselfors,14.649,59.087,50
123,Hovsta,15.227,59.346,50
303,Lenhovda,15.272,56.995,50
147,Edane,12.824,59.629,50
176,Haellefors,14.516,59.784,50
86,Kilsmo,15.544,59.067,50
435,Kopparberg,15.02,59.867,50
303,Kumla,15.141,59.129,50
253,Laxa,14.62,58.982,50
147,Forshaga,13.484,59.536,50
86,Mjoenaes,13.56,59.878,50
86,Rottneros,13.11,59.795,50
253,Toecksfors,11.848,59.509,50
103,Glanshammar,15.402,59.317,50
253,Hjortkvarn,15.439,58.897,50
626,Lindesberg,15.224,59.601,72
86,Mullhyttan,14.687,59.153,50
176,Nora,15.02,59.524,50
72,Norra Bro,15.251,59.225,50
123,Palsboda,15.34,59.065,50
60,Ramsberg,15.297,59.769,50
86,Rockhammar,15.448,59.529,50
72,Roenneshytta,15.048,58.92,50
60,Vartofta,13.628,58.096,50
147,Vedum,12.995,58.171,50
72,Vaering,13.964,58.509,50
123,Vaersas,14.047,58.348,50
103,Asarp,13.565,58.025,50
86,Aelgaras,14.253,58.813,50
176,Ambjoerby,13.171,60.495,50
626,Arvika,12.603,59.665,123
86,Bjoerneborg,14.248,59.241,50
147,Baeckhammar,14.186,59.158,50
303,Charlottenberg,12.312,59.885,50
147,Deje,13.481,59.603,50
60,Fagersanna,14.303,58.469,50
253,Gullspang,14.102,58.982,50
60,Jung,13.113,58.327,50
123,Sjoetorp,13.98,58.837,50
176,Tibro,14.167,58.417,50
147,Toereboda,14.132,58.707,50
72,Oexabaeck,12.804,57.395,50
72,Oexeryd,12.28,57.739,50
103,Blikstorp,14.058,58.28,50
103,Eggby,13.645,58.433,50
72,Ekedalen,13.842,58.2,50
522,Falkoeping,13.553,58.174,60
147,Floby,13.339,58.134,50
86,Forsvik,14.432,58.574,50
147,Graestorp,12.68,58.331,50
147,Goetene,13.463,58.523,50
103,Habo,14.08,57.908,50
363,Hova,14.216,58.853,50
211,Haellekis,13.438,58.629,50
72,Igelstorp,13.975,58.399,50
60,Jonslund,12.834,58.16,50
253,Karlsborg,14.52,58.529,50
211,Kinnarp,13.524,58.074,50
176,Kvaenum,13.185,58.298,50
103,Kaettilstorp,13.71,58.041,50
86,Lerdala,13.715,58.477,50
363,Lidkoeping,13.147,58.495,86
103,Lundsbrunn,13.447,58.473,50
60,Lyrestad,14.058,58.804,50
86,Madaengsholm,13.924,58.141,50
72,Moholm,14.041,58.608,50
72,Moelltorp,14.411,58.497,50
176,Nossebro,12.725,58.19,50
103,Saleby,13.148,58.377,50
211,Skara,13.442,58.384,50
123,Skultorp,13.833,58.342,50
522,Skoevde,13.85,58.399,147
103,Stora Levene,12.926,58.328,50
176,Stoepen,13.865,58.48,50
211,Tidaholm,13.962,58.18,50
253,Tidan,14.013,58.571,50
176,Bjaernum,13.709,56.293,50
147,Aetran,12.948,57.124,50
147,Vickleby,16.464,56.587,50
86,Eringsboda,15.367,56.44,50
176,Borrby,14.18,55.457,50
72,Broesarp,14.104,55.724,50
176,Bastad,12.857,56.428,50
72,Eket,13.19,56.249,50
435,Vimmerby,15.847,57.669,86
60,Emmaljunga,13.652,56.39,50
72,Everoed,14.091,55.899,50
86,Foersloev,12.817,56.351,50
60,Joerlanda,11.829,57.99,50
147,Kode,11.85,57.941,50
176,Kungshamn,11.261,58.362,50
303,Kungaelv,11.969,57.87,50
72,Kallekaerr,11.664,58.029,50
86,Kaerna,11.792,57.845,50
123,Landvetter,12.215,57.688,50
176,Ljungskile,11.925,58.223,50
103,Marstrand,11.593,57.891,50
176,Molloesund,11.477,58.073,50
60,Olofstorp,12.146,57.795,50
72,Rabbalshede,11.473,58.613,50
72,Haellabrottet,15.232,59.109,50
626,Stoellet,13.273,60.409,60
303,Olshammar,14.8,58.749,50
103,Roennaeng,11.582,57.94,50
253,Roeroe,11.62,57.776,50
123,Stora Hoega,11.82,58.016,50
2688,Stroemstad,11.177,58.943,147
86,Saeve,11.913,57.802,50
303,Tanumshede,11.326,58.724,50
211,Uddevalla,11.936,58.356,50
72,Varekil,11.709,58.124,50
60,Vrangoe,11.785,57.572,50
147,Ambjoernarp,13.294,57.421,50
211,Bengtsfors,12.218,59.028,60
103,Billingsfors,12.244,58.981,50
60,Bjoerboholm,12.325,57.875,50
147,Bjoerketorp,12.526,57.426,50
123,Bollebygd,12.565,57.674,50
123,Borgstena,13.013,57.885,50
522,Boras,12.94,57.728,123
60,Bredared,12.901,57.805,50
211,Baeckefors,12.157,58.804,50
211,Dals Langed,12.298,58.926,50
147,Dalstorp,13.521,57.604,50
86,Dalum,13.465,57.901,50
72,Dannike,13.227,57.684,50
363,Ed,11.94,58.911,50
176,Hoenoe,11.647,57.69,50
522,Lysekil,11.446,58.28,50
147,Taberg,14.083,57.689,50
86,Tenhult,14.323,57.71,50
626,Tranas,14.976,58.037,86
60,Tunnerstad,14.346,58.05,50
303,Vaggeryd,14.149,57.497,60
626,Vetlanda,15.085,57.415,50
72,Oerserum,14.576,58.008,50
253,Korsberga,15.125,57.301,50
103,Agunnaryd,14.145,56.749,50
147,Alvesta,14.551,56.901,50
86,Angelstad,13.763,56.826,50
86,Delary,13.953,56.547,50
211,Dioe,14.228,56.646,50
123,Fridafors,14.657,56.408,50
60,Furuby,15.034,56.853,50
72,Gemla,14.654,56.865,50
123,Ingelstad,14.92,56.744,50
60,Arild,12.586,56.271,50
86,Sonstorp,15.634,58.724,50
147,Kvillsfors,15.515,57.406,50
86,Konga,15.122,56.495,50
147,Kosta,15.397,56.843,50
103,Kanna,13.904,56.781,50
60,Lessebo,15.27,56.749,50
103,Linneryd,15.128,56.658,50
522,Ljungby,13.943,56.833,86
176,Markaryd,13.601,56.459,50
103,Norrhult-Klavrestroem,15.162,57.128,50
253,Rottne,14.894,57.024,50
211,Ryd,14.691,56.466,50
123,Ryssby,14.164,56.866,50
176,Raevemala,15.266,56.555,50
522,Tingsryd,14.979,56.528,60
60,Traryd,13.74,56.577,50
103,Veberoed,13.492,55.636,50
147,Vollsjoe,13.78,55.704,50
103,Edsvalla,13.213,59.439,50
72,Geijersholm,13.727,60.066,50
103,Gunnarskog,12.562,59.816,50
1556,Hagfors,13.692,60.033,72
253,Klaessbol,12.743,59.539,50
123,Koppom,12.157,59.708,50
176,Kristinehamn,14.11,59.313,50
147,Hoegboda,13.054,59.559,50
303,Lesjoefors,14.176,59.98,50
211,Lysvik,13.136,60.017,50
147,Molkom,13.729,59.604,50
253,Nordmark,14.1,59.832,50
176,Nykroppa,14.303,59.621,50
147,Segmon,13.042,59.271,50
147,Skoghall,13.521,59.335,50
303,Stenungsund,11.838,58.075,50
147,Svanesund,11.821,58.141,50
60,Frufaellan,12.982,57.776,50
147,Fraendefors,12.278,58.498,50
303,Faergelanda,11.993,58.569,50
86,Graefsnaes,12.489,58.08,50
123,Herrljunga,13.031,58.079,50
60,Hillared,13.156,57.631,50
72,Hjaertum,12.106,58.18,50
123,Holsljunga,12.974,57.412,50
60,Hyssna,12.538,57.554,50
176,Ingared,12.456,57.851,50
60,Kinnarumma,12.876,57.596,50
176,Lerum,12.276,57.776,50
103,Limmared,13.36,57.535,50
72,Ljungsarp,13.582,57.566,50
211,Laenghem,13.244,57.601,50
363,Mellerud,12.461,58.698,86
86,Mjoebaeck,12.877,57.311,50
60,Tulebo,12.1,57.617,50
176,Nygard,12.216,58.057,50
72,Rangedala,13.128,57.794,50
86,Sandhult,12.821,57.772,50
147,Sjuntorp,12.225,58.199,50
72,Sjoevik,12.366,57.914,50
60,Velanda,12.31,58.228,50
303,Svenljunga,13.108,57.496,50
86,Lanna,13.782,57.221,50
123,Lekeryd,14.419,57.772,50
123,Malmbaeck,14.46,57.574,50
147,Mariannelund,15.576,57.613,50
72,Nissafors,13.631,57.41,50
123,Paulistroem,15.507,57.47,50
72,Reftele,13.599,57.174,50
147,Rydaholm,14.308,56.985,50
72,Skede,15.175,57.469,50
72,Skeppshult,13.376,57.125,50
147,Skillingaryd,14.087,57.433,50
147,Sommen,14.969,58.129,50
60,Stensjoen,14.824,57.581,50
72,Stockaryd,14.594,57.318,50
253,Saevsjoe,14.663,57.395,60
72,Vinberg,12.544,56.95,50
176,Vaxtorp,13.118,56.416,50
123,Aled,12.954,56.743,50
86,Arstad,12.677,56.917,50
147,Asa,12.12,57.349,50
72,Vassmoloesa,16.156,56.592,50
72,Vena,15.976,57.519,50
211,Vissefjaerda,15.582,56.537,50
901,Vaestervik,16.626,57.755,147
60,Jonstorp,12.671,56.227,50
72,Kattarp,12.784,56.141,50
60,Klagerup,13.251,55.596,50
86,Kungshult,13.411,55.852,50
86,Kageroed,13.087,56,50
103,Kaevlinge,13.113,55.795,50
86,Koepingebro,13.934,55.455,50
103,Lomma,13.076,55.676,50
253,Lund,13.203,55.713,50
147,Loeberoed,13.513,55.776,50
8023,Malmoe,13.009,55.597,522
60,Mjoehult,12.686,56.176,50
253,Moelle,12.497,56.284,50
60,Norra Roerum,13.509,56.02,50
103,Oxie,13.099,55.54,50
60,Abbekas,13.599,55.396,50
86,Bara,13.183,55.581,50
522,Sjoebo,13.701,55.636,50
211,Skurup,13.501,55.48,50
123,Smygehamn,13.376,55.346,50
147,Sollebrunn,12.532,58.119,50
103,Svaloev,13.104,55.913,50
72,Svarte,13.716,55.431,50
176,Svedala,13.228,55.514,50
147,Sjulsmark,21.485,65.519,50
176,Svappavaara,21.055,67.648,50
363,Tjautjas/Cavccas,20.735,67.325,50
176,Toere,22.654,65.916,50
253,Ullatti,21.818,67.017,50
147,Visttraesk,20.647,65.692,50
751,Vittangi,21.639,67.678,147
363,Vuollerim,20.624,66.431,86
147,Nyborg,23.186,65.788,50
253,Oeverkalix,22.848,66.324,72
1297,Oevertornea,23.641,66.39,123
123,Sibble,17.747,59.112,50
103,Skebobruk,18.611,59.967,50
100000,Stockholm,18.091,59.27,0
123,Dalaroe,18.417,59.138,50
435,Maersta,17.847,59.627,50
86,Tumba,17.822,59.198,50
363,Karlskoga,14.532,59.334,86
211,Kil,13.317,59.505,50
211,Vaestra Aemtervik,13.143,59.726,50
211,Odensbacken,15.529,59.164,50
86,Roefors,14.622,58.936,50
103,Brastad,11.479,58.387,50
60,Grebbestad,11.254,58.695,50
147,Henan,11.671,58.235,50
103,Hogstorp,11.762,58.397,50
253,Braendoen,22.336,65.696,50
103,Hemmingsmark,21.284,65.224,50
363,Karungi,23.949,66.045,50
363,Ranea,22.293,65.859,50
211,Munkedal,11.685,58.466,50
147,Skaerhamn,11.557,57.992,50
72,Tjuvkil,11.741,57.896,50
435,Alingsas,12.538,57.93,50
60,Blidsberg,13.493,57.927,50
147,Bralanda,12.349,58.563,50
123,Dalsjoefors,13.107,57.722,50
86,Fengersfors,12.464,58.994,50
60,Moelnlycke,12.113,57.657,50
103,Fritsla,12.784,57.559,50
72,Grimsas,13.551,57.483,50
60,Hedared,12.754,57.807,50
176,Horred,12.471,57.355,50
147,Hoegsaeter,12.054,58.649,50
103,Marbaeck,13.421,57.741,50
72,Rydal,12.693,57.556,50
176,Langviksmon,18.698,63.631,50
86,Moliden,18.456,63.378,50
253,Naesaker,16.902,63.443,50
86,Stora Melloesa,15.503,59.211,50
103,Vedevag,15.289,59.527,50
211,Asbro,15.056,58.991,50
303,Fagersta,15.809,60.002,50
103,Kolbaeck,16.239,59.564,50
147,Norberg,15.928,60.066,50
435,Sala,16.58,59.918,50
86,Saetra brunn,16.437,59.864,50
123,Taernsjoe,16.926,60.154,50
626,Vaesteras,16.543,59.618,123
253,Bjursas,15.45,60.738,50
86,Bonaes,14.489,61.073,50
72,Torestorp,12.677,57.386,50
147,Toesse,12.644,58.971,50
72,Aespered,13.179,57.756,50
147,Ljung,13.059,57.988,50
86,Kjulaas,16.677,59.389,50
86,Melloesa,16.562,59.1,50
60,Skoeldinge,16.455,59.033,50
211,Straengnaes,17.019,59.373,60
86,Tumbo,16.342,59.426,50
176,Vingaker,15.875,59.046,50
103,Aeskoeping,16.064,59.147,50
60,Ekaengen,15.64,58.466,50
103,Godegard,15.162,58.747,50
123,Igelfors,15.691,58.845,50
1556,Vilhelmina,16.66,64.625,211
626,Vindeln,19.719,64.2,72
253,Vaennaes,19.744,63.905,60
211,Anaeset,21.044,64.278,50
751,Asele,17.352,64.163,103
103,Naelden,14.25,63.347,50
176,Granoe,19.311,64.251,50
211,Loevanger,21.315,64.368,50
86,Taeftea,20.482,63.839,50
751,Arjeplog,17.862,66.046,147
435,Boden,21.676,65.824,60
103,Strassa,15.208,59.743,50
103,Barkaroe,16.506,59.552,50
211,Heby,16.854,59.943,50
72,Medaker,15.752,59.453,50
60,Riddarhyttan,15.537,59.809,50
86,Valskog,15.947,59.442,50
626,Avesta,16.178,60.14,103
60,Brunnsberg,13.919,61.285,50
103,Floda,14.812,60.511,50
103,Husby,15.998,60.392,50
123,Djuras,15.132,60.559,50
123,Naglarby och Enbacka,15.588,60.415,50
60,Enviken,15.756,60.808,50
72,Sexdrega,13.118,57.579,50
60,Skepplanda,12.211,57.983,50
86,Genarp,13.399,55.599,50
86,Klagstorp,13.378,55.394,50
363,Landskrona,12.84,55.875,50
103,Loevestad,13.892,55.655,50
86,Bjaerred,13.03,55.717,50
147,Roestanga,13.291,56,50
103,Stehag,13.393,55.9,50
86,Vinninga,13.262,58.453,50
72,Ardala,13.333,58.361,50
901,Mariestad,13.821,58.704,72
176,Fagerhult,14.126,58.001,50
86,Fraemmestad,12.667,58.235,50
253,Hjo,14.276,58.301,50
147,Jaerpas,12.975,58.38,50
123,Lugnas,13.698,58.649,50
147,Mullsjoe,13.88,57.922,50
123,Sandhem,13.771,57.987,50
176,Stenstorp,13.717,58.273,50
86,Timmersdala,13.756,58.527,50
147,Undenaes,14.401,58.656,50
435,Aelvdalen,14.045,61.225,60
253,Arbra,16.378,61.468,50
363,Edsbyn,15.818,61.376,60
176,Friggesund,16.551,61.897,50
253,Ilsbo,17.05,61.856,50
211,Kilafors,16.566,61.231,50
303,Lingbo,16.688,61.05,50
86,Lund,17.004,60.665,50
86,Norrlandet,17.269,60.722,50
86,Berghem,12.592,57.468,50
123,Lilla Edet,12.133,58.132,50
103,Staffanstorp,13.207,55.643,50
86,Tjoernarp,13.633,56,50
72,Torbjoerntorp,13.601,58.211,50
363,Tun,12.736,58.43,50
72,Ullervad,13.851,58.669,50
147,Vara,12.958,58.262,60
176,Asen,13.816,61.277,50
103,Aeppelbo,14.02,60.484,50
60,Persbo,15.225,60.219,50
147,Alfta,16.067,61.346,50
123,Soedra Sandby,13.344,55.721,50
86,Soevestad,13.798,55.502,50
103,Teckomatorp,13.09,55.868,50
435,Trelleborg,13.154,55.377,50
211,Fristad,13.004,57.824,50
303,Oeverlida,12.898,57.353,50
435,Aelvsbyn,21.004,65.674,60
253,Soedertaelje,17.626,59.184,50
176,Oesmo,17.896,58.987,50
147,Bjoerklinge,17.552,60.033,50
211,Enkoeping,17.086,59.639,60
86,Gardskaer,17.579,60.609,50
123,Laeby,17.555,60.09,50
123,Mankarbo,17.462,60.228,50
123,Skyttorp,17.738,60.081,50
211,Storvreta,17.705,59.958,50
60,Tobo,17.656,60.259,50
211,Moheda,14.574,57.006,50
123,Vittaryd,13.947,56.971,50
123,Aryd,14.979,56.829,50
176,Alsterbro,15.916,56.941,50
147,Blomstermala,16.329,56.98,50
103,Baeckebo,16.069,56.888,50
253,Hoegsby,16.025,57.169,50
1081,Kalmar,16.34,56.677,211
103,Lindsdal,16.291,56.733,50
303,Loettorp,17.003,57.164,60
253,Moerbylanga,16.395,56.519,50
176,Rockneby,16.35,56.801,50
72,Smedby,16.24,56.68,50
522,Torsas,16.001,56.412,50
72,Arnoe,17.021,58.725,50
72,Baggetorp,16.074,59.009,50
72,Bjoernlunda,17.162,59.064,50
176,Flen,16.592,59.056,50
253,Ramvik,17.864,62.81,50
176,Sidensjoe,18.274,63.302,50
86,Stavreviken,17.411,62.553,50
103,Stockvik,17.362,62.342,50
211,Stoede,16.587,62.419,50
3225,Sundsvall,17.296,62.397,363
103,Soeraker,17.514,62.504,50
86,Torpshammar,16.335,62.474,50
72,Utansjoe,17.919,62.773,50
1297,Ange,15.67,62.524,123
86,Aelandsbro,17.843,62.678,50
1297,Oernskoeldsvik,18.688,63.317,147
72,Oesterforse,17.018,63.142,50
72,Oeverhoernaes,18.604,63.288,50
72,Aspas,14.485,63.365,50
303,Backe,16.413,63.81,50
72,Rundvik,19.436,63.54,50
303,Gaelloe,15.232,62.916,50
303,Jaerpen,13.457,63.349,50
123,Myrviken,14.337,62.998,50
751,Sorsele,17.533,65.527,103
1081,Storuman,17.116,65.094,123
72,Stoecksjoe,20.198,63.78,50
211,Saevar,20.55,63.903,50
103,Soerfors,20.03,63.87,50
176,Tavelsjoe,20.069,64.041,50
3225,Taernaby,15.288,65.713,211
60,Ankarsvik,17.413,62.373,50
60,Billsta,18.508,63.32,50
176,Bjaesta,18.504,63.201,50
253,Bjoerna,18.599,63.551,50
103,Bollstabruk,17.695,62.981,50
103,Docksta,18.328,63.055,50
363,Fraensta,16.166,62.499,60
211,Gidea,18.972,63.483,50
147,Husum,19.159,63.335,50
522,Haernoesand,17.907,62.631,60
363,Junsele,16.862,63.697,50
435,Kramfors,17.777,62.928,60
103,Kvissleby,17.364,62.291,50
522,Liden,16.809,62.69,50
103,Lucksta,17.05,62.3,50
60,Lungvik,17.899,62.927,50
103,Langsele,17.064,63.178,50
147,Matfors,17.021,62.349,50
103,Mellansel,18.3,63.427,50
123,Mjaellom,18.435,62.986,50
86,Nedansjoe,16.824,62.379,50
123,Nordingra,18.287,62.931,50
72,Nyland,17.763,63.011,50
522,Ramsele,16.474,63.534,86
86,Skoellersta,15.337,59.139,50
211,Stora,15.1,59.701,50
147,Staelldalen,14.942,59.935,50
435,Svarta,14.518,59.128,50
103,Vintrosa,14.956,59.256,50
103,Vretstorp,14.87,59.024,50
147,Zinkgruvan,15.105,58.816,50
86,Atorp,14.364,59.118,50
86,Oelmbrotorp,15.24,59.39,50
211,Arboga,15.845,59.393,50
72,Dingtuna,16.383,59.571,50
147,Vaestra Bispgarden,16.63,63.026,50
176,Brunflo,14.829,63.078,50
103,Duved,12.924,63.393,50
72,Vi,17.416,62.424,50
363,Foellinge,14.61,63.672,86
363,Hackas,14.512,62.935,50
363,Hallen,14.091,63.176,50
363,Hammarstrand,16.346,63.109,72
522,Hammerdal,15.356,63.584,72
303,Hoting,16.205,64.114,50
147,Haeggenas,14.897,63.391,50
72,Akersberga,18.302,59.483,50
72,Gardby,16.64,56.601,50
626,Solleftea,17.281,63.166,123
435,Braecke,15.42,62.752,50
211,Kloevsjoe,14.191,62.531,50
303,Kaelarne,16.083,62.979,50
363,Lillhaerdal,14.073,61.852,50
253,Lit,14.854,63.321,50
60,Ope,14.755,63.133,50
72,Pilgrimstad,15.048,62.954,50
253,Rossoen,16.321,63.929,50
1297,Stroemsund,15.562,63.853,176
1081,Sveg,14.359,62.035,147
522,Svenstavik,14.433,62.765,86
147,Tandsbyn,14.745,63.001,50
253,Vemdalen,13.853,62.445,50
60,Ytteran,14.169,63.32,50
5572,Are,13.086,63.396,147
147,As,14.569,63.245,50
253,Asarne,14.368,62.644,50
1297,Oestersund,14.687,63.165,303
211,Bastutraesk,20.04,64.79,50
253,Bjurholm,19.22,63.932,60
253,Botsmark,20.245,64.254,50
176,Bullmark,20.482,64.032,50
253,Burea,21.19,64.619,50
522,Burtraesk,20.644,64.513,50
211,Bygdsiljum,20.504,64.351,50
435,Byske,21.211,64.954,50
522,Dorotea,16.415,64.263,86
86,Flurkmark,20.233,63.98,50
626,Fredrika,18.403,64.074,86
86,Hissjoen,20.162,63.939,50
211,Haellnaes,19.623,64.311,50
147,Hoernefors,19.911,63.619,50
72,Innertavle,20.407,63.812,50
253,Kristineberg,18.577,65.061,50
147,Kage,20.982,64.834,50
626,Lycksele,18.666,64.594,211
522,Mala,18.742,65.185,86
147,Medle,20.729,64.74,50
72,Myckle,20.857,64.754,50
751,Norsjoe,19.489,64.913,86
123,Ostvik,21.058,64.887,50
901,Helsingborg,12.719,56.042,103
86,Hofterup,12.974,55.806,50
60,Hurva,13.434,55.795,50
176,Hoeganaes,12.569,56.199,50
103,Hoellviken,12.966,55.415,50
147,Hoerby,13.663,55.853,50
60,Skegrie,13.075,55.405,50
103,Axvall,13.575,58.386,50
123,Rengsjoe,16.614,61.363,50
86,Segersta,16.648,61.268,50
60,Soerforsa,16.974,61.717,50
60,Valbo,16.986,60.637,50
123,Alby,15.486,62.498,50
303,Bredbyn,18.102,63.451,60
176,Indal,17.099,62.58,50
103,Kovland,17.152,62.468,50
103,Goetlunda,15.666,59.354,50
123,Hallstahammar,16.229,59.616,50
86,Hoekasen,16.593,59.663,50
176,Kolsva,15.85,59.598,50
60,Kumla kyrkby,16.635,59.841,50
147,Kungsoer,16.095,59.421,50
60,Kaersta och Bredsdal,16.839,59.677,50
86,Morgongava,16.964,59.933,50
72,Munga,16.523,59.745,50
60,Munktorp,16.132,59.533,50
253,Moeklinta,16.539,60.068,50
176,Ramnaes,16.189,59.776,50
211,Ransta,16.633,59.81,50
147,Runhaellen,16.822,60.026,50
60,Salbohed,16.349,59.913,50
303,Skinnskatteberg,15.692,59.826,50
103,Skultuna,16.432,59.716,50
72,Stroemsholm,16.243,59.528,50
72,Tidoe-Lindoe,16.531,59.512,50
72,Tortuna,16.728,59.676,50
72,Irsta,16.691,59.605,50
123,Virsbo,16.052,59.873,50
103,Vaesterfaernebo,16.273,59.947,50
363,Oestervala,17.178,60.182,50
60,Alvik,14.868,60.747,50
72,Bengtsheden,15.873,60.706,50
103,Bjoerbo,14.714,60.462,50
522,Boda,15.219,61.002,50
147,Saetila,12.434,57.542,50
147,Timmele,13.427,57.861,50
123,Tranemo,13.342,57.487,50
1081,Trollhaettan,12.304,58.278,123
86,Traedet,13.536,57.985,50
123,Toellsjoe,12.639,57.794,50
60,Uddebo,13.256,57.473,50
363,Ulricehamn,13.418,57.789,60
86,Upphaerad,12.305,58.159,50
211,Viskafors,12.873,57.623,50
211,Vargarda,12.807,58.035,50
60,Vaene-Asaka,12.417,58.247,50
86,Vaestra Bodarna,12.474,57.89,50
626,Amal,12.698,59.052,103
123,Asensbruk,12.418,58.808,50
176,Aelvaengen,12.12,57.954,50
60,Grabo,12.299,57.837,50
86,Hoekerum,13.284,57.84,50
72,Nitta,13.19,57.829,50
60,Rydboholm,12.882,57.652,50
72,Oestadkulle,12.635,58.024,50
72,Oestra Froelunda,13.029,57.341,50
72,Stoecke,20.229,63.743,50
176,Tvaeralund,19.668,64.096,50
211,Seskaroe,23.741,65.736,50
363,Hakkas,21.567,66.915,103
522,Haparanda,24.122,65.834,103
435,Harads,20.958,66.082,72
1297,Jokkmokk,19.85,66.601,147
176,Jukkasjaervi,20.595,67.852,50
363,Juoksengi,23.843,66.565,50
123,Jaemtoen,22.495,65.852,50
363,Jaevre,21.49,65.154,50
751,Kalix,23.151,65.859,86
103,Kallax,22.056,65.529,50
123,Karesuando,22.459,68.439,50
176,Kloevertraesk,21.405,65.636,50
901,Korpilombolo,23.051,66.849,86
3225,Lulea,22.223,65.587,435
626,Moskosel,19.452,65.873,72
103,Nikkala,23.917,65.804,50
60,Norrfjaerden,21.501,65.417,50
86,Persoen,22.165,65.741,50
522,Porjus,19.815,66.957,72
123,Palaeng,22.892,65.816,50
147,Roknaes,21.161,65.346,50
253,Rosvik,21.685,65.429,50
211,Sangis,23.502,65.86,50
303,Munkfors,13.552,59.839,50
72,Rada,13.595,60.007,50
253,Svanskog,12.552,59.177,50
103,Vaermlandsbro,13.022,59.182,50
303,Oestmark,12.762,60.282,50
123,Fellingsbro,15.59,59.439,50
147,Grythyttan,14.535,59.708,50
363,Hede,13.512,62.417,103
303,Krokom,14.452,63.33,50
103,Moersil,13.667,63.308,50
147,Orrviken,14.438,63.106,50
363,Stugun,15.601,63.168,60
86,Trangsviken,14.019,63.331,50
435,Ytterhogdal,14.942,62.18,60
253,Aenge,14.067,63.457,50
303,Boliden,20.38,64.866,60
253,Bygdea,20.859,64.062,50
211,Hemavan/Bierke,15.088,65.816,50
363,Joern,20.034,65.056,50
626,Nordmaling,19.503,63.569,72
522,Robertsfors,20.849,64.192,72
1556,Skelleftea,20.996,64.757,211
123,Soermjoele,20.006,63.682,50
123,Ersmark,20.319,63.887,50
303,Amsele,19.344,64.53,50
147,Antnaes,21.839,65.554,50
72,Eda glasbruk,12.264,59.921,50
60,Otterbaecken,14.045,58.953,50
211,Jaervsoe,16.165,61.717,50
103,Saevast,21.759,65.763,50
253,Oersundsbro,17.308,59.735,50
901,Funaesdalen,12.552,62.545,211
86,Undersaker,13.245,63.316,50
147,Harbo,17.208,60.107,50
147,Vegby,13.376,57.681,50
211,Unbyn,21.75,65.713,50
60,Hampetorp,15.672,59.14,50
435,Hofors,16.29,60.55,60
1867,Oerebro,15.206,59.278,147
9627,Umea,20.241,63.833,1081
72,Danholn,15.793,60.621,50
72,Norr Amsberg,15.351,60.53,50
626,Pitea,21.456,65.322,72
72,Bunkeflostrand,12.923,55.559,50
60,Avan,21.802,65.682,50
253,Rusksele,18.895,64.814,60
123,Oevre Svartla,21.178,66.01,50
60,Eksund,16.09,58.588,50
60,Lilla Stenby,17.522,59.384,50
176,Misterhult,16.547,57.464,50
103,Oestraby,13.688,55.758,50
86,Kvicksund,16.303,59.466,50
176,Krokek,16.368,58.674,50
60,Ljunga,16.304,58.579,50
86,Mantorp,15.28,58.349,50
176,Nykil,15.447,58.287,50
303,Rejmyre,15.924,58.831,50
103,Skaenninge,15.085,58.391,50
211,Vadstena,14.898,58.446,50
72,Oesterstad,15.174,58.519,50
103,Anneberg,14.804,57.723,50
147,Bor,14.171,57.111,50
72,Burseryd,13.284,57.199,50
60,Fredriksdal,14.598,57.616,50
303,Graenna,14.468,58.025,50
103,Bankekind,15.823,58.374,50
176,Tuna,16.107,57.576,50
211,Bergshamra,18.629,59.637,50
147,Surahammar,16.219,59.707,50
176,Evertsberg,13.955,61.136,50
363,Furudal,15.125,61.17,50
103,Gullerasen,15.187,61.056,50
253,Leksand,15.008,60.732,60
123,Langshyttan,16.038,60.452,50
72,Malungsfors,13.559,60.732,50
123,Naes bruk,16.471,60.187,50
253,Raettvik,15.102,60.867,50
253,Smalandsstenar,13.411,57.161,50
86,Utvaelinge,12.782,56.215,50
303,Vidsel,20.516,65.833,60
1081,Gaeddede,14.146,64.502,176
103,Skattungbyn,14.861,61.185,50
86,Sunnansjoe,14.969,60.215,50
123,Saeter,15.74,60.347,50
147,Transtrand,13.318,61.093,50
211,Venjan,13.903,60.957,60
86,Vamhus,14.47,61.117,50
103,Boele,21.312,65.383,50
522,Glommerstraesk,19.633,65.261,50
303,Hedenaeset,23.687,66.224,50
363,Junosuando,22.498,67.426,86
176,Kangos,22.658,67.503,50
8023,Kiruna,20.245,67.854,435
1297,Kuttainen,22.814,68.381,176
363,Morjaerv,22.702,66.066,50
751,Pajala,23.36,67.215,253
60,Risoegrund,23.245,65.811,50
72,Joenaker,16.727,58.744,50
147,Sturefors,15.724,58.333,50
147,Ankarsrum,16.338,57.699,50
72,Jaemshoeg,14.53,56.244,50
60,Lunnarp,14.043,55.541,50
103,Yngsjoe,14.231,55.883,50
72,Hok,14.276,57.514,50
123,Oedakra,12.748,56.106,50
60,Rydsgard,13.587,55.473,50
72,Asby,12.314,57.233,50
176,Fagelmara,15.949,56.262,50
123,Dingle,11.577,58.529,50
303,Kinna,12.681,57.508,60
253,Naessjoe,14.702,57.643,72
103,Grimsloev,14.543,56.737,50
522,Filipstad,14.168,59.708,72
86,Persberg,14.254,59.75,50
103,Hammar,14.959,58.819,50
303,Falun,15.623,60.605,50
303,Fredriksberg,14.375,60.139,50
72,Faernaes,14.632,60.998,50
72,Gagnef,15.075,60.594,50
103,Garpenberg,16.195,60.315,50
60,Gesunda,14.542,60.886,50
103,Grycksbo,15.482,60.687,50
147,Graengesberg,15,60.081,50
72,Gubbo,15.321,60.181,50
72,Halvarsgardarna,15.384,60.407,50
303,Hedemora,15.983,60.282,50
103,Horndal,16.411,60.299,50
211,Idkerberget,15.231,60.374,50
1556,Idre,12.716,61.861,176
103,Insjoen,15.096,60.676,50
123,Lima,13.353,60.951,50
363,Limedsforsen,13.4,60.888,50
522,Ludvika,15.198,60.145,86
626,Malung,13.703,60.693,103
211,Mockfjaerd,14.95,60.504,50
1867,Mora,14.537,61,123
123,Nedre Gaerdsjoe,15.228,60.94,50
72,Nusnaes,14.646,60.961,50
211,Nyhammar,14.966,60.289,50
72,Ornaes,15.536,60.506,50
253,Orsa,14.634,61.109,50
60,Rot,14.037,61.254,50
86,Siljansnaes,14.875,60.775,50
123,Smedjebacken,15.415,60.143,50
176,Solleroen,14.617,60.913,50
123,Sundborn,15.777,60.654,50
253,Svaerdsjoe,15.906,60.742,50
86,Sagmyra,15.298,60.712,50
751,Saelen,13.262,61.162,86
363,Saerna,13.141,61.691,50
123,Soederbaerke,15.56,60.069,50
103,Soervik,15.142,60.192,50
72,Torsang,15.566,60.47,50
86,Taellberg,14.991,60.827,50
751,Borlaenge,15.43,60.476,211
147,Fors,16.313,60.209,50
86,Linghed,15.853,60.785,50
147,Nas,14.475,60.448,50
72,Vad,15.658,60.027,50
363,Vansbro,14.216,60.509,60
147,Vika,15.714,60.517,50
86,Vikarbyn,15.022,60.911,50
60,Vikmanshyttan,15.833,60.298,50
72,Vinaes,14.538,60.967,50
103,Batskaersnaes,23.418,65.783,50
60,Dvaersaett,14.474,63.302,50
147,Asenhoega,13.797,57.408,50
86,Saltvik,16.493,57.3,50
86,Segersaeng,17.93,59.027,50
60,Roeda holme,11.989,57.375,50
72,Bredsand,17.075,59.596,50
60,Fiskebaeckskil,11.458,58.243,50
72,Nygards hagar,17.269,59.218,50
60,Skreanaes,12.524,56.875,50
72,Kareby,11.931,57.906,50
147,Storvik,16.527,60.588,50
303,Koeping,15.997,59.513,60
147,Vaenersborg,12.335,58.363,50
123,Borensberg,15.285,58.563,50
72,Herstadberg,16.178,58.626,50
211,Muskoe,18.133,59.001,50
626,Norrtaelje,18.697,59.762,72
86,Anneberg,12.107,57.538,50
72,Froesakull,12.736,56.673,50
86,Kungsaeter,12.573,57.31,50
60,Troenninge,12.289,57.142,50
147,Unnaryd,13.528,56.956,50
176,Vessigebro,12.653,56.978,50
60,Vaeroebacka,12.182,57.252,50
211,Aelvsered,12.868,57.242,50
176,Oeverum,16.307,57.99,50
303,Klintehamn,18.202,57.387,50
253,Romakloster,18.45,57.509,50
86,Vibble,18.25,57.604,50
72,Haellaryd,14.949,56.207,50
103,Jaemjoe,15.841,56.192,50
123,Kyrkhult,14.592,56.355,50
72,Moerrum,14.756,56.193,50
211,Olofstroem,14.526,56.281,50
103,Balsby,14.211,56.076,50
123,Broby,14.073,56.257,50
211,Degeberga,14.085,55.826,50
72,Hanaskog,14.093,56.158,50
72,Haestveda,13.933,56.287,50
147,Killeberg,14.094,56.475,50
751,Kristianstad,14.168,56.026,123
253,Loensboda,14.318,56.396,50
103,Naesum,14.504,56.175,50
103,Roeke,13.507,56.239,50
435,Simrishamn,14.343,55.552,72
211,Tollarp,13.98,55.936,50
103,Tyringe,13.606,56.159,50
86,Vik,14.283,55.615,50
103,Vittsjoe,13.66,56.341,50
176,Ahus,14.299,55.932,50
211,Oerkelljunga,13.281,56.284,50
72,Billinge,13.33,55.963,50
253,Esloev,13.297,55.839,50
363,Ystad,13.816,55.435,86
147,Onsala,12.03,57.424,50
303,Virserum,15.582,57.32,50
103,Hult,15.133,57.642,50
103,Kaxholmen,14.31,57.854,50
103,Landsbro,14.908,57.37,50
60,Odensjoe,14.171,57.712,50
147,Roervik,14.575,57.239,50
60,Sundhultsbrunn,14.913,57.93,50
103,Vrigstad,14.473,57.351,50
211,Alstermo,15.638,56.973,50
123,Eneryda,14.337,56.704,50
253,Hovmantorp,15.153,56.784,50
176,Lagan,13.995,56.913,50
211,Lidhult,13.441,56.828,50
60,Noebbele,15.028,56.687,50
123,Skruv,15.366,56.677,50
103,Viken,12.579,56.15,50
901,Karlstad,13.539,59.403,211
303,Ekshaerad,13.491,60.174,50
60,Oedeborg,11.975,58.542,50
1081,Arvidsjaur,19.18,65.592,176
123,Svartbyn,22.834,66.265,50
626,Oevre Soppero,21.697,68.09,86
211,Ullanger,18.185,63.01,50
211,Oestavall,15.475,62.429,50
103,Finsta,18.495,59.737,50
123,Oennekoep,13.87,55.786,50
60,Skedvi kyrkby,15.805,60.405,50
147,Yttersjoe,20.003,63.775,50
72,Johannesudd,18.032,59.553,50
363,Kungsbacka,12.08,57.494,50
363,Taeby,18.075,59.448,50
123,Stockholm,17.987,59.341,50
123,Haninge,18.186,59.209,50
86,Norra Botkyrka,17.842,59.245,50
86,Gottsunda,17.629,59.809,50
60,Karlskrona,15.585,56.171,50
123,Lövgärdet,12.032,57.815,50
72,Huskvarna,14.278,57.784,50
1297,Gällivare,20.658,67.153,176
253,Finspång,15.778,58.705,50
72,Boo-Orminge,18.264,59.323,50
211,Timrå,17.356,62.504,50
86,Fisksätra-Lännersta,18.277,59.29,50
72,Kallhäll-Slammertorp,17.803,59.455,50
72,Nödinge-Nol,12.068,57.904,50
60,Tullinge,17.902,59.212,50
211,Höör,13.546,55.929,50
211,Knivsta,17.786,59.737,50
60,Porsön (Luleå),22.159,65.62,50
72,Floda,12.363,57.809,50
176,Ljungsbro-Vreta kloster,15.513,58.501,50
103,Vikaholm,14.809,56.847,50
253,Holmsund-Nyvik,20.347,63.708,50
123,Vellinge,13.02,55.478,50
522,Ljusdal,16.096,61.829,123
176,Järna,17.565,59.097,50
363,Laholm,13.048,56.508,50
147,Åby,16.172,58.664,50
147,Tuve,11.921,57.756,50
103,Skellefteå,21.199,64.696,50
211,Slottsbron,13.102,59.343,50
147,Gnesta,17.309,59.046,50
103,Rydebäck,12.769,55.965,50
103,Färjestaden,16.483,56.644,50
72,Sandared,12.807,57.713,50
