rmax,name,lon,lat
147,Ljungbyhed,13.235,56.075
86,Norra Asum,14.144,55.99
103,Onslunda,14.052,55.599
435,Osby,14.001,56.385
253,Perstorp,13.399,56.136
72,Rinkaby,14.272,55.983
123,Sankt Olof,14.13,55.638
103,Sibbhult,14.198,56.268
72,Skillinge,14.279,55.471
72,Skanes-Fagerhult,13.469,56.373
86,Stroevelstorp,12.839,56.175
147,Soesdala,13.677,56.039
211,Tomelilla,13.944,55.544
147,Torekov,12.63,56.426
86,Tormestorp,13.745,56.111
60,Torsebro,14.117,56.102
103,Vankiva,13.743,56.201
147,Vejbystrand,12.773,56.311
147,Vinsloev,13.904,56.096
72,Vittskoevle,14.146,55.857
72,Asljunga,13.362,56.31
253,Astorp,12.949,56.135
522,Aengelholm,12.877,56.253
86,Oennestad,14.024,56.059
60,Oestersloev,14.247,56.098
72,Oestra Karup,12.948,56.421
123,Oestra Ljungby,13.064,56.189
103,Glimakra,14.139,56.31
60,Hoeja,12.929,56.227
103,Mala,13.71,56.24
123,Andersloev,13.32,55.438
72,Riala,18.533,59.63
60,Oestra Grevie,13.135,55.468
253,Bua,12.12,57.238
522,Falkenberg,12.496,56.903
86,Fjaeras kyrkby,12.173,57.458
72,Frillesas,12.173,57.319
103,Fyllinge,12.935,56.635
176,Getinge,12.733,56.816
86,Glommen,12.365,56.932
72,Gullbrandstorp,12.732,56.706
60,Halla Heberg,11.961,57.45
1297,Halmstad,12.899,56.675
123,Harplinge,12.73,56.745
60,Heberg,12.628,56.883
147,Hishult,13.313,56.427
72,Holm,12.861,56.734
435,Hyltebruk,13.241,57.005
86,Kinnared,13.102,57.026
72,Kvibille,12.835,56.783
176,Landeryd,13.27,57.079
123,Skivarp,13.572,55.425
86,Stangby,13.194,55.75
123,Tagarp,12.955,55.925
72,Langas,12.449,56.977
253,Oskarstroem,12.976,56.797
86,Rolfstorp,12.457,57.146
147,Simlangsdalen,13.129,56.721
123,Skaellinge,12.47,57.181
103,Sloeinge,12.693,56.856
103,Saeroe,11.944,57.52
147,Torup,13.074,56.954
147,Traesloevslaege,12.281,57.055
60,Tyloesand,12.736,56.651
72,Tangaberg,12.228,57.173
303,Ullared,12.716,57.133
103,Vallberga,13.024,56.467
86,Vallda,11.963,57.479
522,Varberg,12.27,57.112
123,Veinge,13.068,56.554
72,Pershagen,17.657,59.152
86,Eldsberga,12.986,56.598
211,Knaered,13.323,56.519
60,Asmundtorp,12.942,55.885
60,Billesholm,12.976,56.058
103,Bjuv,12.915,56.081
123,Blentarp,13.6,55.585
60,Domsten,12.607,56.119
123,Ekeby,12.975,55.999
86,Flyinge,13.365,55.754
72,Holsbybrunn,15.198,57.436
123,Horda,14.257,57.036
72,Klockrike,15.337,58.496
522,Norrkoeping,16.179,58.591
303,Ringarum,16.444,58.335
363,Tjaellmo,15.354,58.716
176,Bottnaryd,13.826,57.771
176,Eksjoe,14.971,57.668
123,Grimstorp,14.698,57.558
147,Hanger,13.972,57.076
103,Ingatorp,15.413,57.639
1297,Joenkoeping,14.16,57.755
363,Klevshult,14.098,57.354
147,Kulltorp,13.791,57.264
60,Kaerda,13.922,57.17
103,Grisslehamn,18.807,60.101
60,Gustavsberg,18.391,59.328
435,Hallstavik,18.599,60.054
211,Herraeng,18.647,60.13
176,Hoeloe,17.539,59.025
147,Karby,18.221,59.561
60,Kopparmora,18.58,59.331
176,Kungsberga,17.636,59.406
253,Karsta,18.268,59.655
86,Lidingoe,18.148,59.362
60,Lindholmen,18.107,59.586
60,Odensberg,13.44,58.154
123,Mariedal,17.68,59.569
86,Moelnbo,17.421,59.048
123,Nykvarn,17.427,59.177
72,Oskar-Fredriksborg,18.435,59.396
72,Resaroe,18.341,59.433
147,Johansfors,15.536,56.695
60,Jaernforsen,15.621,57.409
176,Kastloesa,16.424,56.443
211,Kristdala,16.206,57.4
103,Kristvallabrunn,16.052,56.779
176,Loftahammar,16.687,57.902
103,Langasjoe,15.447,56.582
147,Maleras,15.567,56.908
176,Malilla,15.788,57.384
522,Moensteras,16.441,57.042
147,Moerlunda,15.866,57.32
363,Nybro,15.906,56.745
211,Orrefors,15.746,56.839
1081,Oskarshamn,16.432,57.257
147,Paryd,15.924,56.566
211,Paskallavik,16.454,57.166
147,Ruda,16.115,57.11
123,Silverdalen,15.75,57.541
72,Hoervik,14.765,56.04
86,Johannishus,15.42,56.224
103,Kallinge,15.288,56.252
435,Karlshamn,14.856,56.174
435,Karlskrona,15.624,56.198
86,Kaettilsmala,15.739,56.281
86,Listerby,15.397,56.19
147,Norje,14.67,56.127
123,Naevragoel,15.567,56.373
86,Pukavik,14.68,56.16
253,Ronneby,15.278,56.209
147,Roedeby,15.622,56.26
147,Sturkoe,15.674,56.115
86,Spjutsbygd,15.592,56.312
147,Svaengsta,14.77,56.265
211,Soelvesborg,14.576,56.048
123,Torhamn,15.848,56.096
253,Tving,15.468,56.307
72,Vilshult,14.482,56.355
123,Arkelstorp,14.289,56.172
72,Ballingsloev,13.845,56.213
72,Hummelsta,16.945,59.626
147,Jaerlasa,17.204,59.885
103,Karlholmsbruk,17.625,60.522
147,Knutby,18.269,59.911
147,Lillkyrka,17.249,59.559
60,Laenna,17.957,59.872
103,Marma,17.424,60.491
253,Mehedeby,17.403,60.447
60,Norrskedika,18.286,60.289
103,Skoby,18.021,60.029
211,Skutskaer,17.397,60.64
103,Raby,17.498,59.534
147,Fornasa,15.232,58.479
123,Slottsskogen,17.609,59.69
147,Soederfors,17.234,60.387
211,Vaesterhaninge,18.063,59.114
751,Tierp,17.52,60.345
123,Braas,15.056,57.061
363,Lammhult,14.582,57.17
147,Stroemsnaesbruk,13.735,56.551
60,Taevelsas,14.825,56.766
123,Urshult,14.818,56.533
303,Vislanda,14.454,56.786
303,Vaeckelsang,14.918,56.643
1867,Vaexjoe,14.798,56.894
123,Aby,14.777,57.024
86,Aelghult,15.575,57.008
751,Aelmhult,14.137,56.55
103,Algutsrum,16.531,56.68
123,Berga,16.037,57.22
103,Bockara,16.068,57.263
363,Borgholm,16.662,56.876
363,Degerhamn,16.417,56.354
103,Edsbruk,16.471,58.019
303,Emmaboda,15.553,56.633
103,Eriksmala,15.486,56.735
211,Fagerhult,15.664,57.146
211,Figeholm,16.549,57.374
123,Fliseryd,16.254,57.125
103,Froedinge,16.002,57.701
103,Fagelfors,15.844,57.206
303,Gamleby,16.401,57.893
147,Gullringen,15.719,57.8
103,Gunnebo,16.527,57.722
176,Hagby,16.182,56.559
147,Halltorp,16.101,56.499
303,Hjorted,16.309,57.623
435,Hultsfred,15.838,57.49
123,Storebro,15.842,57.588
626,Vaernamo,14.041,57.185
626,Aseda,15.353,57.167
147,Raella,16.57,56.772
60,Rinkabyholm,16.26,56.654
176,Soedra Vi,15.793,57.742
86,Totebo,16.186,57.63
72,Trekanten,16.116,56.7
72,Tvaerskog,16.046,56.621
1297,Uppsala,17.634,59.851
86,Vattholma,17.731,60.015
176,Aelvkarleby,17.454,60.57
103,Oerbyhus,17.706,60.227
123,Oesterbybruk,17.894,60.198
626,Oesthammar,18.361,60.26
253,Alberga,16.116,59.281
86,Ramstalund,17.444,59.799
103,Skaerplinge,17.76,60.472
103,Bettna,16.64,58.907
211,Bie,16.211,59.089
103,Bjoerkvik,16.522,58.837
72,Buskhyttan,16.942,58.663
626,Eskilstuna,16.503,59.371
86,Forssjoe,16.294,58.955
72,Hallsta,16.459,59.295
72,Haellberga,16.6,59.32
86,Haerad,16.902,59.361
123,Hoegsjoe,15.669,59.026
751,Katrineholm,16.205,58.992
435,Malmkoeping,16.724,59.135
211,Mariefred,17.23,59.266
147,Merlaenna,16.982,59.28
522,Nykoeping,17.023,58.757
147,Naevekvarn,16.798,58.633
103,Runtuna,17.075,58.872
60,Sjoesa,17.088,58.777
123,Skogstorp,16.475,59.326
147,Sparreholm,16.822,59.074
147,Stigtomta,16.783,58.802
211,Strangsjoe,16.193,58.904
60,Sundbyholm,16.623,59.439
103,Svalsta,16.867,58.743
123,Torshaella,16.467,59.422
303,Trosa,17.546,58.899
176,Tystberga,17.236,58.851
103,Vagnhaerad,17.487,58.947
72,Sund,17.409,58.962
86,Valla,16.377,59.02
72,Aerla,16.679,59.287
176,Bjoersaeter,16.021,58.336
363,Boxholm,15.045,58.192
211,Brokind,15.679,58.217
60,Falla,15.748,58.682
86,Fagelsta,15.039,58.457
86,Gistad,15.89,58.466
103,Soederakra,16.064,56.448
211,Oeregrund,18.445,60.333
86,Kraegga,17.404,59.607
123,Marmorbyn,16.07,59.046
86,Stjaernhov,17.008,59.081
147,Alberga,16.578,58.725
86,Grebo,15.871,58.3
123,Gusum,16.495,58.267
211,Hestra,15.074,57.955
211,Horn,15.843,57.9
123,Haestholmen,14.64,58.278
86,Haelleforsnaes,16.502,59.156
211,Oxeloesund,17.087,58.676
86,Stallarholmen,17.205,59.368
86,Torshaella huvud,16.46,59.454
253,Vrena,16.703,58.861
123,Falerum,16.207,58.144
86,Kimstad,15.966,58.549
522,Kisa,15.635,57.984
2240,Linkoeping,15.621,58.404
147,Ljusfallshammar,15.503,58.786
60,Malmslaett,15.512,58.42
303,Mjoelby,15.13,58.333
435,Motala,15.041,58.547
72,Norsholm,15.971,58.518
176,Rimforsa,15.682,58.137
86,Rydsnaes,15.152,57.798
147,Simonstorp,16.156,58.786
123,Skaerblacka,15.921,58.584
72,Slaka,15.565,58.368
72,Svaertinge,16.025,58.654
211,Soederkoeping,16.325,58.473
303,Valdemarsvik,16.596,58.21
103,Vikingstad,15.433,58.383
86,Vanga,15.814,58.582
103,Vaederstad,14.924,58.313
60,Vaestra Husby,16.175,58.485
435,Atvidaberg,15.998,58.198
363,Oesterbymo,15.273,57.827
176,Oestra Husby,16.562,58.576
147,Oestra Ryd,16.165,58.405
303,Aneby,14.808,57.835
253,Bankeryd,14.125,57.858
60,Bjoerkoeby,14.905,57.518
253,Bodafors,14.705,57.505
123,Bredaryd,13.732,57.173
86,Bruzaholm,15.275,57.642
176,Oelmstad,14.397,57.925
176,Ekenaessjoen,15.02,57.49
123,Flisby,14.801,57.783
147,Forserum,14.471,57.7
60,Forsheda,13.831,57.162
303,Gislaved,13.565,57.302
147,Gnosjoe,13.743,57.354
123,Gripenberg,14.855,57.992
253,Hestra,13.593,57.447
103,Hillerstorp,13.884,57.311
86,Linghem,15.786,58.432
176,Nykyrka,14.973,58.624
123,Stralsnaes,15.089,58.237
211,Oedeshoeg,14.651,58.229
86,Broaryd,13.253,57.123
86,Stavsjoe,16.435,58.729
86,Skaerstad,14.363,57.886
123,Oelme,14.008,59.363
147,Vaeskinde,18.42,57.69
72,Ovesholm,14.038,55.994
60,Torreby,11.603,58.448
103,Holmeja,13.274,55.555
103,Aselstad,16.225,58.546
253,Kyrksten,14.393,59.437
211,Baelgviken,16.458,59.248
86,Bammarboda,18.475,59.51
103,Skeda udde,15.56,58.291
103,Brevikshalvoen,18.355,59.221
123,Bro,17.633,59.518
303,Djuroe,18.701,59.312
60,Drottningholm,17.879,59.323
123,Edsbro,18.489,59.896
147,Ekeby,17.522,59.254
253,Rimbo,18.36,59.744
103,Rosersberg,17.888,59.583
86,Rydbo,18.186,59.462
147,Ranaes,18.304,59.804
86,Sigtuna,17.718,59.621
60,Skeppsdalsstroem,18.504,59.299
86,Lugnet och Skaelsmara,18.542,59.248
60,Sorunda,17.818,59.013
60,Stavsnaes,18.689,59.289
211,Stenhamra,17.687,59.335
86,Stora Vika,17.787,58.956
176,Svanberga,18.662,59.839
86,Jordbro,18.127,59.145
60,Kungsaengen,17.74,59.482
901,Nynaeshamn,17.944,58.905
147,Soederby-Karl,18.702,59.892
103,Soedersvik,18.918,59.752
147,Upplands Vaesby,17.924,59.514
60,Vallentuna,18.077,59.522
211,Vaxholm,18.334,59.404
72,Varsta,17.79,59.167
176,Aelmsta,18.812,59.971
60,Aengsvik,18.51,59.361
211,Almunge,18.048,59.878
363,Alunda,18.085,60.066
147,Vaenge,17.436,59.858
211,Balsta,17.521,59.578
176,Fjaerdhundra,16.922,59.774
253,Gimo,18.184,60.173
86,Grillby,17.257,59.626
123,Gunsta,17.832,59.855
86,Gavsta,17.876,59.944
103,Hargshamn,18.466,60.169
103,Grevie,12.781,56.39
103,Gaersnaes,14.182,55.549
72,Hammenhoeg,14.157,55.503
86,Huaroed,13.971,55.842
60,Hyllinge,12.866,56.105
303,Haessleholm,13.774,56.16
86,Immeln,14.247,56.206
303,Kivik,14.221,55.687
147,Klippan,13.144,56.136
147,Knislinge,14.087,56.195
60,Kvidinge,13.052,56.134
103,Linderoed,13.822,55.932
123,Oersjoe,15.751,56.701
522,Burgsvik,18.277,57.033
626,Faroesund,19.05,57.859
211,Havdhem,18.327,57.162
901,Hemse,18.383,57.239
253,Ljugarn,18.707,57.333
176,Laerbro,18.786,57.786
363,Slite,18.795,57.712
123,Stanga,18.471,57.283
103,Tingstaede,18.604,57.732
1556,Visby,18.314,57.639
211,Backaryd,15.153,56.346
72,Braekne-Hoby,15.117,56.232
72,Gaengletorp,15.748,56.167
103,Hallabro,15.102,56.391
211,Hassloe,15.469,56.111
303,Holmsjoe,15.539,56.421
72,Haellevik,14.695,56.013
103,Bovallstrand,11.33,58.476
103,Braennoe,11.778,57.642
211,Donsoe,11.801,57.602
147,Elloes,11.473,58.179
147,Fagerhult,12.023,58.418
303,Fjaellbacka,11.29,58.598
123,Haellingsjoe,12.439,57.619
86,Grundsund,11.427,58.212
4644,Goeteborg,11.999,57.685
103,Hamburgsund,11.278,58.557
176,Hedekas,11.793,58.643
86,Hindas,12.445,57.703
123,Hunnebostrand,11.304,58.438
123,Haellesaker,12.184,57.599
123,Haellevadsholm,11.538,58.578
123,Haelleviksstrand,11.446,58.123
60,Steninge,12.631,56.773
303,Veddige,12.329,57.267
60,Ysby,13.117,56.492
72,Bergby,17.035,60.931
522,Bergsjoe,17.059,61.98
211,Bjoerke,17.19,60.764
1081,Bollnaes,16.372,61.348
303,Delsbo,16.555,61.805
435,Enanger,17.013,61.546
60,Forsby,17.143,60.714
72,Forsbacka,16.909,60.612
147,Faerila,15.839,61.796
211,Gnarp,17.237,62.05
3225,Gaevle,17.122,60.69
86,Hammarby,16.571,60.544
72,Hamrangefjaerden,17.057,60.902
103,Harmanger,17.222,61.931
123,Hedesunda,16.998,60.397
1556,Hudiksvall,17.116,61.729
72,Hybo,16.198,61.797
147,Halsjoe,16.78,61.827
211,Iggesund,17.076,61.645
72,Jaederfors,16.689,60.665
147,Jaedraas,16.468,60.841
363,Jaerbo,16.6,60.72
103,Jaettendal,17.249,61.979
303,Hassela,16.691,62.115
253,Ljusne,17.126,61.211
751,Los,15.168,61.735
103,Lottefors,16.41,61.422
86,Njutanger,17.057,61.61
253,Norrsundet,17.138,60.933
123,Naesviken,16.877,61.765
435,Ockelbo,16.719,60.892
86,Sandarne,17.153,61.269
211,Sandviken,16.775,60.619
147,Skog,16.839,61.168
86,Stocka,17.337,61.893
60,Stroemsbruk,17.318,61.869
147,Saelgsjoen,17.113,60.617
72,Soederala,16.923,61.285
363,Soederhamn,17.056,61.309
72,Tallasen,16,61.861
147,Torsaker,16.48,60.511
147,Troedje,17.211,60.821
123,Vallsta,16.366,61.519
60,Vallvik,17.18,61.186
253,Amot,16.446,60.964
147,Arsunda,16.735,60.515
123,Ashammar,16.548,60.647
253,Oesterfaernebo,16.801,60.31
86,Skare,13.433,59.44
253,Storfors,14.275,59.535
147,Sulvik,12.407,59.681
435,Sunne,13.143,59.834
123,Sunnemo,13.729,59.884
363,Sysslebaeck,12.868,60.732
211,Saeffle,12.924,59.133
522,Torsby,13,60.13
176,Uddheden,12.909,59.947
147,Vallargaerdet,13.577,59.475
123,Valberg,13.185,59.391
123,Vaese,13.849,59.381
253,Amotfors,12.369,59.769
751,Arjaeng,12.133,59.385
86,Oersloesa,13.004,58.511
626,Askersund,14.911,58.89
176,Degerfors,14.43,59.237
86,Ekeby-Almby,15.337,59.258
176,Finneroedja,14.436,58.923
176,Fjugesta,14.868,59.174
303,Froevi,15.365,59.471
123,Garphyttan,14.951,59.304
103,Gusselby,15.221,59.644
147,Hallsberg,15.099,59.067
103,Hasselfors,14.649,59.087
176,Hovsta,15.227,59.346
303,Lenhovda,15.272,56.995
72,Timsfors,13.614,56.485
147,Edane,12.824,59.629
211,Haellefors,14.516,59.784
103,Kilsmo,15.544,59.067
435,Kopparberg,15.02,59.867
363,Kumla,15.141,59.129
303,Laxa,14.62,58.982
176,Forshaga,13.484,59.536
103,Mjoenaes,13.56,59.878
103,Rottneros,13.11,59.795
303,Toecksfors,11.848,59.509
60,Ekeby,15.27,59.163
123,Glanshammar,15.402,59.317
253,Hjortkvarn,15.439,58.897
626,Lindesberg,15.224,59.601
86,Mullhyttan,14.687,59.153
211,Nora,15.02,59.524
86,Norra Bro,15.251,59.225
123,Palsboda,15.34,59.065
72,Ramsberg,15.297,59.769
103,Rockhammar,15.448,59.529
86,Roenneshytta,15.048,58.92
72,Vartofta,13.628,58.096
176,Vedum,12.995,58.171
86,Vaering,13.964,58.509
123,Vaersas,14.047,58.348
123,Asarp,13.565,58.025
103,Aelgaras,14.253,58.813
211,Ambjoerby,13.171,60.495
751,Arvika,12.603,59.665
86,Bjoerneborg,14.248,59.241
147,Baeckhammar,14.186,59.158
303,Charlottenberg,12.312,59.885
176,Deje,13.481,59.603
86,Fagersanna,14.303,58.469
176,Gullspang,14.102,58.982
72,Jung,13.113,58.327
147,Sjoetorp,13.98,58.837
211,Tibro,14.167,58.417
176,Toereboda,14.132,58.707
72,Oexabaeck,12.804,57.395
72,Oexeryd,12.28,57.739
60,Arentorp,12.871,58.241
123,Blikstorp,14.058,58.28
103,Eggby,13.645,58.433
72,Ekedalen,13.842,58.2
522,Falkoeping,13.553,58.174
147,Floby,13.339,58.134
103,Forsvik,14.432,58.574
147,Graestorp,12.68,58.331
176,Goetene,13.463,58.523
123,Habo,14.08,57.908
435,Hova,14.216,58.853
211,Haellekis,13.438,58.629
86,Igelstorp,13.975,58.399
72,Jonslund,12.834,58.16
211,Karlsborg,14.52,58.529
147,Kinnarp,13.524,58.074
60,Korsberga,14.102,58.305
211,Kvaenum,13.185,58.298
123,Kaettilstorp,13.71,58.041
103,Lerdala,13.715,58.477
363,Lidkoeping,13.147,58.495
123,Lundsbrunn,13.447,58.473
72,Lyrestad,14.058,58.804
103,Madaengsholm,13.924,58.141
86,Moholm,14.041,58.608
86,Moelltorp,14.411,58.497
211,Nossebro,12.725,58.19
123,Saleby,13.148,58.377
253,Skara,13.442,58.384
147,Skultorp,13.833,58.342
751,Skoevde,13.85,58.399
123,Stora Levene,12.926,58.328
211,Stoepen,13.865,58.48
211,Tidaholm,13.962,58.18
303,Tidan,14.013,58.571
253,Bjaernum,13.709,56.293
176,Aetran,12.948,57.124
176,Vickleby,16.464,56.587
103,Eringsboda,15.367,56.44
211,Borrby,14.18,55.457
86,Broesarp,14.104,55.724
211,Bastad,12.857,56.428
103,Eket,13.19,56.249
435,Vimmerby,15.847,57.669
72,Emmaljunga,13.652,56.39
86,Everoed,14.091,55.899
103,Foersloev,12.817,56.351
72,Jonsered,12.175,57.747
72,Joerlanda,11.829,57.99
176,Kode,11.85,57.941
211,Kungshamn,11.261,58.362
363,Kungaelv,11.969,57.87
86,Kallekaerr,11.664,58.029
103,Kaerna,11.792,57.845
123,Landvetter,12.215,57.688
211,Ljungskile,11.925,58.223
123,Marstrand,11.593,57.891
176,Molloesund,11.477,58.073
72,Olofstorp,12.146,57.795
86,Rabbalshede,11.473,58.613
72,Haellabrottet,15.232,59.109
522,Stoellet,13.273,60.409
303,Olshammar,14.8,58.749
123,Roennaeng,11.582,57.94
253,Roeroe,11.62,57.776
147,Stora Hoega,11.82,58.016
1867,Stroemstad,11.177,58.943
123,Saeve,11.913,57.802
303,Tanumshede,11.326,58.724
211,Uddevalla,11.936,58.356
72,Varekil,11.709,58.124
72,Vrangoe,11.785,57.572
147,Ambjoernarp,13.294,57.421
60,Aplared,13.071,57.649
253,Bengtsfors,12.218,59.028
123,Billingsfors,12.244,58.981
60,Bjoerboholm,12.325,57.875
176,Bjoerketorp,12.526,57.426
176,Bollebygd,12.565,57.674
147,Borgstena,13.013,57.885
522,Boras,12.94,57.728
60,Bredared,12.901,57.805
253,Baeckefors,12.157,58.804
253,Dals Langed,12.298,58.926
176,Dalstorp,13.521,57.604
103,Dalum,13.465,57.901
86,Dannike,13.227,57.684
363,Ed,11.94,58.911
626,Lysekil,11.446,58.28
176,Taberg,14.083,57.689
103,Tenhult,14.323,57.71
751,Tranas,14.976,58.037
72,Tunnerstad,14.346,58.05
626,Vaggeryd,14.149,57.497
751,Vetlanda,15.085,57.415
60,Aeng,14.565,57.696
72,Oerserum,14.576,58.008
253,Korsberga,15.125,57.301
123,Agunnaryd,14.145,56.749
176,Alvesta,14.551,56.901
103,Angelstad,13.763,56.826
86,Delary,13.953,56.547
253,Dioe,14.228,56.646
147,Fridafors,14.657,56.408
72,Furuby,15.034,56.853
86,Gemla,14.654,56.865
123,Ingelstad,14.92,56.744
72,Arild,12.586,56.271
72,Dalby,13.349,55.664
86,Sonstorp,15.634,58.724
147,Kvillsfors,15.515,57.406
103,Konga,15.122,56.495
176,Kosta,15.397,56.843
103,Kanna,13.904,56.781
72,Lessebo,15.27,56.749
103,Linneryd,15.128,56.658
626,Ljungby,13.943,56.833
211,Markaryd,13.601,56.459
123,Norrhult-Klavrestroem,15.162,57.128
363,Rottne,14.894,57.024
211,Ryd,14.691,56.466
147,Ryssby,14.164,56.866
103,Raevemala,15.266,56.555
522,Tingsryd,14.979,56.528
60,Torpsbruk,14.574,57.032
72,Traryd,13.74,56.577
123,Veberoed,13.492,55.636
176,Vollsjoe,13.78,55.704
60,Vaestra Ingelstad,13.114,55.491
123,Edsvalla,13.213,59.439
60,Fageras,13.225,59.519
86,Geijersholm,13.727,60.066
123,Gunnarskog,12.562,59.816
751,Hagfors,13.692,60.033
303,Klaessbol,12.743,59.539
147,Koppom,12.157,59.708
176,Kristinehamn,14.11,59.313
147,Hoegboda,13.054,59.559
303,Lesjoefors,14.176,59.98
253,Lysvik,13.136,60.017
176,Molkom,13.729,59.604
303,Nordmark,14.1,59.832
211,Nykroppa,14.303,59.621
176,Segmon,13.042,59.271
176,Skoghall,13.521,59.335
363,Stenungsund,11.838,58.075
176,Svanesund,11.821,58.141
123,Frufaellan,12.982,57.776
176,Fraendefors,12.278,58.498
253,Faergelanda,11.993,58.569
103,Graefsnaes,12.489,58.08
60,Ganghester,13.023,57.7
60,Goeta,12.149,58.107
147,Herrljunga,13.031,58.079
72,Hillared,13.156,57.631
72,Hjaertum,12.106,58.18
147,Holsljunga,12.974,57.412
72,Hyssna,12.538,57.554
211,Ingared,12.456,57.851
72,Kinnarumma,12.876,57.596
211,Lerum,12.276,57.776
123,Limmared,13.36,57.535
86,Ljungsarp,13.582,57.566
211,Laenghem,13.244,57.601
147,Loedoese,12.16,58.031
626,Mellerud,12.461,58.698
103,Mjoebaeck,12.877,57.311
60,Tulebo,12.1,57.617
72,Nygard,12.216,58.057
72,Rangedala,13.128,57.794
103,Sandhult,12.821,57.772
147,Sjuntorp,12.225,58.199
72,Sjoevik,12.366,57.914
72,Velanda,12.31,58.228
522,Svenljunga,13.108,57.496
103,Lanna,13.782,57.221
123,Lekeryd,14.419,57.772
147,Malmbaeck,14.46,57.574
176,Mariannelund,15.576,57.613
86,Nissafors,13.631,57.41
176,Paulistroem,15.507,57.47
72,Reftele,13.599,57.174
176,Rydaholm,14.308,56.985
72,Skede,15.175,57.469
86,Skeppshult,13.376,57.125
176,Skillingaryd,14.087,57.433
176,Sommen,14.969,58.129
72,Stensjoen,14.824,57.581
72,Stockaryd,14.594,57.318
253,Saevsjoe,14.663,57.395
72,Vinberg,12.544,56.95
211,Vaxtorp,13.118,56.416
147,Aled,12.954,56.743
103,Arstad,12.677,56.917
176,Asa,12.12,57.349
86,Vassmoloesa,16.156,56.592
86,Vena,15.976,57.519
253,Vissefjaerda,15.582,56.537
901,Vaestervik,16.626,57.755
72,Jonstorp,12.671,56.227
86,Kattarp,12.784,56.141
72,Klagerup,13.251,55.596
86,Kungshult,13.411,55.852
103,Kageroed,13.087,56
123,Kaevlinge,13.113,55.795
103,Koepingebro,13.934,55.455
60,Lilla Harrie,13.207,55.792
103,Lomma,13.076,55.676
303,Lund,13.203,55.713
176,Loeberoed,13.513,55.776
9627,Malmoe,13.009,55.597
72,Mjoehult,12.686,56.176
303,Moelle,12.497,56.284
60,Norra Roerum,13.509,56.02
60,Nybrostrand,13.95,55.432
147,Oxie,13.099,55.54
72,Abbekas,13.599,55.396
103,Bara,13.183,55.581
522,Sjoebo,13.701,55.636
253,Skurup,13.501,55.48
123,Smygehamn,13.376,55.346
176,Sollebrunn,12.532,58.119
123,Svaloev,13.104,55.913
86,Svarte,13.716,55.431
211,Svedala,13.228,55.514
147,Sjulsmark,21.485,65.519
211,Svappavaara,21.055,67.648
60,Svensbyn,21.237,65.315
435,Tjautjas/Cavccas,20.735,67.325
211,Toere,22.654,65.916
303,Ullatti,21.818,67.017
147,Visttraesk,20.647,65.692
751,Vittangi,21.639,67.678
363,Vuollerim,20.624,66.431
176,Nyborg,23.186,65.788
303,Oeverkalix,22.848,66.324
1297,Oevertornea,23.641,66.39
147,Sibble,17.747,59.112
103,Skebobruk,18.611,59.967
100000,Stockholm,18.091,59.27
147,Dalaroe,18.417,59.138
522,Maersta,17.847,59.627
86,Tumba,17.822,59.198
363,Karlskoga,14.532,59.334
253,Kil,13.317,59.505
253,Vaestra Aemtervik,13.143,59.726
253,Odensbacken,15.529,59.164
86,Roefors,14.622,58.936
123,Brastad,11.479,58.387
72,Grebbestad,11.254,58.695
147,Henan,11.671,58.235
103,Hogstorp,11.762,58.397
147,Braendoen,22.336,65.696
147,Hemmingsmark,21.284,65.224
435,Karungi,23.949,66.045
363,Ranea,22.293,65.859
435,Munkedal,11.685,58.466
147,Skaerhamn,11.557,57.992
86,Tjuvkil,11.741,57.896
626,Alingsas,12.538,57.93
72,Blidsberg,13.493,57.927
176,Bralanda,12.349,58.563
147,Dalsjoefors,13.107,57.722
103,Fengersfors,12.464,58.994
72,Moelnlycke,12.113,57.657
123,Fritsla,12.784,57.559
86,Grimsas,13.551,57.483
60,Hedared,12.754,57.807
211,Horred,12.471,57.355
176,Hoegsaeter,12.054,58.649
123,Marbaeck,13.421,57.741
72,Rydal,12.693,57.556
211,Langviksmon,18.698,63.631
103,Moliden,18.456,63.378
253,Naesaker,16.902,63.443
123,Stora Melloesa,15.503,59.211
123,Vedevag,15.289,59.527
253,Asbro,15.056,58.991
363,Fagersta,15.809,60.002
123,Kolbaeck,16.239,59.564
176,Norberg,15.928,60.066
522,Sala,16.58,59.918
103,Saetra brunn,16.437,59.864
123,Taernsjoe,16.926,60.154
751,Vaesteras,16.543,59.618
253,Bjursas,15.45,60.738
103,Bonaes,14.489,61.073
86,Torestorp,12.677,57.386
86,Toesse,12.644,58.971
86,Aespered,13.179,57.756
147,Ljung,13.059,57.988
86,Kjulaas,16.677,59.389
103,Melloesa,16.562,59.1
60,Skoeldinge,16.455,59.033
253,Straengnaes,17.019,59.373
103,Tumbo,16.342,59.426
211,Vingaker,15.875,59.046
123,Aeskoeping,16.064,59.147
72,Ekaengen,15.64,58.466
123,Godegard,15.162,58.747
60,Hogstad,15.025,58.332
123,Igelfors,15.691,58.845
901,Vilhelmina,16.66,64.625
901,Vindeln,19.719,64.2
253,Vaennaes,19.744,63.905
253,Anaeset,21.044,64.278
901,Asele,17.352,64.163
123,Naelden,14.25,63.347
211,Granoe,19.311,64.251
253,Loevanger,21.315,64.368
103,Taeftea,20.482,63.839
901,Arjeplog,17.862,66.046
60,Bensbyn,22.235,65.641
522,Boden,21.676,65.824
123,Strassa,15.208,59.743
176,Barkaroe,16.506,59.552
253,Heby,16.854,59.943
72,Medaker,15.752,59.453
72,Riddarhyttan,15.537,59.809
103,Valskog,15.947,59.442
751,Avesta,16.178,60.14
72,Brunnsberg,13.919,61.285
103,Floda,14.812,60.511
123,Husby,15.998,60.392
147,Djuras,15.132,60.559
147,Naglarby och Enbacka,15.588,60.415
60,Enviken,15.756,60.808
72,Sexdrega,13.118,57.579
72,Skepplanda,12.211,57.983
103,Genarp,13.399,55.599
72,Hittarp,12.655,56.092
103,Klagstorp,13.378,55.394
435,Landskrona,12.84,55.875
123,Loevestad,13.892,55.655
60,Moerarp,12.876,56.059
103,Bjaerred,13.03,55.717
176,Roestanga,13.291,56
123,Stehag,13.393,55.9
103,Vinninga,13.262,58.453
86,Ardala,13.333,58.361
751,Mariestad,13.821,58.704
176,Fagerhult,14.126,58.001
103,Fraemmestad,12.667,58.235
303,Hjo,14.276,58.301
176,Jaerpas,12.975,58.38
147,Lugnas,13.698,58.649
147,Mullsjoe,13.88,57.922
435,Sandhem,13.771,57.987
253,Stenstorp,13.717,58.273
103,Timmersdala,13.756,58.527
147,Undenaes,14.401,58.656
303,Aelvdalen,14.045,61.225
303,Arbra,16.378,61.468
72,Bergvik,16.834,61.26
363,Edsbyn,15.818,61.376
211,Friggesund,16.551,61.897
303,Ilsbo,17.05,61.856
253,Kilafors,16.566,61.231
363,Lingbo,16.688,61.05
103,Lund,17.004,60.665
103,Norrlandet,17.269,60.722
103,Berghem,12.592,57.468
147,Lilla Edet,12.133,58.132
147,Staffanstorp,13.207,55.643
103,Tjoernarp,13.633,56
103,Torbjoerntorp,13.601,58.211
123,Travad,13.085,58.253
176,Tun,12.736,58.43
86,Ullervad,13.851,58.669
211,Vara,12.958,58.262
211,Asen,13.816,61.277
103,Aeppelbo,14.02,60.484
72,Persbo,15.225,60.219
176,Alfta,16.067,61.346
147,Soedra Sandby,13.344,55.721
103,Soevestad,13.798,55.502
103,Teckomatorp,13.09,55.868
522,Trelleborg,13.154,55.377
253,Fristad,13.004,57.824
176,Oeverlida,12.898,57.353
522,Aelvsbyn,21.004,65.674
303,Soedertaelje,17.626,59.184
211,Oesmo,17.896,58.987
176,Bjoerklinge,17.552,60.033
303,Enkoeping,17.086,59.639
103,Gardskaer,17.579,60.609
60,Haeggeby och Vreta,17.543,59.655
147,Laeby,17.555,60.09
147,Mankarbo,17.462,60.228
147,Skyttorp,17.738,60.081
253,Storvreta,17.705,59.958
72,Tobo,17.656,60.259
253,Moheda,14.574,57.006
147,Vittaryd,13.947,56.971
103,Aryd,14.979,56.829
176,Alsterbro,15.916,56.941
176,Blomstermala,16.329,56.98
123,Baeckebo,16.069,56.888
60,Emsfors,16.451,57.144
253,Hoegsby,16.025,57.169
1081,Kalmar,16.34,56.677
147,Lindsdal,16.291,56.733
303,Loettorp,17.003,57.164
303,Moerbylanga,16.395,56.519
60,Piperskaerr,16.635,57.779
211,Rockneby,16.35,56.801
72,Smedby,16.24,56.68
751,Torsas,16.001,56.412
86,Arnoe,17.021,58.725
72,Baggetorp,16.074,59.009
72,Bjoernlunda,17.162,59.064
211,Flen,16.592,59.056
303,Ramvik,17.864,62.81
211,Sidensjoe,18.274,63.302
103,Stavreviken,17.411,62.553
123,Stockvik,17.362,62.342
253,Stoede,16.587,62.419
3870,Sundsvall,17.296,62.397
123,Soeraker,17.514,62.504
103,Torpshammar,16.335,62.474
86,Utansjoe,17.919,62.773
1297,Ange,15.67,62.524
103,Aelandsbro,17.843,62.678
1556,Oernskoeldsvik,18.688,63.317
86,Oesterforse,17.018,63.142
86,Oeverhoernaes,18.604,63.288
86,Aspas,14.485,63.365
363,Backe,16.413,63.81
86,Rundvik,19.436,63.54
72,Roebaeck,20.188,63.81
363,Gaelloe,15.232,62.916
363,Jaerpen,13.457,63.349
147,Myrviken,14.337,62.998
901,Sorsele,17.533,65.527
1867,Storuman,17.116,65.094
72,Stoecksjoe,20.198,63.78
211,Saevar,20.55,63.903
60,Draengsmark,20.952,64.919
123,Soerfors,20.03,63.87
123,Tavelsjoe,20.069,64.041
1297,Taernaby,15.288,65.713
60,Ankarsvik,17.413,62.373
72,Billsta,18.508,63.32
211,Bjaesta,18.504,63.201
303,Bjoerna,18.599,63.551
123,Bollstabruk,17.695,62.981
123,Docksta,18.328,63.055
435,Fraensta,16.166,62.499
211,Gidea,18.972,63.483
147,Husum,19.159,63.335
626,Haernoesand,17.907,62.631
363,Junsele,16.862,63.697
522,Kramfors,17.777,62.928
123,Kvissleby,17.364,62.291
626,Liden,16.809,62.69
123,Lucksta,17.05,62.3
60,Lungvik,17.899,62.927
103,Lunde,17.862,62.879
123,Langsele,17.064,63.178
147,Matfors,17.021,62.349
123,Mellansel,18.3,63.427
147,Mjaellom,18.435,62.986
103,Nedansjoe,16.824,62.379
147,Nordingra,18.287,62.931
86,Nyland,17.763,63.011
522,Ramsele,16.474,63.534
86,Skoellersta,15.337,59.139
253,Stora,15.1,59.701
176,Staelldalen,14.942,59.935
522,Svarta,14.518,59.128
123,Vintrosa,14.956,59.256
103,Vretstorp,14.87,59.024
176,Zinkgruvan,15.105,58.816
86,Atorp,14.364,59.118
103,Oelmbrotorp,15.24,59.39
60,Oestansjoe,14.98,59.045
253,Arboga,15.845,59.393
72,Dingtuna,16.383,59.571
176,Vaestra Bispgarden,16.63,63.026
211,Brunflo,14.829,63.078
123,Duved,12.924,63.393
86,Vi,17.416,62.424
363,Foellinge,14.61,63.672
435,Hackas,14.512,62.935
363,Hallen,14.091,63.176
363,Hammarstrand,16.346,63.109
751,Hammerdal,15.356,63.584
363,Hoting,16.205,64.114
176,Haeggenas,14.897,63.391
86,Akersberga,18.302,59.483
86,Gardby,16.64,56.601
626,Solleftea,17.281,63.166
522,Braecke,15.42,62.752
253,Kloevsjoe,14.191,62.531
363,Kaelarne,16.083,62.979
522,Lillhaerdal,14.073,61.852
253,Lit,14.854,63.321
72,Ope,14.755,63.133
86,Pilgrimstad,15.048,62.954
303,Rossoen,16.321,63.929
1556,Stroemsund,15.562,63.853
2240,Sveg,14.359,62.035
435,Svenstavik,14.433,62.765
176,Tandsbyn,14.745,63.001
303,Vemdalen,13.853,62.445
60,Ytteran,14.169,63.32
3870,Are,13.086,63.396
176,As,14.569,63.245
303,Asarne,14.368,62.644
1556,Oestersund,14.687,63.165
253,Bastutraesk,20.04,64.79
253,Bjurholm,19.22,63.932
303,Botsmark,20.245,64.254
176,Bullmark,20.482,64.032
303,Burea,21.19,64.619
626,Burtraesk,20.644,64.513
253,Bygdsiljum,20.504,64.351
522,Byske,21.211,64.954
522,Dorotea,16.415,64.263
176,Flurkmark,20.233,63.98
626,Fredrika,18.403,64.074
103,Hissjoen,20.162,63.939
253,Haellnaes,19.623,64.311
176,Hoernefors,19.911,63.619
86,Innertavle,20.407,63.812
303,Kristineberg,18.577,65.061
103,Kusmark,20.808,64.877
176,Kage,20.982,64.834
901,Lycksele,18.666,64.594
626,Mala,18.742,65.185
176,Medle,20.729,64.74
86,Myckle,20.857,64.754
901,Norsjoe,19.489,64.913
147,Ostvik,21.058,64.887
1081,Helsingborg,12.719,56.042
86,Hofterup,12.974,55.806
72,Hurva,13.434,55.795
60,Torna Haellestad,13.414,55.678
176,Hoeganaes,12.569,56.199
103,Hoellviken,12.966,55.415
176,Hoerby,13.663,55.853
60,Skegrie,13.075,55.405
103,Axvall,13.575,58.386
123,Rengsjoe,16.614,61.363
103,Segersta,16.648,61.268
72,Soerforsa,16.974,61.717
72,Valbo,16.986,60.637
60,Abyggeby,17.115,60.738
147,Alby,15.486,62.498
60,Bergeforsen,17.38,62.527
363,Bredbyn,18.102,63.451
60,Gottne,18.425,63.43
211,Indal,17.099,62.58
123,Kovland,17.152,62.468
123,Goetlunda,15.666,59.354
123,Hallstahammar,16.229,59.616
123,Hoekasen,16.593,59.663
211,Kolsva,15.85,59.598
72,Kumla kyrkby,16.635,59.841
176,Kungsoer,16.095,59.421
72,Kaersta och Bredsdal,16.839,59.677
103,Morgongava,16.964,59.933
86,Munga,16.523,59.745
72,Munktorp,16.132,59.533
253,Moeklinta,16.539,60.068
176,Ramnaes,16.189,59.776
253,Ransta,16.633,59.81
147,Runhaellen,16.822,60.026
72,Salbohed,16.349,59.913
303,Skinnskatteberg,15.692,59.826
103,Skultuna,16.432,59.716
86,Stroemsholm,16.243,59.528
103,Tidoe-Lindoe,16.531,59.512
60,Tillberga,16.626,59.686
72,Tortuna,16.728,59.676
86,Irsta,16.691,59.605
147,Virsbo,16.052,59.873
60,Vittinge,17.062,59.904
103,Vaesterfaernebo,16.273,59.947
435,Oestervala,17.178,60.182
72,Alvik,14.868,60.747
86,Bengtsheden,15.873,60.706
147,Bjoerbo,14.714,60.462
363,Boda,15.219,61.002
176,Saetila,12.434,57.542
176,Timmele,13.427,57.861
123,Tranemo,13.342,57.487
1297,Trollhaettan,12.304,58.278
103,Traedet,13.536,57.985
123,Toellsjoe,12.639,57.794
60,Uddebo,13.256,57.473
363,Ulricehamn,13.418,57.789
86,Upphaerad,12.305,58.159
253,Viskafors,12.873,57.623
253,Vargarda,12.807,58.035
72,Vaene-Asaka,12.417,58.247
103,Vaestra Bodarna,12.474,57.89
751,Amal,12.698,59.052
123,Asensbruk,12.418,58.808
147,Aelvaengen,12.12,57.954
72,Grabo,12.299,57.837
86,Hoekerum,13.284,57.84
72,Nitta,13.19,57.829
72,Rydboholm,12.882,57.652
86,Oestadkulle,12.635,58.024
72,Oestra Froelunda,13.029,57.341
72,Stoecke,20.229,63.743
253,Tvaeralund,19.668,64.096
363,Seskaroe,23.741,65.736
435,Hakkas,21.567,66.915
522,Harads,20.958,66.082
1556,Jokkmokk,19.85,66.601
176,Jukkasjaervi,20.595,67.852
435,Juoksengi,23.843,66.565
123,Jaemtoen,22.495,65.852
435,Jaevre,21.49,65.154
901,Kalix,23.151,65.859
123,Kallax,22.056,65.529
147,Karesuando,22.459,68.439
147,Kloevertraesk,21.405,65.636
901,Korpilombolo,23.051,66.849
103,Koskullskulle,20.722,67.191
60,Lillpite,21.152,65.372
4644,Lulea,22.223,65.587
751,Moskosel,19.452,65.873
147,Nikkala,23.917,65.804
60,Norrfjaerden,21.501,65.417
103,Persoen,22.165,65.741
626,Porjus,19.815,66.957
147,Palaeng,22.892,65.816
176,Roknaes,21.161,65.346
303,Rosvik,21.685,65.429
211,Sangis,23.502,65.86
303,Munkfors,13.552,59.839
86,Rada,13.595,60.007
211,Svanskog,12.552,59.177
123,Vaermlandsbro,13.022,59.182
363,Oestmark,12.762,60.282
123,Fellingsbro,15.59,59.439
176,Grythyttan,14.535,59.708
435,Hede,13.512,62.417
363,Krokom,14.452,63.33
123,Moersil,13.667,63.308
176,Orrviken,14.438,63.106
435,Stugun,15.601,63.168
103,Trangsviken,14.019,63.331
522,Ytterhogdal,14.942,62.18
303,Aenge,14.067,63.457
363,Boliden,20.38,64.866
303,Bygdea,20.859,64.062
253,Hemavan/Bierke,15.088,65.816
435,Joern,20.034,65.056
751,Nordmaling,19.503,63.569
626,Robertsfors,20.849,64.192
2240,Skelleftea,20.996,64.757
60,Stensele,17.145,65.069
147,Soermjoele,20.006,63.682
123,Ersmark,20.319,63.887
363,Amsele,19.344,64.53
211,Antnaes,21.839,65.554
86,Eda glasbruk,12.264,59.921
72,Otterbaecken,14.045,58.953
253,Jaervsoe,16.165,61.717
147,Saevast,21.759,65.763
211,Oersundsbro,17.308,59.735
1081,Funaesdalen,12.552,62.545
86,Undersaker,13.245,63.316
176,Harbo,17.208,60.107
123,Vegby,13.376,57.681
123,Unbyn,21.75,65.713
72,Hampetorp,15.672,59.14
435,Hofors,16.29,60.55
1867,Oerebro,15.206,59.278
11552,Umea,20.241,63.833
86,Danholn,15.793,60.621
86,Norr Amsberg,15.351,60.53
72,Ersnaes,21.797,65.527
751,Pitea,21.456,65.322
72,Bunkeflostrand,12.923,55.559
60,Soederby,17.576,59.385
72,Avan,21.802,65.682
303,Rusksele,18.895,64.814
147,Oevre Svartla,21.178,66.01
60,Katrinedal,12.293,58.385
60,Eksund,16.09,58.588
211,Misterhult,16.547,57.464
103,Oestraby,13.688,55.758
86,Kvicksund,16.303,59.466
211,Krokek,16.368,58.674
60,Ljunga,16.304,58.579
103,Mantorp,15.28,58.349
211,Nykil,15.447,58.287
363,Rejmyre,15.924,58.831
123,Skaenninge,15.085,58.391
253,Vadstena,14.898,58.446
103,Oesterstad,15.174,58.519
123,Anneberg,14.804,57.723
176,Bor,14.171,57.111
86,Burseryd,13.284,57.199
72,Fredriksdal,14.598,57.616
363,Graenna,14.468,58.025
103,Bankekind,15.823,58.374
176,Tuna,16.107,57.576
253,Bergshamra,18.629,59.637
176,Surahammar,16.219,59.707
60,Djura,15.005,60.615
211,Evertsberg,13.955,61.136
522,Furudal,15.125,61.17
123,Gullerasen,15.187,61.056
626,Leksand,15.008,60.732
147,Langshyttan,16.038,60.452
86,Malungsfors,13.559,60.732
147,Naes bruk,16.471,60.187
363,Raettvik,15.102,60.867
253,Smalandsstenar,13.411,57.161
72,Utvaelinge,12.782,56.215
303,Vidsel,20.516,65.833
1867,Gaeddede,14.146,64.502
123,Skattungbyn,14.861,61.185
86,Sunnansjoe,14.969,60.215
147,Saeter,15.74,60.347
176,Transtrand,13.318,61.093
211,Venjan,13.903,60.957
103,Vamhus,14.47,61.117
123,Boele,21.312,65.383
522,Glommerstraesk,19.633,65.261
363,Hedenaeset,23.687,66.224
363,Junosuando,22.498,67.426
211,Kangos,22.658,67.503
9627,Kiruna,20.245,67.854
1556,Kuttainen,22.814,68.381
435,Morjaerv,22.702,66.066
1081,Pajala,23.36,67.215
72,Risoegrund,23.245,65.811
176,Rutvik,22.083,65.67
86,Joenaker,16.727,58.744
176,Sturefors,15.724,58.333
60,Sticklinge udde,18.11,59.386
103,Baelinge,17.538,59.949
103,Ankarsrum,16.338,57.699
86,Jaemshoeg,14.53,56.244
60,Lunnarp,14.043,55.541
123,Yngsjoe,14.231,55.883
72,Hok,14.276,57.514
147,Oedakra,12.748,56.106
72,Rydsgard,13.587,55.473
60,Rydoebruk,13.141,56.962
86,Asby,12.314,57.233
211,Fagelmara,15.949,56.262
147,Dingle,11.577,58.529
60,Ucklum,11.957,58.085
176,Kinna,12.681,57.508
253,Naessjoe,14.702,57.643
123,Grimsloev,14.543,56.737
751,Filipstad,14.168,59.708
103,Persberg,14.254,59.75
103,Hammar,14.959,58.819
363,Falun,15.623,60.605
363,Fredriksberg,14.375,60.139
86,Faernaes,14.632,60.998
86,Gagnef,15.075,60.594
103,Garpenberg,16.195,60.315
72,Gesunda,14.542,60.886
60,Grangaerde,14.982,60.266
123,Grycksbo,15.482,60.687
176,Graengesberg,15,60.081
86,Gubbo,15.321,60.181
72,Halvarsgardarna,15.384,60.407
363,Hedemora,15.983,60.282
253,Horndal,16.411,60.299
147,Idkerberget,15.231,60.374
1297,Idre,12.716,61.861
123,Insjoen,15.096,60.676
147,Lima,13.353,60.951
435,Limedsforsen,13.4,60.888
626,Ludvika,15.198,60.145
435,Malung,13.703,60.693
253,Mockfjaerd,14.95,60.504
626,Mora,14.537,61
147,Nedre Gaerdsjoe,15.228,60.94
86,Nusnaes,14.646,60.961
363,Nyhammar,14.966,60.289
86,Ornaes,15.536,60.506
303,Orsa,14.634,61.109
72,Rot,14.037,61.254
123,Saxdalen,14.98,60.147
103,Siljansnaes,14.875,60.775
147,Smedjebacken,15.415,60.143
211,Solleroen,14.617,60.913
60,Solvarbo,15.669,60.39
147,Sundborn,15.777,60.654
363,Svaerdsjoe,15.906,60.742
86,Sagmyra,15.298,60.712
2688,Saelen,13.262,61.162
435,Saerna,13.141,61.691
147,Soederbaerke,15.56,60.069
123,Soervik,15.142,60.192
72,Torsang,15.566,60.47
60,Toftbyn,15.781,60.718
103,Taellberg,14.991,60.827
103,Blasmark,21.29,65.265
901,Borlaenge,15.43,60.476
176,Fors,16.313,60.209
103,Linghed,15.853,60.785
176,Nas,14.475,60.448
86,Vad,15.658,60.027
626,Vansbro,14.216,60.509
147,Vika,15.714,60.517
103,Vikarbyn,15.022,60.911
60,Vikmanshyttan,15.833,60.298
72,Vinaes,14.538,60.967
123,Batskaersnaes,23.418,65.783
72,Dvaersaett,14.474,63.302
147,Asenhoega,13.797,57.408
123,Saltvik,16.493,57.3
103,Segersaeng,17.93,59.027
60,Roeda holme,11.989,57.375
72,Bergstroemshusen,13.172,55.678
60,Lidatorp och Kloevsta,17.91,58.96
72,Bredsand,17.075,59.596
72,Fiskebaeckskil,11.458,58.243
86,Nygards hagar,17.269,59.218
60,Skreanaes,12.524,56.875
60,Duvesjoen,12.021,57.953
60,Bjoernaenge,13.15,63.378
86,Kareby,11.931,57.906
147,Storvik,16.527,60.588
363,Koeping,15.997,59.513
211,Vaenersborg,12.335,58.363
123,Borensberg,15.285,58.563
86,Herstadberg,16.178,58.626
72,Ekeroe,17.803,59.274
176,Muskoe,18.133,59.001
751,Norrtaelje,18.697,59.762
103,Anneberg,12.107,57.538
86,Froesakull,12.736,56.673
103,Kungsaeter,12.573,57.31
72,Troenninge,12.289,57.142
176,Unnaryd,13.528,56.956
211,Vessigebro,12.653,56.978
72,Vaeroebacka,12.182,57.252
303,Aelvsered,12.868,57.242
253,Oeverum,16.307,57.99
363,Klintehamn,18.202,57.387
303,Romakloster,18.45,57.509
103,Vibble,18.25,57.604
86,Haellaryd,14.949,56.207
123,Jaemjoe,15.841,56.192
147,Kyrkhult,14.592,56.355
72,Moerrum,14.756,56.193
253,Olofstroem,14.526,56.281
123,Balsby,14.211,56.076
253,Broby,14.073,56.257
253,Degeberga,14.085,55.826
60,Finja,13.695,56.168
86,Hanaskog,14.093,56.158
86,Haestveda,13.933,56.287
176,Killeberg,14.094,56.475
751,Kristianstad,14.168,56.026
303,Loensboda,14.318,56.396
123,Naesum,14.504,56.175
103,Roeke,13.507,56.239
1081,Simrishamn,14.343,55.552
253,Tollarp,13.98,55.936
123,Tyringe,13.606,56.159
86,Vik,14.283,55.615
123,Vittsjoe,13.66,56.341
211,Ahus,14.299,55.932
211,Oerkelljunga,13.281,56.284
86,Billinge,13.33,55.963
253,Esloev,13.297,55.839
86,Lotorp,15.823,58.736
60,Brunna,17.752,59.506
363,Ystad,13.816,55.435
176,Onsala,12.03,57.424
303,Virserum,15.582,57.32
123,Hult,15.133,57.642
123,Kaxholmen,14.31,57.854
123,Landsbro,14.908,57.37
60,Odensjoe,14.171,57.712
176,Roervik,14.575,57.239
72,Sundhultsbrunn,14.913,57.93
123,Vrigstad,14.473,57.351
253,Alstermo,15.638,56.973
147,Eneryda,14.337,56.704
253,Hovmantorp,15.153,56.784
211,Lagan,13.995,56.913
363,Lidhult,13.441,56.828
72,Noebbele,15.028,56.687
147,Skruv,15.366,56.677
123,Viken,12.579,56.15
1081,Karlstad,13.539,59.403
363,Ekshaerad,13.491,60.174
72,Oedeborg,11.975,58.542
1297,Arvidsjaur,19.18,65.592
147,Svartbyn,22.834,66.265
751,Oevre Soppero,21.697,68.09
253,Ullanger,18.185,63.01
253,Oestavall,15.475,62.429
60,Oeverboda,19.926,63.851
103,Finsta,18.495,59.737
123,Oennekoep,13.87,55.786
60,Skedvi kyrkby,15.805,60.405
176,Yttersjoe,20.003,63.775
72,Johannesudd,18.032,59.553
435,Kungsbacka,12.08,57.494
435,Taeby,18.075,59.448
147,Stockholm,17.987,59.341
147,Haninge,18.186,59.209
103,Norra Botkyrka,17.842,59.245
60,Jönköping,14.163,57.781
72,Ockerö / Bjorkö / Torslanda,11.714,57.716
103,Gottsunda,17.629,59.809
72,Karlskrona,15.585,56.171
72,Lövgärdet,12.032,57.815
86,Huskvarna,14.278,57.784
1556,Gällivare,20.658,67.153
253,Finspång,15.778,58.705
72,Boo-Orminge,18.264,59.323
253,Timrå,17.356,62.504
103,Fisksätra-Lännersta,18.277,59.29
72,Kallhäll-Slammertorp,17.803,59.455
86,Nödinge-Nol,12.068,57.904
60,Tullinge,17.902,59.212
363,Höör,13.546,55.929
253,Knivsta,17.786,59.737
72,Porsön (Luleå),22.159,65.62
86,Floda,12.363,57.809
253,Ljungsbro-Vreta kloster,15.513,58.501
123,Vikaholm,14.809,56.847
60,Södra Sunderbyn,21.977,65.646
303,Holmsund-Nyvik,20.347,63.708
60,Rotebro-Rotsunda Gård,17.915,59.481
60,Vellinge,13.02,55.478
626,Haparanda / Tornio,24.139,65.843
626,Ljusdal,16.096,61.829
211,Järna,17.565,59.097
435,Laholm,13.048,56.508
176,Åby,16.172,58.664
176,Tuve,11.921,57.756
123,Skellefteå,21.199,64.696
211,Slottsbron,13.102,59.343
176,Gnesta,17.309,59.046
123,Rydebäck,12.769,55.965
123,Färjestaden,16.483,56.644
86,Sandared,12.807,57.713
