rs,name,lon,lat,r1
123,Ljungbyhed,13.235,56.075,60
72,Norra Asum,14.144,55.99,50
86,Onslunda,14.052,55.599,50
363,Osby,14.001,56.385,176
211,Perstorp,13.399,56.136,147
72,Rinkaby,14.272,55.983,50
103,Sankt Olof,14.13,55.638,50
86,Sibbhult,14.198,56.268,50
60,Skillinge,14.279,55.471,60
72,Skanes-Fagerhult,13.469,56.373,0
72,Stroevelstorp,12.839,56.175,60
176,Soesdala,13.677,56.039,123
176,Tomelilla,13.944,55.544,123
147,Torekov,12.63,56.426,103
86,Tormestorp,13.745,56.111,50
60,Torsebro,14.117,56.102,50
86,Vankiva,13.743,56.201,50
123,Vejbystrand,12.773,56.311,60
86,Vinsloev,13.904,56.096,72
60,Vittskoevle,14.146,55.857,50
60,Asljunga,13.362,56.31,50
211,Astorp,12.949,56.135,123
435,Aengelholm,12.877,56.253,211
72,Oennestad,14.024,56.059,72
60,Oestra Karup,12.948,56.421,50
103,Oestra Ljungby,13.064,56.189,50
123,Glimakra,14.139,56.31,60
72,Mala,13.71,56.24,50
103,Andersloev,13.32,55.438,72
72,Riala,18.533,59.63,50
211,Bua,12.12,57.238,86
435,Falkenberg,12.496,56.903,211
72,Fjaeras kyrkby,12.173,57.458,50
60,Frillesas,12.173,57.319,50
86,Fyllinge,12.935,56.635,50
147,Getinge,12.733,56.816,147
86,Glommen,12.365,56.932,72
72,Gullbrandstorp,12.732,56.706,50
1081,Halmstad,12.899,56.675,626
123,Harplinge,12.73,56.745,50
123,Hishult,13.313,56.427,86
60,Holm,12.861,56.734,50
363,Hyltebruk,13.241,57.005,176
86,Kinnared,13.102,57.026,72
72,Kvibille,12.835,56.783,60
147,Landeryd,13.27,57.079,72
103,Skivarp,13.572,55.425,50
72,Stangby,13.194,55.75,50
103,Tagarp,12.955,55.925,60
72,Langas,12.449,56.977,50
253,Oskarstroem,12.976,56.797,123
72,Rolfstorp,12.457,57.146,50
123,Simlangsdalen,13.129,56.721,86
123,Skaellinge,12.47,57.181,86
86,Sloeinge,12.693,56.856,50
86,Saeroe,11.944,57.52,72
123,Torup,13.074,56.954,86
123,Traesloevslaege,12.281,57.055,60
60,Tangaberg,12.228,57.173,50
253,Ullared,12.716,57.133,211
86,Vallberga,13.024,56.467,50
86,Vallda,11.963,57.479,50
435,Varberg,12.27,57.112,435
103,Veinge,13.068,56.554,50
60,Pershagen,17.657,59.152,50
72,Eldsberga,12.986,56.598,50
176,Knaered,13.323,56.519,147
60,Billesholm,12.976,56.058,50
86,Bjuv,12.915,56.081,60
103,Blentarp,13.6,55.585,60
60,Domsten,12.607,56.119,50
123,Ekeby,12.975,55.999,86
72,Flyinge,13.365,55.754,50
60,Holsbybrunn,15.198,57.436,60
103,Horda,14.257,57.036,50
60,Klockrike,15.337,58.496,50
435,Norrkoeping,16.179,58.591,303
253,Ringarum,16.444,58.335,72
303,Tjaellmo,15.354,58.716,147
147,Bottnaryd,13.826,57.771,147
147,Eksjoe,14.971,57.668,147
103,Grimstorp,14.698,57.558,50
147,Hanger,13.972,57.076,86
103,Ingatorp,15.413,57.639,86
1081,Joenkoeping,14.16,57.755,751
303,Klevshult,14.098,57.354,86
123,Kulltorp,13.791,57.264,50
86,Grisslehamn,18.807,60.101,86
60,Gustavsberg,18.391,59.328,60
363,Hallstavik,18.599,60.054,211
176,Herraeng,18.647,60.13,86
147,Hoeloe,17.539,59.025,72
123,Karby,18.221,59.561,72
60,Kopparmora,18.58,59.331,60
147,Kungsberga,17.636,59.406,72
211,Karsta,18.268,59.655,86
72,Lidingoe,18.148,59.362,0
60,Lindholmen,18.107,59.586,60
60,Odensberg,13.44,58.154,50
103,Mariedal,17.68,59.569,50
72,Moelnbo,17.421,59.048,60
123,Nykvarn,17.427,59.177,103
60,Oskar-Fredriksborg,18.435,59.396,50
60,Resaroe,18.341,59.433,50
123,Johansfors,15.536,56.695,60
147,Kastloesa,16.424,56.443,72
211,Kristdala,16.206,57.4,147
86,Kristvallabrunn,16.052,56.779,72
176,Loftahammar,16.687,57.902,147
86,Langasjoe,15.447,56.582,60
123,Maleras,15.567,56.908,72
147,Malilla,15.788,57.384,103
435,Moensteras,16.441,57.042,211
123,Moerlunda,15.866,57.32,60
363,Nybro,15.906,56.745,253
176,Orrefors,15.746,56.839,103
1081,Oskarshamn,16.432,57.257,522
147,Paryd,15.924,56.566,123
176,Paskallavik,16.454,57.166,86
123,Ruda,16.115,57.11,60
103,Silverdalen,15.75,57.541,50
72,Johannishus,15.42,56.224,50
86,Kallinge,15.288,56.252,50
363,Karlshamn,14.856,56.174,363
626,Karlskrona,15.624,56.198,522
72,Kaettilsmala,15.739,56.281,60
72,Listerby,15.397,56.19,72
147,Norje,14.67,56.127,72
103,Naevragoel,15.567,56.373,50
72,Pukavik,14.68,56.16,50
211,Ronneby,15.278,56.209,176
123,Roedeby,15.622,56.26,60
123,Sturkoe,15.674,56.115,50
72,Spjutsbygd,15.592,56.312,50
123,Svaengsta,14.77,56.265,72
176,Soelvesborg,14.576,56.048,147
123,Torhamn,15.848,56.096,103
211,Tving,15.468,56.307,86
60,Vilshult,14.482,56.355,60
103,Arkelstorp,14.289,56.172,103
60,Ballingsloev,13.845,56.213,60
72,Hummelsta,16.945,59.626,72
123,Jaerlasa,17.204,59.885,123
86,Karlholmsbruk,17.625,60.522,86
123,Knutby,18.269,59.911,103
123,Lillkyrka,17.249,59.559,72
60,Laenna,17.957,59.872,50
86,Marma,17.424,60.491,50
211,Mehedeby,17.403,60.447,72
86,Skoby,18.021,60.029,50
176,Skutskaer,17.397,60.64,147
86,Raby,17.498,59.534,50
123,Fornasa,15.232,58.479,86
103,Slottsskogen,17.609,59.69,60
123,Soederfors,17.234,60.387,0
176,Vaesterhaninge,18.063,59.114,103
626,Tierp,17.52,60.345,303
103,Braas,15.056,57.061,86
303,Lammhult,14.582,57.17,176
147,Stroemsnaesbruk,13.735,56.551,103
103,Urshult,14.818,56.533,72
253,Vislanda,14.454,56.786,123
253,Vaeckelsang,14.918,56.643,103
1556,Vaexjoe,14.798,56.894,901
123,Aby,14.777,57.024,60
72,Aelghult,15.575,57.008,50
751,Aelmhult,14.137,56.55,303
86,Algutsrum,16.531,56.68,50
103,Berga,16.037,57.22,50
86,Bockara,16.068,57.263,50
303,Borgholm,16.662,56.876,147
303,Degerhamn,16.417,56.354,176
103,Edsbruk,16.471,58.019,86
253,Emmaboda,15.553,56.633,176
86,Eriksmala,15.486,56.735,50
176,Fagerhult,15.664,57.146,86
176,Figeholm,16.549,57.374,123
103,Fliseryd,16.254,57.125,103
86,Froedinge,16.002,57.701,86
103,Fagelfors,15.844,57.206,103
253,Gamleby,16.401,57.893,147
103,Gullringen,15.719,57.8,60
72,Gunnebo,16.527,57.722,50
176,Hagby,16.182,56.559,123
123,Halltorp,16.101,56.499,50
253,Hjorted,16.309,57.623,72
363,Hultsfred,15.838,57.49,176
103,Storebro,15.842,57.588,86
522,Vaernamo,14.041,57.185,435
522,Aseda,15.353,57.167,253
123,Raella,16.57,56.772,103
147,Soedra Vi,15.793,57.742,72
86,Totebo,16.186,57.63,72
72,Trekanten,16.116,56.7,72
60,Tvaerskog,16.046,56.621,60
1081,Uppsala,17.634,59.851,522
72,Vattholma,17.731,60.015,60
147,Aelvkarleby,17.454,60.57,72
103,Oerbyhus,17.706,60.227,103
123,Oesterbybruk,17.894,60.198,123
626,Oesthammar,18.361,60.26,363
211,Alberga,16.116,59.281,147
123,Ramstalund,17.444,59.799,60
86,Skaerplinge,17.76,60.472,72
86,Bettna,16.64,58.907,50
176,Bie,16.211,59.089,86
86,Bjoerkvik,16.522,58.837,86
72,Buskhyttan,16.942,58.663,72
522,Eskilstuna,16.503,59.371,253
60,Hallsta,16.459,59.295,50
60,Haellberga,16.6,59.32,50
72,Haerad,16.902,59.361,60
103,Hoegsjoe,15.669,59.026,103
626,Katrineholm,16.205,58.992,363
363,Malmkoeping,16.724,59.135,86
211,Mariefred,17.23,59.266,103
123,Merlaenna,16.982,59.28,72
435,Nykoeping,17.023,58.757,435
72,Naevekvarn,16.798,58.633,0
103,Runtuna,17.075,58.872,86
103,Skogstorp,16.475,59.326,50
123,Sparreholm,16.822,59.074,60
123,Stigtomta,16.783,58.802,123
176,Strangsjoe,16.193,58.904,86
86,Svalsta,16.867,58.743,60
103,Torshaella,16.467,59.422,50
303,Trosa,17.546,58.899,147
147,Tystberga,17.236,58.851,103
86,Vagnhaerad,17.487,58.947,50
72,Sund,17.409,58.962,50
72,Valla,16.377,59.02,0
60,Aerla,16.679,59.287,0
147,Bjoersaeter,16.021,58.336,72
303,Boxholm,15.045,58.192,147
176,Brokind,15.679,58.217,86
72,Fagelsta,15.039,58.457,60
72,Gistad,15.89,58.466,50
86,Soederakra,16.064,56.448,50
147,Oeregrund,18.445,60.333,72
72,Kraegga,17.404,59.607,60
103,Marmorbyn,16.07,59.046,50
72,Stjaernhov,17.008,59.081,0
123,Alberga,16.578,58.725,72
72,Grebo,15.871,58.3,0
103,Gusum,16.495,58.267,60
176,Hestra,15.074,57.955,86
176,Horn,15.843,57.9,103
103,Haestholmen,14.64,58.278,50
86,Haelleforsnaes,16.502,59.156,0
176,Oxeloesund,17.087,58.676,86
86,Stallarholmen,17.205,59.368,0
72,Torshaella huvud,16.46,59.454,50
211,Vrena,16.703,58.861,60
103,Falerum,16.207,58.144,0
72,Kimstad,15.966,58.549,50
435,Kisa,15.635,57.984,253
1867,Linkoeping,15.621,58.404,901
147,Ljusfallshammar,15.503,58.786,72
303,Mjoelby,15.13,58.333,211
435,Motala,15.041,58.547,303
60,Norsholm,15.971,58.518,50
176,Rimforsa,15.682,58.137,147
72,Rydsnaes,15.152,57.798,60
147,Simonstorp,16.156,58.786,123
123,Skaerblacka,15.921,58.584,123
86,Slaka,15.565,58.368,50
72,Svaertinge,16.025,58.654,72
211,Soederkoeping,16.325,58.473,103
303,Valdemarsvik,16.596,58.21,253
72,Vanga,15.814,58.582,60
103,Vaederstad,14.924,58.313,86
60,Vaestra Husby,16.175,58.485,0
363,Atvidaberg,15.998,58.198,211
303,Oesterbymo,15.273,57.827,176
176,Oestra Husby,16.562,58.576,103
147,Oestra Ryd,16.165,58.405,72
303,Aneby,14.808,57.835,176
211,Bankeryd,14.125,57.858,86
60,Bjoerkoeby,14.905,57.518,60
211,Bodafors,14.705,57.505,123
123,Bredaryd,13.732,57.173,123
72,Bruzaholm,15.275,57.642,72
147,Oelmstad,14.397,57.925,50
147,Ekenaessjoen,15.02,57.49,72
103,Flisby,14.801,57.783,50
147,Forserum,14.471,57.7,86
60,Forsheda,13.831,57.162,60
303,Gislaved,13.565,57.302,253
123,Gnosjoe,13.743,57.354,103
103,Gripenberg,14.855,57.992,60
253,Hestra,13.593,57.447,86
86,Hillerstorp,13.884,57.311,86
72,Linghem,15.786,58.432,0
147,Nykyrka,14.973,58.624,72
103,Stralsnaes,15.089,58.237,50
211,Oedeshoeg,14.651,58.229,176
72,Broaryd,13.253,57.123,50
86,Stavsjoe,16.435,58.729,60
72,Skaerstad,14.363,57.886,50
103,Oelme,14.008,59.363,60
123,Vaeskinde,18.42,57.69,60
60,Ovesholm,14.038,55.994,60
86,Holmeja,13.274,55.555,50
86,Aselstad,16.225,58.546,50
211,Kyrksten,14.393,59.437,103
211,Baelgviken,16.458,59.248,50
86,Skeda udde,15.56,58.291,60
103,Brevikshalvoen,18.355,59.221,60
103,Bro,17.633,59.518,60
303,Djuroe,18.701,59.312,176
123,Edsbro,18.489,59.896,103
123,Ekeby,17.522,59.254,60
253,Rimbo,18.36,59.744,176
86,Rosersberg,17.888,59.583,50
72,Rydbo,18.186,59.462,60
123,Ranaes,18.304,59.804,60
72,Sigtuna,17.718,59.621,60
72,Lugnet och Skaelsmara,18.542,59.248,72
211,Stenhamra,17.687,59.335,86
72,Stora Vika,17.787,58.956,50
147,Svanberga,18.662,59.839,72
72,Jordbro,18.127,59.145,50
751,Nynaeshamn,17.944,58.905,211
123,Soederby-Karl,18.702,59.892,60
103,Soedersvik,18.918,59.752,0
123,Upplands Vaesby,17.924,59.514,86
176,Vaxholm,18.334,59.404,72
60,Varsta,17.79,59.167,50
147,Aelmsta,18.812,59.971,123
176,Almunge,18.048,59.878,147
303,Alunda,18.085,60.066,103
123,Vaenge,17.436,59.858,103
211,Balsta,17.521,59.578,176
147,Fjaerdhundra,16.922,59.774,123
211,Gimo,18.184,60.173,103
86,Grillby,17.257,59.626,86
123,Gunsta,17.832,59.855,60
86,Gavsta,17.876,59.944,72
86,Hargshamn,18.466,60.169,86
86,Grevie,12.781,56.39,50
86,Gaersnaes,14.182,55.549,86
103,Hammenhoeg,14.157,55.503,50
72,Huaroed,13.971,55.842,60
253,Haessleholm,13.774,56.16,253
72,Immeln,14.247,56.206,50
253,Kivik,14.221,55.687,123
147,Klippan,13.144,56.136,103
147,Knislinge,14.087,56.195,103
60,Kvidinge,13.052,56.134,50
86,Linderoed,13.822,55.932,86
103,Oersjoe,15.751,56.701,86
435,Burgsvik,18.277,57.033,211
363,Faroesund,19.05,57.859,176
176,Havdhem,18.327,57.162,86
751,Hemse,18.383,57.239,435
253,Ljugarn,18.707,57.333,123
147,Laerbro,18.786,57.786,72
363,Slite,18.795,57.712,253
103,Stanga,18.471,57.283,50
103,Tingstaede,18.604,57.732,86
1297,Visby,18.314,57.639,1081
176,Backaryd,15.153,56.346,86
72,Braekne-Hoby,15.117,56.232,0
60,Gaengletorp,15.748,56.167,50
86,Hallabro,15.102,56.391,50
176,Hassloe,15.469,56.111,72
253,Holmsjoe,15.539,56.421,103
60,Haellevik,14.695,56.013,0
86,Bovallstrand,11.33,58.476,50
176,Donsoe,11.801,57.602,86
123,Elloes,11.473,58.179,103
123,Fagerhult,12.023,58.418,60
253,Fjaellbacka,11.29,58.598,103
123,Haellingsjoe,12.439,57.619,60
72,Grundsund,11.427,58.212,50
3870,Goeteborg,11.999,57.685,3225
86,Hamburgsund,11.278,58.557,50
147,Hedekas,11.793,58.643,103
86,Hindas,12.445,57.703,72
60,Hjuvik,11.734,57.71,50
103,Hunnebostrand,11.304,58.438,72
123,Haellesaker,12.184,57.599,60
103,Haellevadsholm,11.538,58.578,50
103,Haelleviksstrand,11.446,58.123,50
60,Steninge,12.631,56.773,60
303,Veddige,12.329,57.267,123
60,Bergby,17.035,60.931,50
522,Bergsjoe,17.059,61.98,211
147,Bjoerke,17.19,60.764,72
901,Bollnaes,16.372,61.348,435
253,Delsbo,16.555,61.805,211
363,Enanger,17.013,61.546,72
60,Forsbacka,16.909,60.612,50
147,Faerila,15.839,61.796,123
176,Gnarp,17.237,62.05,86
2688,Gaevle,17.122,60.69,751
72,Hammarby,16.571,60.544,50
60,Hamrangefjaerden,17.057,60.902,50
86,Harmanger,17.222,61.931,86
123,Hedesunda,16.998,60.397,123
1297,Hudiksvall,17.116,61.729,626
60,Hybo,16.198,61.797,50
123,Halsjoe,16.78,61.827,60
176,Iggesund,17.076,61.645,86
86,Jaederfors,16.689,60.665,50
123,Jaedraas,16.468,60.841,123
303,Jaerbo,16.6,60.72,103
103,Jaettendal,17.249,61.979,50
253,Hassela,16.691,62.115,176
211,Ljusne,17.126,61.211,60
626,Los,15.168,61.735,303
86,Lottefors,16.41,61.422,50
72,Njutanger,17.057,61.61,50
211,Norrsundet,17.138,60.933,211
123,Naesviken,16.877,61.765,50
363,Ockelbo,16.719,60.892,211
72,Sandarne,17.153,61.269,50
176,Sandviken,16.775,60.619,176
147,Skog,16.839,61.168,103
72,Stocka,17.337,61.893,60
123,Saelgsjoen,17.113,60.617,60
60,Soederala,16.923,61.285,60
363,Soederhamn,17.056,61.309,363
60,Tallasen,16,61.861,50
123,Torsaker,16.48,60.511,86
123,Troedje,17.211,60.821,60
103,Vallsta,16.366,61.519,50
211,Amot,16.446,60.964,103
123,Arsunda,16.735,60.515,103
211,Oesterfaernebo,16.801,60.31,103
86,Skare,13.433,59.44,60
211,Storfors,14.275,59.535,176
123,Sulvik,12.407,59.681,86
363,Sunne,13.143,59.834,253
103,Sunnemo,13.729,59.884,86
363,Sysslebaeck,12.868,60.732,363
176,Saeffle,12.924,59.133,123
435,Torsby,13,60.13,303
147,Uddheden,12.909,59.947,103
123,Vallargaerdet,13.577,59.475,60
103,Valberg,13.185,59.391,50
176,Vaese,13.849,59.381,147
211,Amotfors,12.369,59.769,123
626,Arjaeng,12.133,59.385,303
72,Oersloesa,13.004,58.511,72
522,Askersund,14.911,58.89,176
147,Degerfors,14.43,59.237,103
86,Ekeby-Almby,15.337,59.258,72
123,Finneroedja,14.436,58.923,86
147,Fjugesta,14.868,59.174,123
253,Froevi,15.365,59.471,123
123,Garphyttan,14.951,59.304,123
86,Gusselby,15.221,59.644,50
123,Hallsberg,15.099,59.067,60
86,Hasselfors,14.649,59.087,72
123,Hovsta,15.227,59.346,72
303,Lenhovda,15.272,56.995,176
147,Edane,12.824,59.629,123
176,Haellefors,14.516,59.784,176
86,Kilsmo,15.544,59.067,72
435,Kopparberg,15.02,59.867,211
303,Kumla,15.141,59.129,147
253,Laxa,14.62,58.982,147
147,Forshaga,13.484,59.536,86
86,Mjoenaes,13.56,59.878,50
86,Rottneros,13.11,59.795,50
253,Toecksfors,11.848,59.509,147
103,Glanshammar,15.402,59.317,60
253,Hjortkvarn,15.439,58.897,103
626,Lindesberg,15.224,59.601,303
86,Mullhyttan,14.687,59.153,86
176,Nora,15.02,59.524,103
72,Norra Bro,15.251,59.225,50
123,Palsboda,15.34,59.065,60
60,Ramsberg,15.297,59.769,50
86,Rockhammar,15.448,59.529,60
72,Roenneshytta,15.048,58.92,72
60,Vartofta,13.628,58.096,60
147,Vedum,12.995,58.171,86
72,Vaering,13.964,58.509,50
123,Vaersas,14.047,58.348,50
103,Asarp,13.565,58.025,50
86,Aelgaras,14.253,58.813,50
176,Ambjoerby,13.171,60.495,86
626,Arvika,12.603,59.665,522
86,Bjoerneborg,14.248,59.241,72
147,Baeckhammar,14.186,59.158,86
303,Charlottenberg,12.312,59.885,211
147,Deje,13.481,59.603,72
60,Fagersanna,14.303,58.469,60
253,Gullspang,14.102,58.982,123
60,Jung,13.113,58.327,50
123,Sjoetorp,13.98,58.837,123
176,Tibro,14.167,58.417,176
147,Toereboda,14.132,58.707,0
72,Oexabaeck,12.804,57.395,50
72,Oexeryd,12.28,57.739,50
103,Blikstorp,14.058,58.28,72
103,Eggby,13.645,58.433,50
72,Ekedalen,13.842,58.2,60
522,Falkoeping,13.553,58.174,253
147,Floby,13.339,58.134,123
86,Forsvik,14.432,58.574,50
147,Graestorp,12.68,58.331,147
147,Goetene,13.463,58.523,147
103,Habo,14.08,57.908,50
363,Hova,14.216,58.853,147
211,Haellekis,13.438,58.629,103
72,Igelstorp,13.975,58.399,72
60,Jonslund,12.834,58.16,60
253,Karlsborg,14.52,58.529,176
211,Kinnarp,13.524,58.074,103
176,Kvaenum,13.185,58.298,123
103,Kaettilstorp,13.71,58.041,50
86,Lerdala,13.715,58.477,50
363,Lidkoeping,13.147,58.495,363
103,Lundsbrunn,13.447,58.473,50
60,Lyrestad,14.058,58.804,50
86,Madaengsholm,13.924,58.141,50
72,Moholm,14.041,58.608,50
72,Moelltorp,14.411,58.497,60
176,Nossebro,12.725,58.19,123
103,Saleby,13.148,58.377,50
211,Skara,13.442,58.384,176
123,Skultorp,13.833,58.342,60
522,Skoevde,13.85,58.399,0
103,Stora Levene,12.926,58.328,50
176,Stoepen,13.865,58.48,86
211,Tidaholm,13.962,58.18,211
253,Tidan,14.013,58.571,103
176,Bjaernum,13.709,56.293,123
147,Aetran,12.948,57.124,123
147,Vickleby,16.464,56.587,60
86,Eringsboda,15.367,56.44,0
176,Borrby,14.18,55.457,86
72,Broesarp,14.104,55.724,72
176,Bastad,12.857,56.428,103
72,Eket,13.19,56.249,50
435,Vimmerby,15.847,57.669,363
60,Emmaljunga,13.652,56.39,50
72,Everoed,14.091,55.899,72
86,Foersloev,12.817,56.351,50
60,Joerlanda,11.829,57.99,50
147,Kode,11.85,57.941,72
176,Kungshamn,11.261,58.362,103
303,Kungaelv,11.969,57.87,176
72,Kallekaerr,11.664,58.029,60
86,Kaerna,11.792,57.845,50
123,Landvetter,12.215,57.688,50
176,Ljungskile,11.925,58.223,123
103,Marstrand,11.593,57.891,50
176,Molloesund,11.477,58.073,86
60,Olofstorp,12.146,57.795,60
72,Rabbalshede,11.473,58.613,50
72,Haellabrottet,15.232,59.109,50
626,Stoellet,13.273,60.409,253
303,Olshammar,14.8,58.749,72
103,Roennaeng,11.582,57.94,50
253,Roeroe,11.62,57.776,60
123,Stora Hoega,11.82,58.016,60
2688,Stroemstad,11.177,58.943,626
86,Saeve,11.913,57.802,50
303,Tanumshede,11.326,58.724,211
211,Uddevalla,11.936,58.356,211
72,Varekil,11.709,58.124,60
60,Vrangoe,11.785,57.572,50
147,Ambjoernarp,13.294,57.421,72
211,Bengtsfors,12.218,59.028,0
103,Billingsfors,12.244,58.981,50
60,Bjoerboholm,12.325,57.875,50
147,Bjoerketorp,12.526,57.426,72
123,Bollebygd,12.565,57.674,123
123,Borgstena,13.013,57.885,60
522,Boras,12.94,57.728,522
60,Bredared,12.901,57.805,50
211,Baeckefors,12.157,58.804,123
211,Dals Langed,12.298,58.926,103
147,Dalstorp,13.521,57.604,86
86,Dalum,13.465,57.901,50
72,Dannike,13.227,57.684,60
363,Ed,11.94,58.911,147
176,Hoenoe,11.647,57.69,147
522,Lysekil,11.446,58.28,211
147,Taberg,14.083,57.689,72
86,Tenhult,14.323,57.71,72
626,Tranas,14.976,58.037,363
60,Tunnerstad,14.346,58.05,0
303,Vaggeryd,14.149,57.497,253
626,Vetlanda,15.085,57.415,211
72,Oerserum,14.576,58.008,60
253,Korsberga,15.125,57.301,123
103,Agunnaryd,14.145,56.749,103
147,Alvesta,14.551,56.901,147
86,Angelstad,13.763,56.826,86
86,Delary,13.953,56.547,86
211,Dioe,14.228,56.646,103
123,Fridafors,14.657,56.408,60
60,Furuby,15.034,56.853,50
72,Gemla,14.654,56.865,60
123,Ingelstad,14.92,56.744,103
60,Arild,12.586,56.271,50
86,Sonstorp,15.634,58.724,72
147,Kvillsfors,15.515,57.406,86
86,Konga,15.122,56.495,86
147,Kosta,15.397,56.843,103
103,Kanna,13.904,56.781,50
60,Lessebo,15.27,56.749,0
103,Linneryd,15.128,56.658,103
522,Ljungby,13.943,56.833,363
176,Markaryd,13.601,56.459,176
103,Norrhult-Klavrestroem,15.162,57.128,72
253,Rottne,14.894,57.024,147
211,Ryd,14.691,56.466,147
123,Ryssby,14.164,56.866,103
176,Raevemala,15.266,56.555,72
522,Tingsryd,14.979,56.528,253
60,Traryd,13.74,56.577,50
103,Veberoed,13.492,55.636,86
147,Vollsjoe,13.78,55.704,72
103,Edsvalla,13.213,59.439,50
72,Geijersholm,13.727,60.066,50
103,Gunnarskog,12.562,59.816,103
1556,Hagfors,13.692,60.033,303
253,Klaessbol,12.743,59.539,86
123,Koppom,12.157,59.708,103
176,Kristinehamn,14.11,59.313,0
147,Hoegboda,13.054,59.559,123
303,Lesjoefors,14.176,59.98,176
211,Lysvik,13.136,60.017,103
147,Molkom,13.729,59.604,123
253,Nordmark,14.1,59.832,86
176,Nykroppa,14.303,59.621,86
147,Segmon,13.042,59.271,72
147,Skoghall,13.521,59.335,72
303,Stenungsund,11.838,58.075,211
147,Svanesund,11.821,58.141,72
60,Frufaellan,12.982,57.776,50
147,Fraendefors,12.278,58.498,72
303,Faergelanda,11.993,58.569,176
86,Graefsnaes,12.489,58.08,50
123,Herrljunga,13.031,58.079,123
60,Hillared,13.156,57.631,50
72,Hjaertum,12.106,58.18,50
123,Holsljunga,12.974,57.412,60
60,Hyssna,12.538,57.554,60
176,Ingared,12.456,57.851,50
60,Kinnarumma,12.876,57.596,50
176,Lerum,12.276,57.776,147
103,Limmared,13.36,57.535,50
72,Ljungsarp,13.582,57.566,50
211,Laenghem,13.244,57.601,72
363,Mellerud,12.461,58.698,363
86,Mjoebaeck,12.877,57.311,50
60,Tulebo,12.1,57.617,50
176,Nygard,12.216,58.057,72
72,Rangedala,13.128,57.794,72
86,Sandhult,12.821,57.772,60
147,Sjuntorp,12.225,58.199,72
72,Sjoevik,12.366,57.914,50
60,Velanda,12.31,58.228,50
303,Svenljunga,13.108,57.496,123
86,Lanna,13.782,57.221,50
123,Lekeryd,14.419,57.772,72
123,Malmbaeck,14.46,57.574,123
147,Mariannelund,15.576,57.613,147
72,Nissafors,13.631,57.41,50
123,Paulistroem,15.507,57.47,60
72,Reftele,13.599,57.174,72
147,Rydaholm,14.308,56.985,147
72,Skede,15.175,57.469,50
72,Skeppshult,13.376,57.125,50
147,Skillingaryd,14.087,57.433,72
147,Sommen,14.969,58.129,72
60,Stensjoen,14.824,57.581,60
72,Stockaryd,14.594,57.318,72
253,Saevsjoe,14.663,57.395,211
72,Vinberg,12.544,56.95,50
176,Vaxtorp,13.118,56.416,86
123,Aled,12.954,56.743,60
86,Arstad,12.677,56.917,60
147,Asa,12.12,57.349,72
72,Vassmoloesa,16.156,56.592,50
72,Vena,15.976,57.519,72
211,Vissefjaerda,15.582,56.537,103
901,Vaestervik,16.626,57.755,626
60,Jonstorp,12.671,56.227,60
72,Kattarp,12.784,56.141,50
60,Klagerup,13.251,55.596,50
86,Kungshult,13.411,55.852,50
86,Kageroed,13.087,56,60
103,Kaevlinge,13.113,55.795,86
86,Koepingebro,13.934,55.455,72
103,Lomma,13.076,55.676,72
253,Lund,13.203,55.713,123
147,Loeberoed,13.513,55.776,86
8023,Malmoe,13.009,55.597,2240
60,Mjoehult,12.686,56.176,50
253,Moelle,12.497,56.284,86
60,Norra Roerum,13.509,56.02,0
103,Oxie,13.099,55.54,60
60,Abbekas,13.599,55.396,50
86,Bara,13.183,55.581,50
522,Sjoebo,13.701,55.636,176
211,Skurup,13.501,55.48,147
123,Smygehamn,13.376,55.346,86
147,Sollebrunn,12.532,58.119,103
103,Svaloev,13.104,55.913,0
72,Svarte,13.716,55.431,60
176,Svedala,13.228,55.514,72
147,Sjulsmark,21.485,65.519,103
176,Svappavaara,21.055,67.648,0
363,Tjautjas/Cavccas,20.735,67.325,176
176,Toere,22.654,65.916,147
253,Ullatti,21.818,67.017,123
147,Visttraesk,20.647,65.692,123
751,Vittangi,21.639,67.678,522
363,Vuollerim,20.624,66.431,363
147,Nyborg,23.186,65.788,72
253,Oeverkalix,22.848,66.324,0
1297,Oevertornea,23.641,66.39,522
123,Sibble,17.747,59.112,50
103,Skebobruk,18.611,59.967,72
100000,Stockholm,18.091,59.27,0
123,Dalaroe,18.417,59.138,86
435,Maersta,17.847,59.627,103
86,Tumba,17.822,59.198,50
363,Karlskoga,14.532,59.334,363
211,Kil,13.317,59.505,123
211,Vaestra Aemtervik,13.143,59.726,72
211,Odensbacken,15.529,59.164,103
86,Roefors,14.622,58.936,50
103,Brastad,11.479,58.387,103
60,Grebbestad,11.254,58.695,50
147,Henan,11.671,58.235,123
103,Hogstorp,11.762,58.397,72
253,Braendoen,22.336,65.696,86
103,Hemmingsmark,21.284,65.224,103
363,Karungi,23.949,66.045,147
363,Ranea,22.293,65.859,211
211,Munkedal,11.685,58.466,147
147,Skaerhamn,11.557,57.992,147
72,Tjuvkil,11.741,57.896,60
435,Alingsas,12.538,57.93,211
60,Blidsberg,13.493,57.927,50
147,Bralanda,12.349,58.563,147
123,Dalsjoefors,13.107,57.722,86
86,Fengersfors,12.464,58.994,86
60,Moelnlycke,12.113,57.657,60
103,Fritsla,12.784,57.559,50
72,Grimsas,13.551,57.483,50
60,Hedared,12.754,57.807,50
176,Horred,12.471,57.355,86
147,Hoegsaeter,12.054,58.649,86
103,Marbaeck,13.421,57.741,50
72,Rydal,12.693,57.556,50
176,Langviksmon,18.698,63.631,86
86,Moliden,18.456,63.378,60
253,Naesaker,16.902,63.443,211
86,Stora Melloesa,15.503,59.211,50
103,Vedevag,15.289,59.527,50
211,Asbro,15.056,58.991,72
303,Fagersta,15.809,60.002,176
103,Kolbaeck,16.239,59.564,50
147,Norberg,15.928,60.066,72
435,Sala,16.58,59.918,211
86,Saetra brunn,16.437,59.864,72
123,Taernsjoe,16.926,60.154,123
626,Vaesteras,16.543,59.618,522
253,Bjursas,15.45,60.738,123
86,Bonaes,14.489,61.073,50
72,Torestorp,12.677,57.386,0
147,Toesse,12.644,58.971,86
72,Aespered,13.179,57.756,50
147,Ljung,13.059,57.988,86
86,Kjulaas,16.677,59.389,86
86,Melloesa,16.562,59.1,50
60,Skoeldinge,16.455,59.033,50
211,Straengnaes,17.019,59.373,0
86,Tumbo,16.342,59.426,50
176,Vingaker,15.875,59.046,176
103,Aeskoeping,16.064,59.147,86
60,Ekaengen,15.64,58.466,60
103,Godegard,15.162,58.747,72
123,Igelfors,15.691,58.845,103
1556,Vilhelmina,16.66,64.625,901
626,Vindeln,19.719,64.2,303
253,Vaennaes,19.744,63.905,253
211,Anaeset,21.044,64.278,103
751,Asele,17.352,64.163,435
103,Naelden,14.25,63.347,86
176,Granoe,19.311,64.251,123
211,Loevanger,21.315,64.368,211
86,Taeftea,20.482,63.839,72
751,Arjeplog,17.862,66.046,626
435,Boden,21.676,65.824,253
103,Strassa,15.208,59.743,50
103,Barkaroe,16.506,59.552,72
211,Heby,16.854,59.943,147
72,Medaker,15.752,59.453,60
60,Riddarhyttan,15.537,59.809,0
86,Valskog,15.947,59.442,50
626,Avesta,16.178,60.14,435
60,Brunnsberg,13.919,61.285,50
103,Floda,14.812,60.511,50
103,Husby,15.998,60.392,60
123,Djuras,15.132,60.559,86
123,Naglarby och Enbacka,15.588,60.415,86
60,Enviken,15.756,60.808,50
72,Sexdrega,13.118,57.579,72
60,Skepplanda,12.211,57.983,50
86,Genarp,13.399,55.599,50
86,Klagstorp,13.378,55.394,50
363,Landskrona,12.84,55.875,176
103,Loevestad,13.892,55.655,72
86,Bjaerred,13.03,55.717,50
147,Roestanga,13.291,56,72
103,Stehag,13.393,55.9,60
86,Vinninga,13.262,58.453,60
72,Ardala,13.333,58.361,60
901,Mariestad,13.821,58.704,303
176,Fagerhult,14.126,58.001,103
86,Fraemmestad,12.667,58.235,50
253,Hjo,14.276,58.301,123
147,Jaerpas,12.975,58.38,123
123,Lugnas,13.698,58.649,60
147,Mullsjoe,13.88,57.922,103
123,Sandhem,13.771,57.987,60
176,Stenstorp,13.717,58.273,72
86,Timmersdala,13.756,58.527,60
147,Undenaes,14.401,58.656,86
435,Aelvdalen,14.045,61.225,253
253,Arbra,16.378,61.468,123
363,Edsbyn,15.818,61.376,253
176,Friggesund,16.551,61.897,86
253,Ilsbo,17.05,61.856,86
211,Kilafors,16.566,61.231,103
303,Lingbo,16.688,61.05,147
86,Lund,17.004,60.665,50
86,Norrlandet,17.269,60.722,50
86,Berghem,12.592,57.468,50
123,Lilla Edet,12.133,58.132,0
103,Staffanstorp,13.207,55.643,72
86,Tjoernarp,13.633,56,50
72,Torbjoerntorp,13.601,58.211,50
363,Tun,12.736,58.43,103
72,Ullervad,13.851,58.669,50
147,Vara,12.958,58.262,0
176,Asen,13.816,61.277,103
103,Aeppelbo,14.02,60.484,103
60,Persbo,15.225,60.219,50
147,Alfta,16.067,61.346,123
123,Soedra Sandby,13.344,55.721,86
86,Soevestad,13.798,55.502,72
103,Teckomatorp,13.09,55.868,50
435,Trelleborg,13.154,55.377,211
211,Fristad,13.004,57.824,103
303,Oeverlida,12.898,57.353,147
435,Aelvsbyn,21.004,65.674,253
253,Soedertaelje,17.626,59.184,176
176,Oesmo,17.896,58.987,86
147,Bjoerklinge,17.552,60.033,86
211,Enkoeping,17.086,59.639,0
86,Gardskaer,17.579,60.609,60
123,Laeby,17.555,60.09,60
123,Mankarbo,17.462,60.228,123
123,Skyttorp,17.738,60.081,72
211,Storvreta,17.705,59.958,103
60,Tobo,17.656,60.259,50
211,Moheda,14.574,57.006,103
123,Vittaryd,13.947,56.971,60
123,Aryd,14.979,56.829,86
176,Alsterbro,15.916,56.941,103
147,Blomstermala,16.329,56.98,72
103,Baeckebo,16.069,56.888,86
253,Hoegsby,16.025,57.169,211
1081,Kalmar,16.34,56.677,901
103,Lindsdal,16.291,56.733,50
303,Loettorp,17.003,57.164,253
253,Moerbylanga,16.395,56.519,123
176,Rockneby,16.35,56.801,72
72,Smedby,16.24,56.68,60
522,Torsas,16.001,56.412,211
72,Arnoe,17.021,58.725,50
72,Baggetorp,16.074,59.009,72
72,Bjoernlunda,17.162,59.064,72
176,Flen,16.592,59.056,0
253,Ramvik,17.864,62.81,123
176,Sidensjoe,18.274,63.302,123
86,Stavreviken,17.411,62.553,50
103,Stockvik,17.362,62.342,50
211,Stoede,16.587,62.419,211
3225,Sundsvall,17.296,62.397,1556
103,Soeraker,17.514,62.504,72
86,Torpshammar,16.335,62.474,86
72,Utansjoe,17.919,62.773,50
1297,Ange,15.67,62.524,522
86,Aelandsbro,17.843,62.678,50
1297,Oernskoeldsvik,18.688,63.317,626
72,Oesterforse,17.018,63.142,50
72,Oeverhoernaes,18.604,63.288,50
72,Aspas,14.485,63.365,50
303,Backe,16.413,63.81,211
72,Rundvik,19.436,63.54,50
303,Gaelloe,15.232,62.916,147
303,Jaerpen,13.457,63.349,176
123,Myrviken,14.337,62.998,86
751,Sorsele,17.533,65.527,435
1081,Storuman,17.116,65.094,522
72,Stoecksjoe,20.198,63.78,50
211,Saevar,20.55,63.903,123
103,Soerfors,20.03,63.87,72
176,Tavelsjoe,20.069,64.041,86
3225,Taernaby,15.288,65.713,901
60,Ankarsvik,17.413,62.373,50
60,Billsta,18.508,63.32,50
176,Bjaesta,18.504,63.201,123
253,Bjoerna,18.599,63.551,147
103,Bollstabruk,17.695,62.981,50
103,Docksta,18.328,63.055,60
363,Fraensta,16.166,62.499,253
211,Gidea,18.972,63.483,147
147,Husum,19.159,63.335,0
522,Haernoesand,17.907,62.631,253
363,Junsele,16.862,63.697,176
435,Kramfors,17.777,62.928,253
103,Kvissleby,17.364,62.291,103
522,Liden,16.809,62.69,147
103,Lucksta,17.05,62.3,50
60,Lungvik,17.899,62.927,60
103,Langsele,17.064,63.178,103
147,Matfors,17.021,62.349,123
103,Mellansel,18.3,63.427,86
123,Mjaellom,18.435,62.986,60
86,Nedansjoe,16.824,62.379,0
123,Nordingra,18.287,62.931,72
72,Nyland,17.763,63.011,50
522,Ramsele,16.474,63.534,363
86,Skoellersta,15.337,59.139,50
211,Stora,15.1,59.701,103
147,Staelldalen,14.942,59.935,72
435,Svarta,14.518,59.128,86
103,Vintrosa,14.956,59.256,50
103,Vretstorp,14.87,59.024,103
147,Zinkgruvan,15.105,58.816,103
86,Atorp,14.364,59.118,86
86,Oelmbrotorp,15.24,59.39,50
211,Arboga,15.845,59.393,123
72,Dingtuna,16.383,59.571,60
147,Vaestra Bispgarden,16.63,63.026,147
176,Brunflo,14.829,63.078,86
103,Duved,12.924,63.393,72
72,Vi,17.416,62.424,50
363,Foellinge,14.61,63.672,363
363,Hackas,14.512,62.935,147
363,Hallen,14.091,63.176,147
363,Hammarstrand,16.346,63.109,303
522,Hammerdal,15.356,63.584,303
303,Hoting,16.205,64.114,147
147,Haeggenas,14.897,63.391,72
72,Akersberga,18.302,59.483,0
72,Gardby,16.64,56.601,72
626,Solleftea,17.281,63.166,522
435,Braecke,15.42,62.752,211
211,Kloevsjoe,14.191,62.531,147
303,Kaelarne,16.083,62.979,147
363,Lillhaerdal,14.073,61.852,211
253,Lit,14.854,63.321,123
60,Ope,14.755,63.133,50
72,Pilgrimstad,15.048,62.954,0
253,Rossoen,16.321,63.929,123
1297,Stroemsund,15.562,63.853,751
1081,Sveg,14.359,62.035,626
522,Svenstavik,14.433,62.765,303
147,Tandsbyn,14.745,63.001,86
253,Vemdalen,13.853,62.445,147
60,Ytteran,14.169,63.32,50
5572,Are,13.086,63.396,626
147,As,14.569,63.245,72
253,Asarne,14.368,62.644,123
1297,Oestersund,14.687,63.165,1297
211,Bastutraesk,20.04,64.79,123
253,Bjurholm,19.22,63.932,253
253,Botsmark,20.245,64.254,123
176,Bullmark,20.482,64.032,123
253,Burea,21.19,64.619,72
522,Burtraesk,20.644,64.513,211
211,Bygdsiljum,20.504,64.351,176
435,Byske,21.211,64.954,147
522,Dorotea,16.415,64.263,363
86,Flurkmark,20.233,63.98,50
626,Fredrika,18.403,64.074,363
86,Hissjoen,20.162,63.939,72
211,Haellnaes,19.623,64.311,103
147,Hoernefors,19.911,63.619,0
72,Innertavle,20.407,63.812,50
253,Kristineberg,18.577,65.061,123
147,Kage,20.982,64.834,72
626,Lycksele,18.666,64.594,0
522,Mala,18.742,65.185,363
147,Medle,20.729,64.74,103
72,Myckle,20.857,64.754,50
751,Norsjoe,19.489,64.913,363
123,Ostvik,21.058,64.887,60
901,Helsingborg,12.719,56.042,435
86,Hofterup,12.974,55.806,86
60,Hurva,13.434,55.795,50
176,Hoeganaes,12.569,56.199,147
103,Hoellviken,12.966,55.415,103
147,Hoerby,13.663,55.853,72
60,Skegrie,13.075,55.405,50
103,Axvall,13.575,58.386,72
123,Rengsjoe,16.614,61.363,103
86,Segersta,16.648,61.268,50
60,Soerforsa,16.974,61.717,0
60,Valbo,16.986,60.637,60
123,Alby,15.486,62.498,86
303,Bredbyn,18.102,63.451,211
176,Indal,17.099,62.58,123
103,Kovland,17.152,62.468,72
103,Goetlunda,15.666,59.354,86
123,Hallstahammar,16.229,59.616,123
86,Hoekasen,16.593,59.663,50
176,Kolsva,15.85,59.598,86
60,Kumla kyrkby,16.635,59.841,50
147,Kungsoer,16.095,59.421,86
60,Kaersta och Bredsdal,16.839,59.677,60
86,Morgongava,16.964,59.933,60
72,Munga,16.523,59.745,50
60,Munktorp,16.132,59.533,50
253,Moeklinta,16.539,60.068,123
176,Ramnaes,16.189,59.776,72
211,Ransta,16.633,59.81,103
147,Runhaellen,16.822,60.026,86
60,Salbohed,16.349,59.913,50
303,Skinnskatteberg,15.692,59.826,176
103,Skultuna,16.432,59.716,86
72,Stroemsholm,16.243,59.528,50
72,Tidoe-Lindoe,16.531,59.512,50
72,Tortuna,16.728,59.676,72
72,Irsta,16.691,59.605,60
123,Virsbo,16.052,59.873,0
103,Vaesterfaernebo,16.273,59.947,103
363,Oestervala,17.178,60.182,176
60,Alvik,14.868,60.747,50
72,Bengtsheden,15.873,60.706,50
103,Bjoerbo,14.714,60.462,0
522,Boda,15.219,61.002,103
147,Saetila,12.434,57.542,147
147,Timmele,13.427,57.861,72
123,Tranemo,13.342,57.487,123
1081,Trollhaettan,12.304,58.278,522
86,Traedet,13.536,57.985,50
123,Toellsjoe,12.639,57.794,86
60,Uddebo,13.256,57.473,50
363,Ulricehamn,13.418,57.789,253
86,Upphaerad,12.305,58.159,50
211,Viskafors,12.873,57.623,86
211,Vargarda,12.807,58.035,147
60,Vaene-Asaka,12.417,58.247,60
86,Vaestra Bodarna,12.474,57.89,50
626,Amal,12.698,59.052,435
123,Asensbruk,12.418,58.808,103
176,Aelvaengen,12.12,57.954,50
60,Grabo,12.299,57.837,50
86,Hoekerum,13.284,57.84,72
72,Nitta,13.19,57.829,50
60,Rydboholm,12.882,57.652,50
72,Oestadkulle,12.635,58.024,0
72,Oestra Froelunda,13.029,57.341,72
72,Stoecke,20.229,63.743,60
176,Tvaeralund,19.668,64.096,103
211,Seskaroe,23.741,65.736,123
363,Hakkas,21.567,66.915,0
522,Haparanda,24.122,65.834,435
435,Harads,20.958,66.082,303
1297,Jokkmokk,19.85,66.601,626
176,Jukkasjaervi,20.595,67.852,123
363,Juoksengi,23.843,66.565,176
123,Jaemtoen,22.495,65.852,72
363,Jaevre,21.49,65.154,176
751,Kalix,23.151,65.859,363
103,Kallax,22.056,65.529,72
123,Karesuando,22.459,68.439,0
176,Kloevertraesk,21.405,65.636,103
901,Korpilombolo,23.051,66.849,363
3225,Lulea,22.223,65.587,1867
626,Moskosel,19.452,65.873,303
103,Nikkala,23.917,65.804,72
60,Norrfjaerden,21.501,65.417,0
86,Persoen,22.165,65.741,86
522,Porjus,19.815,66.957,303
123,Palaeng,22.892,65.816,103
147,Roknaes,21.161,65.346,123
253,Rosvik,21.685,65.429,123
211,Sangis,23.502,65.86,103
303,Munkfors,13.552,59.839,211
72,Rada,13.595,60.007,50
253,Svanskog,12.552,59.177,123
103,Vaermlandsbro,13.022,59.182,50
303,Oestmark,12.762,60.282,147
123,Fellingsbro,15.59,59.439,123
147,Grythyttan,14.535,59.708,72
363,Hede,13.512,62.417,0
303,Krokom,14.452,63.33,147
103,Moersil,13.667,63.308,103
147,Orrviken,14.438,63.106,103
363,Stugun,15.601,63.168,253
86,Trangsviken,14.019,63.331,0
435,Ytterhogdal,14.942,62.18,253
253,Aenge,14.067,63.457,103
303,Boliden,20.38,64.866,253
253,Bygdea,20.859,64.062,123
211,Hemavan/Bierke,15.088,65.816,103
363,Joern,20.034,65.056,176
626,Nordmaling,19.503,63.569,303
522,Robertsfors,20.849,64.192,303
1556,Skelleftea,20.996,64.757,901
123,Soermjoele,20.006,63.682,72
123,Ersmark,20.319,63.887,60
303,Amsele,19.344,64.53,211
147,Antnaes,21.839,65.554,123
72,Eda glasbruk,12.264,59.921,50
60,Otterbaecken,14.045,58.953,50
211,Jaervsoe,16.165,61.717,103
103,Saevast,21.759,65.763,50
253,Oersundsbro,17.308,59.735,103
901,Funaesdalen,12.552,62.545,901
86,Undersaker,13.245,63.316,72
147,Harbo,17.208,60.107,72
147,Vegby,13.376,57.681,86
211,Unbyn,21.75,65.713,50
60,Hampetorp,15.672,59.14,0
435,Hofors,16.29,60.55,253
1867,Oerebro,15.206,59.278,626
9627,Umea,20.241,63.833,3870
72,Danholn,15.793,60.621,50
72,Norr Amsberg,15.351,60.53,50
626,Pitea,21.456,65.322,303
72,Bunkeflostrand,12.923,55.559,50
60,Avan,21.802,65.682,50
253,Rusksele,18.895,64.814,211
123,Oevre Svartla,21.178,66.01,103
60,Eksund,16.09,58.588,50
60,Lilla Stenby,17.522,59.384,60
176,Misterhult,16.547,57.464,86
103,Oestraby,13.688,55.758,60
86,Kvicksund,16.303,59.466,86
176,Krokek,16.368,58.674,86
60,Ljunga,16.304,58.579,0
86,Mantorp,15.28,58.349,72
176,Nykil,15.447,58.287,86
303,Rejmyre,15.924,58.831,123
103,Skaenninge,15.085,58.391,60
211,Vadstena,14.898,58.446,103
72,Oesterstad,15.174,58.519,50
103,Anneberg,14.804,57.723,86
147,Bor,14.171,57.111,72
72,Burseryd,13.284,57.199,72
60,Fredriksdal,14.598,57.616,60
303,Graenna,14.468,58.025,176
103,Bankekind,15.823,58.374,50
176,Tuna,16.107,57.576,60
211,Bergshamra,18.629,59.637,123
147,Surahammar,16.219,59.707,86
176,Evertsberg,13.955,61.136,86
363,Furudal,15.125,61.17,176
103,Gullerasen,15.187,61.056,50
253,Leksand,15.008,60.732,253
123,Langshyttan,16.038,60.452,123
72,Malungsfors,13.559,60.732,72
123,Naes bruk,16.471,60.187,86
253,Raettvik,15.102,60.867,147
253,Smalandsstenar,13.411,57.161,147
86,Utvaelinge,12.782,56.215,50
303,Vidsel,20.516,65.833,211
1081,Gaeddede,14.146,64.502,626
103,Skattungbyn,14.861,61.185,103
86,Sunnansjoe,14.969,60.215,72
123,Saeter,15.74,60.347,123
147,Transtrand,13.318,61.093,72
211,Venjan,13.903,60.957,0
86,Vamhus,14.47,61.117,86
103,Boele,21.312,65.383,60
522,Glommerstraesk,19.633,65.261,211
303,Hedenaeset,23.687,66.224,147
363,Junosuando,22.498,67.426,363
176,Kangos,22.658,67.503,86
8023,Kiruna,20.245,67.854,1867
1297,Kuttainen,22.814,68.381,751
363,Morjaerv,22.702,66.066,147
751,Pajala,23.36,67.215,0
60,Risoegrund,23.245,65.811,50
72,Joenaker,16.727,58.744,60
147,Sturefors,15.724,58.333,72
147,Ankarsrum,16.338,57.699,147
72,Jaemshoeg,14.53,56.244,50
60,Lunnarp,14.043,55.541,60
103,Yngsjoe,14.231,55.883,50
72,Hok,14.276,57.514,72
123,Oedakra,12.748,56.106,72
60,Rydsgard,13.587,55.473,50
72,Asby,12.314,57.233,50
176,Fagelmara,15.949,56.262,72
123,Dingle,11.577,58.529,60
303,Kinna,12.681,57.508,211
253,Naessjoe,14.702,57.643,0
103,Grimsloev,14.543,56.737,50
522,Filipstad,14.168,59.708,303
86,Persberg,14.254,59.75,50
103,Hammar,14.959,58.819,72
303,Falun,15.623,60.605,147
303,Fredriksberg,14.375,60.139,176
72,Faernaes,14.632,60.998,50
72,Gagnef,15.075,60.594,50
103,Garpenberg,16.195,60.315,103
60,Gesunda,14.542,60.886,50
103,Grycksbo,15.482,60.687,50
147,Graengesberg,15,60.081,103
72,Gubbo,15.321,60.181,50
72,Halvarsgardarna,15.384,60.407,72
303,Hedemora,15.983,60.282,147
103,Horndal,16.411,60.299,0
211,Idkerberget,15.231,60.374,72
1556,Idre,12.716,61.861,626
103,Insjoen,15.096,60.676,50
123,Lima,13.353,60.951,60
363,Limedsforsen,13.4,60.888,147
522,Ludvika,15.198,60.145,363
626,Malung,13.703,60.693,363
211,Mockfjaerd,14.95,60.504,176
1867,Mora,14.537,61,522
123,Nedre Gaerdsjoe,15.228,60.94,60
72,Nusnaes,14.646,60.961,50
211,Nyhammar,14.966,60.289,103
72,Ornaes,15.536,60.506,50
253,Orsa,14.634,61.109,123
60,Rot,14.037,61.254,50
86,Siljansnaes,14.875,60.775,72
123,Smedjebacken,15.415,60.143,103
176,Solleroen,14.617,60.913,86
123,Sundborn,15.777,60.654,72
253,Svaerdsjoe,15.906,60.742,147
86,Sagmyra,15.298,60.712,72
751,Saelen,13.262,61.162,363
363,Saerna,13.141,61.691,211
123,Soederbaerke,15.56,60.069,86
103,Soervik,15.142,60.192,50
72,Torsang,15.566,60.47,50
86,Taellberg,14.991,60.827,50
751,Borlaenge,15.43,60.476,751
147,Fors,16.313,60.209,72
86,Linghed,15.853,60.785,50
147,Nas,14.475,60.448,123
72,Vad,15.658,60.027,50
363,Vansbro,14.216,60.509,253
147,Vika,15.714,60.517,72
86,Vikarbyn,15.022,60.911,50
60,Vikmanshyttan,15.833,60.298,50
72,Vinaes,14.538,60.967,50
103,Batskaersnaes,23.418,65.783,72
60,Dvaersaett,14.474,63.302,50
147,Asenhoega,13.797,57.408,60
86,Saltvik,16.493,57.3,50
86,Segersaeng,17.93,59.027,50
60,Roeda holme,11.989,57.375,50
72,Bredsand,17.075,59.596,50
60,Fiskebaeckskil,11.458,58.243,50
72,Nygards hagar,17.269,59.218,50
60,Skreanaes,12.524,56.875,50
72,Kareby,11.931,57.906,50
147,Storvik,16.527,60.588,123
303,Koeping,15.997,59.513,253
147,Vaenersborg,12.335,58.363,86
123,Borensberg,15.285,58.563,123
72,Herstadberg,16.178,58.626,50
211,Muskoe,18.133,59.001,103
626,Norrtaelje,18.697,59.762,303
86,Anneberg,12.107,57.538,50
72,Froesakull,12.736,56.673,0
86,Kungsaeter,12.573,57.31,60
60,Troenninge,12.289,57.142,50
147,Unnaryd,13.528,56.956,0
176,Vessigebro,12.653,56.978,86
60,Vaeroebacka,12.182,57.252,50
211,Aelvsered,12.868,57.242,123
176,Oeverum,16.307,57.99,86
303,Klintehamn,18.202,57.387,147
253,Romakloster,18.45,57.509,123
86,Vibble,18.25,57.604,50
72,Haellaryd,14.949,56.207,50
103,Jaemjoe,15.841,56.192,0
123,Kyrkhult,14.592,56.355,72
72,Moerrum,14.756,56.193,60
211,Olofstroem,14.526,56.281,211
103,Balsby,14.211,56.076,50
123,Broby,14.073,56.257,60
211,Degeberga,14.085,55.826,103
72,Hanaskog,14.093,56.158,50
72,Haestveda,13.933,56.287,0
147,Killeberg,14.094,56.475,72
751,Kristianstad,14.168,56.026,522
253,Loensboda,14.318,56.396,123
103,Naesum,14.504,56.175,72
103,Roeke,13.507,56.239,72
435,Simrishamn,14.343,55.552,303
211,Tollarp,13.98,55.936,103
103,Tyringe,13.606,56.159,103
86,Vik,14.283,55.615,60
103,Vittsjoe,13.66,56.341,50
176,Ahus,14.299,55.932,86
211,Oerkelljunga,13.281,56.284,147
72,Billinge,13.33,55.963,50
253,Esloev,13.297,55.839,123
363,Ystad,13.816,55.435,363
147,Onsala,12.03,57.424,72
303,Virserum,15.582,57.32,176
103,Hult,15.133,57.642,86
103,Kaxholmen,14.31,57.854,72
103,Landsbro,14.908,57.37,86
60,Odensjoe,14.171,57.712,50
147,Roervik,14.575,57.239,72
60,Sundhultsbrunn,14.913,57.93,0
103,Vrigstad,14.473,57.351,103
211,Alstermo,15.638,56.973,147
123,Eneryda,14.337,56.704,60
253,Hovmantorp,15.153,56.784,211
176,Lagan,13.995,56.913,86
211,Lidhult,13.441,56.828,123
60,Noebbele,15.028,56.687,60
123,Skruv,15.366,56.677,72
103,Viken,12.579,56.15,50
901,Karlstad,13.539,59.403,901
303,Ekshaerad,13.491,60.174,147
60,Oedeborg,11.975,58.542,50
1081,Arvidsjaur,19.18,65.592,751
123,Svartbyn,22.834,66.265,60
626,Oevre Soppero,21.697,68.09,363
211,Ullanger,18.185,63.01,176
211,Oestavall,15.475,62.429,72
103,Finsta,18.495,59.737,72
123,Oennekoep,13.87,55.786,60
60,Skedvi kyrkby,15.805,60.405,60
147,Yttersjoe,20.003,63.775,103
72,Johannesudd,18.032,59.553,50
363,Kungsbacka,12.08,57.494,176
363,Taeby,18.075,59.448,123
123,Stockholm,17.987,59.341,60
123,Haninge,18.186,59.209,60
86,Norra Botkyrka,17.842,59.245,0
86,Gottsunda,17.629,59.809,50
60,Karlskrona,15.585,56.171,50
123,Lövgärdet,12.032,57.815,60
72,Huskvarna,14.278,57.784,60
1297,Gällivare,20.658,67.153,626
253,Finspång,15.778,58.705,211
72,Boo-Orminge,18.264,59.323,60
211,Timrå,17.356,62.504,103
86,Fisksätra-Lännersta,18.277,59.29,50
72,Kallhäll-Slammertorp,17.803,59.455,60
72,Nödinge-Nol,12.068,57.904,50
60,Tullinge,17.902,59.212,50
211,Höör,13.546,55.929,147
211,Knivsta,17.786,59.737,86
60,Porsön (Luleå),22.159,65.62,50
72,Floda,12.363,57.809,50
176,Ljungsbro-Vreta kloster,15.513,58.501,86
103,Vikaholm,14.809,56.847,50
253,Holmsund-Nyvik,20.347,63.708,123
123,Vellinge,13.02,55.478,60
522,Ljusdal,16.096,61.829,435
176,Järna,17.565,59.097,86
363,Laholm,13.048,56.508,176
147,Åby,16.172,58.664,72
147,Tuve,11.921,57.756,60
103,Skellefteå,21.199,64.696,103
211,Slottsbron,13.102,59.343,176
147,Gnesta,17.309,59.046,123
103,Rydebäck,12.769,55.965,72
103,Färjestaden,16.483,56.644,86
72,Sandared,12.807,57.713,72
