rs,name,lon,lat,r1
123,Kobilje,16.394,46.685,50
86,Puconci,16.159,46.705,50
86,Cankova,16.02,46.718,50
86,Fokovci,16.268,46.734,72
60,Osojnik,15.213,45.68,50
123,Ursna sela,15.126,45.718,60
176,Ribnica,14.727,45.739,103
86,Dutovlje,13.833,45.756,50
60,Hrusevje,14.111,45.762,50
72,Zimarice,14.599,45.777,60
103,Ambrus,14.816,45.827,72
72,Stanjel,13.844,45.823,50
176,Zuzemberk,14.929,45.831,86
103,Resnik,15.353,46.43,50
147,Gabrovka,14.988,46.001,50
86,Opatje selo,13.583,45.851,50
123,Mislinja,15.199,46.443,86
123,Spodnje Hoce,15.649,46.5,60
72,Kocice,15.795,46.307,50
72,Poljcane,15.578,46.313,72
123,Slovenske Konjice,15.425,46.339,103
72,Majsperk,15.734,46.35,50
60,Bukovje pri Slivnici,15.448,46.167,50
72,Olesce,15.308,46.162,50
147,Podcetrtek,15.597,46.157,72
103,Lasko,15.236,46.154,86
123,Breginj,13.426,46.262,50
123,Preddvor,14.422,46.303,60
60,Nova Stifta,14.745,46.27,50
86,Gornji Grad,14.806,46.296,0
60,Trnovska vas,15.887,46.52,50
86,Drnovo,15.484,45.918,50
60,Gradisce nad Pijavo Gorico,14.589,45.921,50
60,Zrece,15.391,46.37,50
176,Sentilj v Slov. goricah,15.653,46.679,123
60,Trate,15.787,46.703,50
72,Podbrezje,14.276,46.304,60
60,Podvolovljek,14.7,46.315,50
72,Zaga,13.482,46.304,50
123,Mozirje,14.96,46.339,103
86,Trzic,14.31,46.364,86
86,Gorisnica,16.013,46.408,0
60,Vicanci,16.077,46.441,50
86,Apace,15.909,46.698,60
60,Zabice,14.344,45.515,50
103,Race,15.681,46.452,50
123,Destrnik,15.876,46.493,72
86,Grcarevec,14.213,45.873,50
103,Zalec,15.165,46.252,72
211,Vinica,15.255,45.46,103
103,Jelsane,14.271,45.501,72
103,Dragatus,15.178,45.521,50
103,Podgrad,14.146,45.522,60
147,Podgorje,13.945,45.534,72
103,Zgornje Jezersko,14.499,46.393,103
147,Lendava,16.451,46.565,0
72,Mostje,16.428,46.602,50
60,Turnisce,16.32,46.622,50
60,Sv. Ana v Slov. goricah,15.845,46.647,50
60,Dobrovnik,16.35,46.651,50
123,Zetale,15.794,46.275,72
103,Vojnik,15.302,46.292,60
72,Stopice,15.21,45.77,50
72,Straza,15.074,45.784,60
72,Javorje,14.103,45.556,50
86,Griblje,15.293,45.571,50
72,Presnica,13.939,45.571,50
103,Ankaran,13.736,45.579,50
211,Hrpelje,13.943,45.607,103
72,Gradac,15.245,45.614,50
86,Solcava,14.692,46.42,60
103,Bele Vode,14.967,46.407,72
60,Trenta,13.752,46.381,60
72,Podljubelj,14.288,46.398,50
147,Log pod Mangartom,13.603,46.407,60
72,Mojstrana,13.939,46.461,0
72,Koprivna,14.759,46.457,50
72,Kranjska Gora,13.79,46.486,0
60,Ratece,13.716,46.498,50
147,Mezica,14.852,46.522,72
86,Ribnica na Pohorju,15.268,46.535,72
72,Lokovica,14.86,46.554,50
72,Bodonci,16.112,46.744,50
60,Pertoca,16.038,46.771,50
303,Rogasovci,16.035,46.805,86
123,Gornji Petrovci,16.219,46.804,103
60,Otovci,16.15,46.808,50
72,Kuzma,16.082,46.834,50
103,Nova vas,14.506,45.773,60
72,Ponikve,13.863,45.788,50
86,Jesenice,15.691,45.86,72
72,Raka,15.382,45.929,60
103,Slogonsko,15.699,45.947,72
86,Artice,15.585,45.952,50
60,Mirna,15.06,45.95,50
86,Grcarice,14.755,45.651,72
176,Metlika,15.316,45.651,86
60,Jesenovo,14.97,46.182,50
176,Dravograd,15.018,46.59,50
86,Goriski Vrh,15.018,46.628,50
103,Cerknica,14.362,45.796,103
103,Studeno,14.179,45.825,50
86,Sveti Tomaz,16.08,46.483,72
86,Mirna Pec,15.082,45.86,60
103,Podkraj,14.059,45.866,60
72,Zabukovica,15.159,46.212,50
123,Sentjur,15.395,46.216,86
60,Dobovec pri Rogatcu,15.759,46.209,0
147,Piran,13.568,45.528,103
103,Ivancna Gorica,14.805,45.938,103
72,Catez,14.96,45.97,50
123,Predmeja,13.88,45.946,60
86,Borovnica,14.364,45.918,50
103,Mokronog,15.147,45.944,103
60,Skofljica,14.571,45.986,60
60,Brezovica pri Ljubljani,14.417,46.024,60
72,Dobrova,14.417,46.053,50
86,Lase,15.565,46.23,60
86,Zgornji Tuhinj,14.77,46.227,50
253,Vransko,14.953,46.245,103
103,Dobrovo,13.527,45.997,86
60,Podlipa,14.223,46.006,50
86,Grgar,13.671,46.001,50
123,Horjul,14.301,46.021,60
72,Zgornja Besnica,14.685,46.034,50
72,Crni Vrh,14.259,46.088,72
60,Sentrupert,15.091,45.977,50
60,Ig,14.527,45.959,50
103,Sentjanz,15.169,46.011,50
147,Sevnica,15.305,46.007,147
60,Breg,15.243,46.045,50
72,Dol pri Ljubljani,14.642,46.089,50
60,Stanezice,14.437,46.111,60
147,Komen,13.745,45.817,103
103,Crna na Koroskem,14.85,46.47,50
86,Branik,13.787,45.86,50
147,Miren,13.607,45.893,72
60,Vinje,14.67,46.115,50
60,Moravce,14.745,46.136,50
60,Gorenji Novaki,14.059,46.15,50
86,Lukovica pri Domzalah,14.693,46.17,60
103,Gabrsko,15.049,46.174,50
103,Kale,15.129,46.304,50
60,Jursinci,15.971,46.485,0
253,Ljutomer,16.196,46.518,123
60,Kljucarovci pri Ljutomeru,16.138,46.55,50
72,Sedlasek,15.878,46.304,60
253,Ormoz,16.149,46.407,211
86,Kidricevo,15.8,46.388,50
72,Salovci,16.224,46.422,50
86,Crni Vrh,14.043,45.926,72
60,Voglarji,13.736,45.985,50
72,Lokve,13.792,46.012,50
103,Ziri,14.11,46.047,60
86,Vojsko,13.903,46.024,86
72,Deskle,13.614,46.053,50
60,Lucine,14.196,46.062,50
60,Idrijske Krnice,13.977,46.052,50
123,Podkum,15.034,46.07,60
72,Makole,15.669,46.318,50
60,Rove,15.336,46.32,50
86,Selisci,16.068,46.572,50
60,Crensovci,16.289,46.575,50
60,Verzej,16.162,46.582,50
103,Beltinci,16.237,46.608,50
86,Prepolje,15.765,46.445,60
72,Preloka,15.34,45.47,60
86,Parecag,13.625,45.482,50
60,Babici,13.779,45.503,50
147,Gorenja vas,14.141,46.103,103
72,Sava,14.893,46.089,50
211,Kanal,13.634,46.085,86
147,Cepovan,13.792,46.048,86
60,Straza,13.948,46.102,50
72,Levpa,13.704,46.091,50
147,Cerkno,13.99,46.129,86
86,Ponikve,13.819,46.138,60
60,Javorje,14.178,46.159,50
86,Kambresko,13.649,46.128,50
435,Tolmin,13.732,46.183,211
86,Bizeljsko,15.693,46.015,50
103,Bistrica ob Sotli,15.663,46.057,72
123,Radece,15.182,46.066,86
86,Dobrna,15.226,46.336,50
60,Radenci,16.04,46.643,50
86,Gornja Radgona,15.991,46.677,0
176,Pregara,13.867,45.444,72
72,Brise,14.894,46.153,50
72,Vrbovec,14.997,45.863,50
60,Lipa,13.708,45.847,50
60,Davca,14.035,46.18,50
86,Martinj Vrh,14.144,46.187,50
211,Podbrdo,13.973,46.214,60
103,Zelezniki,14.167,46.225,103
123,Kobarid,13.58,46.246,103
72,Kred,13.512,46.251,50
60,Luze,14.431,46.268,50
103,Vitanje,15.296,46.381,72
176,Skocjan,15.291,45.907,60
60,Muljava,14.799,45.902,50
103,Trebnje,15.006,45.908,0
123,Senovo,15.477,46.02,60
123,Lenart v Slov. goricah,15.83,46.576,123
72,Sober,15.577,46.602,50
60,Pesnica pri Mariboru,15.676,46.608,50
86,Spodnja Kapla,15.389,46.632,86
86,Dvorje,14.488,46.261,50
86,Bohinjska Bistrica,13.953,46.272,0
60,Drazgose,14.177,46.252,50
86,Zupanje Njive,14.598,46.269,50
253,Luce,14.745,46.355,60
60,Kokra,14.498,46.306,50
103,Soca,13.667,46.342,86
303,Bovec,13.552,46.338,86
60,Kot na Pohorju,15.462,46.423,60
86,Frajhajm,15.529,46.49,50
86,Ruse,15.495,46.536,0
123,Radlje ob Dravi,15.216,46.615,123
72,Lokavec,15.242,46.099,50
60,Planina pri Sevnici,15.405,46.104,50
72,Trnovec,14.354,46.101,50
123,Cepinci,16.21,46.86,60
60,Draga,14.654,45.633,0
176,Babno Polje,14.549,45.646,72
60,Kozarisce,14.474,45.687,50
103,Stari trg pri Lozu,14.471,45.714,86
211,Sezana,13.873,45.709,176
86,Prestranek,14.186,45.731,50
123,Senozece,14.039,45.721,50
103,Ter,14.844,46.361,72
522,Celje,15.264,46.231,363
253,Velenje,15.106,46.353,123
1081,Koper,13.722,45.531,522
363,Jesenice,14.052,46.432,211
522,Nova Gorica,13.646,45.958,435
435,Murska Sobota,16.164,46.658,253
86,Kamnik,14.604,46.215,72
176,Skofja Loka,14.316,46.167,86
176,Domzale,14.592,46.14,86
363,Kocevje,14.862,45.641,211
363,Postojna,14.21,45.774,211
103,Logatec,14.217,45.916,50
253,Slovenj Gradec,15.084,46.508,147
60,Ravne na Koroskem,14.961,46.542,0
211,Vrhnika,14.292,45.962,147
253,Slovenska Bistrica,15.568,46.39,176
253,Zagorje ob Savi,14.994,46.129,123
103,Brezice,15.599,45.906,72
176,Litija,14.823,46.059,103
176,Grosuplje,14.656,45.957,103
147,Ajdovscina,13.906,45.888,0
176,Radovljica,14.174,46.344,86
123,Idrija,14.023,46.002,123
253,Crnomelj,15.186,45.573,253
363,Rogaska Slatina,15.642,46.225,147
100000,Ljubljana,14.512,46.056,0
363,Kranj,14.358,46.243,176
435,Novo mesto,15.165,45.806,435
363,Krsko,15.497,45.958,211
72,Sv. Jernej nad Muto,15.145,46.654,50
123,Kozje,15.556,46.072,86
60,Hrastje,15.474,46.131,60
176,Ilirska Bistrica,14.241,45.572,0
72,Prem,14.183,45.605,50
123,Semic,15.181,45.652,86
103,Bac,14.257,45.634,50
123,Pivka,14.196,45.682,86
72,Jursce,14.295,45.664,50
86,Divaca,13.969,45.681,72
72,Crneca vas,15.459,45.828,0
103,Sentjernej,15.339,45.84,0
103,Velike Lasce,14.636,45.834,86
60,Rasica,14.511,46.135,50
1081,Maribor,15.647,46.562,751
86,Ptuj,15.874,46.425,0
147,Osilnica,14.698,45.53,123
253,Kostel,14.908,45.509,123
72,Bled,14.114,46.382,50
60,Prebold,15.092,46.258,50
86,Črnuče,14.531,46.102,50
