rs,name,lon,lat,r1
1081,Stroemstad,11.177,58.943,435
901,Funaesdalen,12.552,62.545,626
60,Grebbestad,11.254,58.695,50
176,Skaerhamn,11.557,57.992,123
123,Marstrand,11.593,57.891,50
103,Hogstorp,11.762,58.397,60
72,Varekil,11.709,58.124,50
123,Koppom,12.157,59.708,86
123,Stora Hoega,11.82,58.016,50
60,Joerlanda,11.829,57.99,50
147,Kode,11.85,57.941,60
176,Donsoe,11.801,57.602,60
211,Baeckefors,12.157,58.804,103
86,Undersaker,13.245,63.316,60
60,Saeve,11.913,57.802,50
86,Hamburgsund,11.278,58.557,50
253,Fjaellbacka,11.29,58.598,72
435,Tanumshede,11.326,58.724,176
176,Kungshamn,11.261,58.362,86
147,Hunnebostrand,11.304,58.438,60
86,Bovallstrand,11.33,58.476,50
72,Rabbalshede,11.473,58.613,50
72,Grundsund,11.427,58.212,50
522,Lysekil,11.446,58.28,176
103,Brastad,11.479,58.387,86
103,Haellevadsholm,11.538,58.578,50
60,Fiskebaeckskil,11.458,58.243,50
103,Haelleviksstrand,11.446,58.123,50
123,Elloes,11.473,58.179,86
123,Dingle,11.577,58.529,50
253,Toecksfors,11.848,59.509,123
176,Molloesund,11.477,58.073,60
211,Munkedal,11.685,58.466,103
103,Roennaeng,11.582,57.94,50
147,Henan,11.671,58.235,103
147,Hedekas,11.793,58.643,86
103,Duved,12.924,63.393,60
60,Lanesund och Oeverby,11.724,58.339,50
72,Kallekaerr,11.664,58.029,50
363,Ed,11.94,58.911,123
176,Hoenoe,11.647,57.69,123
60,Ammenaes,11.821,58.312,50
1556,Idre,12.716,61.861,522
72,Eda glasbruk,12.264,59.921,50
626,Arjaeng,12.133,59.385,253
72,Tjuvkil,11.741,57.896,50
147,Svanesund,11.821,58.141,50
1297,Are,13.086,63.396,522
60,Starrkaerr och Naes,11.835,58.11,50
303,Charlottenberg,12.312,59.885,176
60,Hjuvik,11.734,57.71,50
303,Stenungsund,11.838,58.075,176
60,Oedeborg,11.975,58.542,50
103,Kaerna,11.792,57.845,50
211,Faergelanda,11.993,58.569,123
211,Uddevalla,11.936,58.356,147
176,Ljungskile,11.925,58.223,86
147,Hoegsaeter,12.054,58.649,60
103,Asperoe,11.797,57.648,50
211,Amotfors,12.369,59.769,86
60,Svenshoegen,11.94,58.142,50
176,Nolvik,11.839,57.774,50
60,Vrangoe,11.785,57.572,50
123,Fagerhult,12.023,58.418,50
211,Bengtsfors,12.218,59.028,211
123,Sulvik,12.407,59.681,72
103,Billingsfors,12.244,58.981,50
303,Kungaelv,11.969,57.87,147
60,Duvesjoen,12.021,57.953,50
211,Dals Langed,12.298,58.926,86
72,Hjaertum,12.106,58.18,50
147,Sjuntorp,12.225,58.199,60
86,Fengersfors,12.464,58.994,72
60,Jonslund,12.834,58.16,50
86,Billdal,11.941,57.558,60
303,Jaerpen,13.457,63.349,147
60,Nygard,12.216,58.057,50
60,Moelnlycke,12.113,57.657,50
363,Saerna,13.141,61.691,176
363,Kungsbacka,12.08,57.494,147
176,Vaenersborg,12.335,58.363,72
60,Jonsered,12.175,57.747,50
103,Gunnarskog,12.562,59.816,72
3870,Goeteborg,11.999,57.685,2688
103,Sjoevik,12.366,57.914,50
103,Noedinge-Nol,12.073,57.921,50
123,Lilla Edet,12.133,58.132,123
303,Veddige,12.329,57.267,123
86,Vallda,11.963,57.479,50
176,Saeffle,12.924,59.133,86
176,Horred,12.471,57.355,72
176,Bollebygd,12.565,57.674,103
86,Berghem,12.592,57.468,50
253,Vemdalen,13.853,62.445,123
211,Vargarda,12.807,58.035,123
60,Hedared,12.754,57.807,50
86,Valberg,13.185,59.391,50
72,Torestorp,12.677,57.386,72
147,Fraendefors,12.278,58.498,50
303,Ekshaerad,13.491,60.174,103
72,Oexabaeck,12.804,57.395,50
103,Naelden,14.25,63.347,72
211,Viskafors,12.873,57.623,86
626,Malung,13.703,60.693,303
103,Loedoese,12.16,58.031,50
303,Oeverlida,12.898,57.353,123
211,Kloevsjoe,14.191,62.531,123
626,Arvika,12.603,59.665,363
60,Kallered,12.051,57.607,50
363,Sysslebaeck,12.868,60.732,253
303,Oestmark,12.762,60.282,123
72,Roeda holme,11.989,57.375,50
147,Onsala,12.03,57.424,60
147,Bralanda,12.349,58.563,103
123,Asensbruk,12.418,58.808,86
176,Lindome,12.081,57.578,60
72,Olofstorp,12.146,57.795,60
147,Skepplanda,12.211,57.983,60
1297,Trollhaettan,12.304,58.278,435
253,Svanskog,12.552,59.177,103
60,Velanda,12.31,58.228,50
86,Upphaerad,12.305,58.159,50
363,Mellerud,12.461,58.698,253
60,Haellesaker,12.184,57.599,50
123,Landvetter,12.215,57.688,50
86,Klaeppa,12.143,57.362,50
72,Fjaeras kyrkby,12.173,57.458,50
253,Klaessbol,12.743,59.539,72
211,Bua,12.12,57.238,72
176,Lerum,12.276,57.776,123
60,Vaene-Asaka,12.417,58.247,50
60,Oexeryd,12.28,57.739,50
103,Frillesas,12.173,57.319,72
147,Toesse,12.644,58.971,72
147,Edane,12.824,59.629,86
103,Moersil,13.667,63.308,86
60,Vaeroebacka,12.182,57.252,50
147,Uddheden,12.909,59.947,86
72,Floda,12.359,57.808,50
626,Amal,12.698,59.052,363
363,Hede,13.512,62.417,303
303,Torsby,13,60.13,253
72,Rya,12.369,57.7,50
751,Saelen,13.262,61.162,303
123,Tangaberg,12.228,57.173,50
86,Graefsnaes,12.489,58.08,50
72,Stora Bugaerde,12.386,57.651,50
176,Ingared,12.456,57.851,50
147,Sollebrunn,12.532,58.119,86
901,Varberg,12.27,57.112,363
176,Ambjoerby,13.171,60.495,72
86,Hindas,12.445,57.703,50
147,Transtrand,13.318,61.093,50
72,Asby,12.314,57.233,50
60,Haellingsjoe,12.439,57.619,50
435,Alingsas,12.538,57.93,176
147,Saetila,12.434,57.542,103
72,Hjaelmared,12.55,57.893,50
147,Graestorp,12.68,58.331,123
123,Lima,13.353,60.951,50
86,Fraemmestad,12.667,58.235,50
211,Lysvik,13.136,60.017,86
176,Tun,12.736,58.43,86
72,Himle,12.365,57.073,50
72,Oestadkulle,12.635,58.024,60
86,Rottneros,13.11,59.795,50
147,Hoegboda,13.054,59.559,72
1297,Gaeddede,14.146,64.502,522
626,Stoellet,13.273,60.409,176
363,Sunne,13.143,59.834,211
363,Limedsforsen,13.4,60.888,123
60,Hyssna,12.538,57.554,50
147,Tvaaker,12.395,57.04,60
86,Glommen,12.365,56.932,60
147,Nossebro,12.725,58.19,103
86,Bjoerketorp,12.526,57.426,60
211,Vaestra Aemtervik,13.143,59.726,60
123,Toellsjoe,12.639,57.794,60
72,Rolfstorp,12.457,57.146,50
123,Skaellinge,12.47,57.181,72
176,Segmon,13.042,59.271,60
103,Vaermlandsbro,13.022,59.182,50
72,Langas,12.449,56.977,50
86,Trangsviken,14.019,63.331,86
303,Grums,13.106,59.348,123
86,Kungsaeter,12.573,57.31,50
253,Aenge,14.067,63.457,86
435,Falkenberg,12.496,56.903,176
72,Rydal,12.693,57.556,50
303,Kinna,12.681,57.508,176
60,Fageras,13.225,59.519,50
147,Edsvalla,13.213,59.439,50
103,Stora Levene,12.926,58.328,50
72,Vinberg,12.544,56.95,50
363,Hallen,14.091,63.176,123
72,Malungsfors,13.559,60.732,60
86,Sandared,12.782,57.712,72
72,Oersloesa,13.004,58.511,60
103,Jaerpas,12.975,58.38,86
86,Sandhult,12.821,57.772,50
253,Vara,12.958,58.262,176
60,Ytteran,14.169,63.32,50
103,Fritsla,12.784,57.559,50
211,Kil,13.317,59.505,103
176,Vessigebro,12.653,56.978,72
147,Vedum,12.995,58.171,72
72,Bredared,12.901,57.805,50
253,Ullared,12.716,57.133,147
60,Rydboholm,12.882,57.652,50
103,Steninge,12.631,56.773,50
86,Arstad,12.677,56.917,50
60,Kinnarumma,12.876,57.596,50
176,Moelle,12.497,56.284,72
176,Asen,13.816,61.277,86
123,Herrljunga,13.031,58.079,103
363,Lidkoeping,13.147,58.495,303
522,Boras,12.94,57.728,435
103,Travad,13.085,58.253,50
86,Sloeinge,12.693,56.856,50
60,Jung,13.113,58.327,50
211,Borgstena,13.013,57.885,72
103,Saleby,13.148,58.377,50
86,Skare,13.433,59.44,50
211,Deje,13.481,59.603,50
147,Ljung,13.059,57.988,72
147,Getinge,12.733,56.816,103
86,Mjoenaes,13.56,59.878,50
86,Mjoebaeck,12.877,57.311,50
303,Munkfors,13.552,59.839,147
147,Forshaga,13.484,59.536,72
211,Aelvsered,12.868,57.242,86
147,Torekov,12.63,56.426,86
60,Arild,12.586,56.271,50
176,Hoeganaes,12.569,56.199,123
60,Brunnsberg,13.919,61.285,50
103,Limmared,13.36,57.535,50
123,Holsljunga,12.974,57.412,50
86,Kungshult,13.411,55.852,50
123,Vallargaerdet,13.577,59.475,50
176,Kvaenum,13.185,58.298,103
72,Aespered,13.179,57.756,50
103,Viken,12.579,56.15,50
86,Froesakull,12.736,56.673,72
147,Goetene,13.463,58.523,123
363,Lillhaerdal,14.073,61.852,147
72,Stroevelstorp,12.839,56.175,50
363,Laholm,13.032,56.504,147
1297,Oestersund,14.687,63.165,1081
176,Vaese,13.849,59.381,72
72,Broaryd,13.253,57.123,50
522,Falkoeping,13.553,58.174,176
123,Myrviken,14.337,62.998,72
86,Vinninga,13.262,58.453,50
253,Nordmark,14.1,59.832,72
103,Oelme,14.008,59.363,50
303,Lesjoefors,14.176,59.98,147
211,Venjan,13.903,60.957,176
103,Kaettilstorp,13.71,58.041,50
123,Vellinge,13.022,55.471,50
123,Hishult,13.313,56.427,72
211,Lidhult,13.441,56.828,103
1297,Hagfors,13.692,60.033,253
176,Evertsberg,13.955,61.136,72
72,Kaellby,13.303,58.509,72
147,Skoghall,13.521,59.335,60
2688,Karlstad,13.539,59.403,751
72,Stangby,13.194,55.75,50
60,Lyrestad,14.058,58.804,50
253,Tidan,14.013,58.571,72
72,Oestra Grevie,13.135,55.468,50
176,Nykroppa,14.303,59.621,72
176,Solleroen,14.617,60.913,72
147,Staffanstorp,13.207,55.643,60
72,Kvibille,12.835,56.783,50
60,Jonstorp,12.671,56.227,50
123,Dalsjoefors,13.107,57.722,72
72,Rangedala,13.128,57.794,60
303,Krokom,14.452,63.33,123
72,Geijersholm,13.727,60.066,50
303,Gaelloe,15.232,62.916,123
86,Atorp,14.364,59.118,60
123,Bjoerbo,14.714,60.462,86
60,Ormanaes och Stanstorp,13.493,55.911,50
86,Angelstad,13.763,56.826,60
147,Aetran,12.948,57.124,103
176,Fagerhult,14.126,58.001,72
103,Vittsjoe,13.66,56.341,50
103,Hittarp,12.655,56.092,50
72,Aspas,14.485,63.365,50
72,Oestra Froelunda,13.029,57.341,60
60,Dvaersaett,14.474,63.302,50
60,Rot,14.037,61.254,50
147,Orrviken,14.438,63.106,86
86,Holm,12.861,56.734,50
435,Aelvdalen,14.045,61.225,211
72,Sexdrega,13.118,57.579,50
72,Ardala,13.333,58.361,50
86,Sunnemo,13.729,59.884,72
72,Nitta,13.19,57.829,50
86,Grevie,12.781,56.39,50
253,Asarne,14.368,62.644,103
435,Svenljunga,13.108,57.496,103
60,Hillared,13.156,57.631,50
211,Haellekis,13.438,58.629,86
1081,Halmstad,12.899,56.675,522
363,Foellinge,14.61,63.672,253
901,Helsingborg,12.719,56.042,363
435,Svenstavik,14.433,62.765,303
86,Foersloev,12.817,56.351,60
72,Skattkaerr,13.671,59.413,50
147,Floby,13.339,58.134,86
176,Bastad,12.857,56.428,72
253,Molkom,13.729,59.604,103
123,Aled,12.954,56.743,50
72,Dannike,13.227,57.684,50
253,Oskarstroem,12.976,56.797,103
72,Kattarp,12.784,56.141,50
103,Lundsbrunn,13.447,58.473,50
147,As,14.569,63.245,60
86,Hoekerum,13.284,57.84,60
363,Hackas,14.512,62.935,147
211,Skara,13.442,58.384,123
103,Troenninge,12.948,56.62,50
147,Rydebaeck,12.768,55.97,60
211,Laenghem,13.244,57.601,50
211,Hemavan/Bierke,15.088,65.816,72
1081,Sveg,14.359,62.035,435
123,Torup,13.074,56.954,72
86,Kinnared,13.102,57.026,60
435,Aengelholm,12.877,56.253,176
103,Aeppelbo,14.02,60.484,72
60,Oestra Karup,12.948,56.421,50
60,Odensberg,13.44,58.154,50
72,Hjaernarp,12.918,56.317,50
60,Uddebo,13.256,57.473,50
363,Landskrona,12.84,55.875,123
147,Ambjoernarp,13.294,57.421,50
72,Vallberga,13.024,56.467,50
176,Vegby,13.376,57.681,72
86,Bjuv,12.915,56.081,50
147,Timmele,13.427,57.861,60
103,Axvall,13.575,58.386,60
363,Ulricehamn,13.418,57.789,211
103,Veinge,13.068,56.554,50
211,Astorp,12.949,56.135,103
123,Tranemo,13.342,57.487,103
123,Simlangsdalen,13.129,56.721,72
86,Dalum,13.465,57.901,50
103,Marbaeck,13.421,57.741,50
211,Kinnarp,13.524,58.074,86
72,Burseryd,13.284,57.199,60
103,Marieby,14.726,63.116,50
60,Blidsberg,13.493,57.927,50
363,Hyltebruk,13.241,57.005,123
123,Lugnas,13.698,58.649,50
147,Landeryd,13.27,57.079,60
147,Eggby,13.645,58.433,50
86,Traedet,13.536,57.985,50
72,Torbjoerntorp,13.601,58.211,50
60,Ysby,13.117,56.492,50
123,Ekeby,12.975,55.999,60
147,Tandsbyn,14.745,63.001,86
103,Tagarp,12.955,55.925,50
103,Asarp,13.565,58.025,50
176,Vaxtorp,13.118,56.416,72
363,Vansbro,14.216,60.509,211
103,Oestra Ljungby,13.064,56.189,50
60,Kvidinge,13.052,56.134,50
86,Lerdala,13.715,58.477,50
3225,Taernaby,15.288,65.713,626
253,Lit,14.854,63.321,103
60,Vartofta,13.628,58.096,50
86,Hofterup,12.974,55.806,50
86,Timmersdala,13.756,58.527,50
72,Skeppshult,13.376,57.125,50
147,Haeggenas,14.897,63.391,60
147,Dalstorp,13.521,57.604,72
72,Bunkeflostrand,12.923,55.559,50
901,Mariestad,13.821,58.704,253
176,Stenstorp,13.717,58.273,60
253,Smalandsstenar,13.411,57.161,123
72,Loeddekoepinge,13.01,55.761,50
86,Kageroed,13.087,56,50
72,Ullervad,13.851,58.669,50
147,Klippan,13.144,56.136,86
103,Vamhus,14.47,61.117,60
86,Bjaerred,13.03,55.717,50
72,Eket,13.19,56.249,50
72,Grimsas,13.551,57.483,50
72,Ljungsarp,13.582,57.566,50
103,Teckomatorp,13.09,55.868,50
103,Svaloev,13.104,55.913,86
8023,Malmoe,13.009,55.597,1556
86,Bonaes,14.489,61.073,50
103,Hoellviken,12.966,55.415,86
522,Filipstad,14.168,59.708,253
176,Stoepen,13.865,58.48,72
123,Skultorp,13.833,58.342,50
176,Knaered,13.323,56.519,123
626,Skoevde,13.85,58.399,522
253,Hestra,13.593,57.447,72
103,Lomma,13.076,55.676,60
103,Kaevlinge,13.113,55.795,60
123,Sjoetorp,13.98,58.837,103
303,Gislaved,13.565,57.302,211
176,Kristinehamn,14.11,59.313,176
211,Oerkelljunga,13.281,56.284,123
123,Sandhem,13.771,57.987,50
1867,Mora,14.537,61,435
123,Ljungbyhed,13.235,56.075,50
72,Ekedalen,13.842,58.2,50
72,Vinaes,14.538,60.967,50
60,Otterbaecken,14.045,58.953,50
72,Nissafors,13.631,57.41,50
86,Persberg,14.254,59.75,50
103,Oxie,13.099,55.54,50
60,Gesunda,14.542,60.886,50
147,Unnaryd,13.528,56.956,123
303,Fredriksberg,14.375,60.139,123
72,Vaering,13.964,58.509,50
60,Skegrie,13.075,55.405,50
72,Reftele,13.599,57.174,60
60,Asljunga,13.362,56.31,50
72,Bergstroemshusen,13.172,55.678,50
253,Gullspang,14.102,58.982,103
147,Nas,14.475,60.448,103
253,Orsa,14.634,61.109,86
147,Lund,13.203,55.713,103
147,Roestanga,13.291,56,60
72,Igelstorp,13.975,58.399,50
72,Pilgrimstad,15.048,62.954,72
176,Storfors,14.275,59.535,147
72,Moholm,14.041,58.608,50
147,Baeckhammar,14.186,59.158,72
86,Madaengsholm,13.924,58.141,50
147,Bottnaryd,13.826,57.771,123
147,Mullsjoe,13.88,57.922,86
86,Nusnaes,14.646,60.961,50
72,Billinge,13.33,55.963,50
211,Tidaholm,13.962,58.18,176
435,Trelleborg,13.154,55.377,176
253,Esloev,13.297,55.839,103
86,Bjoerneborg,14.248,59.241,60
123,Gnosjoe,13.743,57.354,72
435,Ytterhogdal,14.942,62.18,211
72,Skanes-Fagerhult,13.469,56.373,72
211,Perstorp,13.399,56.136,123
147,Toereboda,14.132,58.707,123
103,Klagerup,13.251,55.596,50
176,Svedala,13.228,55.514,60
123,Vaersas,14.047,58.348,50
147,Asenhoega,13.797,57.408,50
123,Bredaryd,13.732,57.173,103
86,Holmeja,13.274,55.555,50
103,Blikstorp,14.058,58.28,60
253,Hova,14.216,58.853,123
103,Stehag,13.393,55.9,50
123,Kulltorp,13.791,57.264,50
86,Lanna,13.782,57.221,50
123,Soedra Sandby,13.344,55.721,60
103,Roeke,13.507,56.239,60
72,Flyinge,13.365,55.754,50
211,Kyrksten,14.393,59.437,72
60,Dalby,13.349,55.664,50
253,Markaryd,13.601,56.459,147
86,Aelgaras,14.253,58.813,50
522,Hammerdal,15.356,63.584,211
176,Haellefors,14.516,59.784,147
176,Tibro,14.167,58.417,123
103,Andersloev,13.32,55.438,60
60,Forsheda,13.831,57.162,50
60,Hurva,13.434,55.795,50
103,Skattungbyn,14.861,61.185,86
60,Norra Roerum,13.509,56.02,60
86,Hillerstorp,13.884,57.311,60
86,Genarp,13.399,55.599,50
147,Grythyttan,14.535,59.708,60
103,Habo,14.08,57.908,50
147,Degerfors,14.43,59.237,86
60,Emmaljunga,13.652,56.39,50
103,Tyringe,13.606,56.159,72
86,Klagstorp,13.378,55.394,50
211,Bankeryd,14.125,57.858,86
123,Eneryda,14.337,56.704,50
751,Kristianstad,14.168,56.026,435
253,Hjo,14.276,58.301,86
211,Hoeoer,13.548,55.936,103
86,Tjoernarp,13.633,56,50
303,Mjoelby,15.13,58.333,176
60,Traryd,13.74,56.577,50
253,Undenaes,14.401,58.656,60
147,Stroemsnaesbruk,13.735,56.551,72
123,Smygehamn,13.376,55.346,72
86,Forsvik,14.432,58.574,50
86,Taellberg,14.991,60.827,50
522,Vaggeryd,14.149,57.497,211
103,Blentarp,13.6,55.585,50
147,Loeberoed,13.513,55.776,72
60,Ballingsloev,13.845,56.213,50
303,Nyhammar,14.966,60.289,72
123,Vinsloev,13.904,56.096,60
147,Staelldalen,14.942,59.935,50
123,Djuras,15.132,60.559,72
147,Taberg,14.083,57.689,60
435,Kopparberg,15.02,59.867,176
751,Aelmhult,14.137,56.55,211
123,Broby,14.073,56.257,50
103,Floda,14.812,60.511,50
60,Alvik,14.868,60.747,50
86,Siljansnaes,14.875,60.775,60
147,Olshammar,14.8,58.749,60
60,Fagersanna,14.303,58.469,50
176,Nora,15.02,59.524,86
72,Harloesa,13.524,55.716,50
60,Persbo,15.225,60.219,50
363,Karlskoga,14.532,59.334,303
60,Fredriksdal,14.598,57.616,50
176,Bjaernum,13.709,56.293,103
123,Finneroedja,14.436,58.923,72
60,Vittskoevle,14.146,55.857,50
211,Asbro,15.056,58.991,60
86,Gusselby,15.221,59.644,50
147,Nykyrka,14.973,58.624,60
211,Bodafors,14.705,57.505,86
103,Gripenberg,14.855,57.992,50
86,Gaersnaes,14.182,55.549,72
72,Mala,13.71,56.24,50
1297,Stroemsund,15.562,63.853,626
86,Vik,14.283,55.615,50
211,Naesum,14.504,56.175,60
103,Stralsnaes,15.089,58.237,50
60,Bjoerkoeby,14.905,57.518,50
435,Svarta,14.518,59.128,72
1081,Joenkoeping,14.16,57.755,626
211,Skurup,13.501,55.48,123
147,Hanger,13.972,57.076,72
123,Vittaryd,13.947,56.971,50
253,Rottne,14.894,57.024,103
123,Soesdala,13.677,56.039,86
147,Skillingaryd,14.087,57.433,50
103,Kanna,13.904,56.781,50
60,Odensjoe,14.171,57.712,50
86,Vankiva,13.743,56.201,50
626,Los,15.168,61.735,253
522,Vaernamo,14.041,57.185,363
522,Ljungby,13.943,56.833,303
303,Klevshult,14.098,57.354,60
176,Hoerby,13.663,55.853,60
72,Moelltorp,14.411,58.497,50
86,Tormestorp,13.745,56.111,50
435,Braecke,15.42,62.752,176
86,Vikarbyn,15.022,60.911,50
253,Haessleholm,13.774,56.16,176
176,Lagan,13.995,56.913,72
103,Skivarp,13.572,55.425,50
60,Rydsgard,13.587,55.473,50
211,Mockfjaerd,14.95,60.504,147
522,Leksand,15.008,60.732,211
103,Oestraby,13.688,55.758,50
60,Tunnerstad,14.346,58.05,50
363,Furudal,15.125,61.17,123
103,Kaxholmen,14.31,57.854,86
60,Abbekas,13.599,55.396,50
86,Delary,13.953,56.547,72
253,Laxa,14.62,58.982,123
86,Hasselfors,14.649,59.087,50
86,Roefors,14.622,58.936,50
522,Sjoebo,13.701,55.636,123
253,Karlsborg,14.52,58.529,147
303,Raettvik,15.102,60.867,103
86,Mullhyttan,14.687,59.153,72
363,Stugun,15.601,63.168,211
72,Skaerstad,14.363,57.886,50
86,Tenhult,14.323,57.71,72
86,Sunnansjoe,14.969,60.215,50
72,Hok,14.276,57.514,60
123,Alby,15.486,62.498,72
86,Linderoed,13.822,55.932,72
211,Oestavall,15.475,62.429,60
72,Haestveda,13.933,56.287,60
147,Bor,14.171,57.111,60
147,Oelmstad,14.397,57.925,50
72,Gagnef,15.075,60.594,50
103,Insjoen,15.096,60.676,50
103,Gullerasen,15.187,61.056,50
103,Saxdalen,14.98,60.147,50
147,Vollsjoe,13.78,55.704,60
363,Osby,14.001,56.385,147
72,Svarte,13.716,55.431,50
303,Graenna,14.468,58.025,147
147,Graengesberg,15,60.081,72
522,Boda,15.219,61.002,72
123,Ryssby,14.164,56.866,72
123,Lekeryd,14.419,57.772,50
103,Agunnaryd,14.145,56.749,86
123,Nedre Gaerdsjoe,15.228,60.94,50
123,Oennekoep,13.87,55.786,50
86,Soevestad,13.798,55.502,50
147,Killeberg,14.094,56.475,60
103,Horda,14.257,57.036,50
60,Gonaes,15.087,60.145,50
147,Forserum,14.471,57.7,60
363,Ystad,13.816,55.435,303
147,Fjugesta,14.868,59.174,103
103,Loevestad,13.892,55.655,50
211,Tollarp,13.98,55.936,86
103,Haestholmen,14.64,58.278,50
72,Oerserum,14.576,58.008,50
72,Oennestad,14.024,56.059,60
123,Malmbaeck,14.46,57.574,103
60,Sifferbo,15.227,60.557,50
103,Soervik,15.142,60.192,50
72,Huaroed,13.971,55.842,50
147,Rydaholm,14.308,56.985,103
211,Oedeshoeg,14.651,58.229,147
1297,Ange,15.67,62.524,522
147,Knislinge,14.087,56.195,86
72,Aesperoed,13.918,55.61,50
211,Dioe,14.228,56.646,86
123,Lanna,14.93,59.244,50
123,Garphyttan,14.951,59.304,103
72,Hanaskog,14.093,56.158,50
123,Glimakra,14.139,56.31,50
86,Sagmyra,15.298,60.712,60
211,Idkerberget,15.231,60.374,60
176,Tomelilla,13.944,55.544,86
103,Vrigstad,14.473,57.351,86
522,Ludvika,15.198,60.145,253
60,Torsebro,14.117,56.102,50
211,Stora,15.1,59.701,72
86,Koepingebro,13.934,55.455,50
435,Askersund,14.911,58.89,147
86,Sibbhult,14.198,56.268,50
72,Everoed,14.091,55.899,50
435,Degeberga,14.085,55.826,86
72,Norr Amsberg,15.351,60.53,50
86,Onslunda,14.052,55.599,50
103,Hammar,14.959,58.819,60
60,Lunnarp,14.043,55.541,50
72,Immeln,14.247,56.206,50
72,Broesarp,14.104,55.724,60
103,Balsby,14.211,56.076,50
103,Strassa,15.208,59.743,50
253,Bjursas,15.45,60.738,103
211,Loensboda,14.318,56.396,103
72,Gubbo,15.321,60.181,50
72,Halvarsgardarna,15.384,60.407,60
211,Vadstena,14.898,58.446,86
72,Stockaryd,14.594,57.318,60
147,Roervik,14.575,57.239,60
253,Vislanda,14.454,56.786,103
253,Naessjoe,14.702,57.643,253
103,Sankt Olof,14.13,55.638,50
103,Arkelstorp,14.289,56.172,72
751,Borlaenge,15.43,60.476,626
72,Roenneshytta,15.048,58.92,60
303,Lammhult,14.582,57.17,123
103,Grycksbo,15.482,60.687,50
626,Lindesberg,15.224,59.601,253
303,Hoting,16.205,64.114,123
103,Grimstorp,14.698,57.558,50
123,Hallsberg,15.099,59.067,50
253,Saevsjoe,14.663,57.395,176
103,Yngsjoe,14.231,55.883,50
103,Vaederstad,14.924,58.313,72
86,Rinkaby,14.272,55.983,50
60,Ramsberg,15.297,59.769,50
303,Kumla,15.141,59.129,123
147,Moheda,14.574,57.006,86
303,Aneby,14.808,57.835,123
147,Alvesta,14.551,56.901,103
103,Flisby,14.801,57.783,50
103,Hammenhoeg,14.157,55.503,50
123,Smedjebacken,15.415,60.143,86
626,Oerebro,15.206,59.278,522
253,Kivik,14.221,55.687,103
123,Hovsta,15.227,59.346,60
103,Anneberg,14.804,57.723,72
86,Oelmbrotorp,15.24,59.39,50
176,Ahus,14.299,55.932,72
147,Zinkgruvan,15.105,58.816,86
103,Grimsloev,14.543,56.737,50
103,Vedevag,15.289,59.527,50
435,Motala,15.041,58.547,253
72,Ornaes,15.536,60.506,50
211,Borrby,14.18,55.457,72
303,Kaelarne,16.083,62.979,123
72,Fagelsta,15.039,58.457,50
147,Faerila,15.839,61.796,103
60,Sundhultsbrunn,14.913,57.93,60
72,Norra Bro,15.251,59.225,50
147,Sommen,14.969,58.129,50
60,Stensjoen,14.824,57.581,50
60,Vilshult,14.482,56.355,50
72,Torsang,15.566,60.47,50
103,Godegard,15.162,58.747,50
626,Tranas,14.976,58.037,303
72,Gemla,14.654,56.865,50
60,Gualoev,14.418,56.048,50
253,Rossoen,16.321,63.929,86
303,Falun,15.623,60.605,103
123,Naglarby och Enbacka,15.588,60.415,72
103,Skaenninge,15.085,58.391,50
253,Froevi,15.365,59.471,103
363,Edsbyn,15.818,61.376,211
303,Boxholm,15.045,58.192,123
522,Dorotea,16.415,64.263,303
60,Skillinge,14.279,55.471,50
211,Olofstroem,14.526,56.281,147
86,Ekeby-Almby,15.337,59.258,60
60,Bromoella,14.471,56.078,50
72,Jaemshoeg,14.53,56.244,50
123,Soederbaerke,15.56,60.069,60
72,Oesterstad,15.174,58.519,50
435,Simrishamn,14.343,55.552,253
86,Skoellersta,15.337,59.139,60
123,Aby,14.777,57.024,50
147,Kyrkhult,14.592,56.355,60
72,Brantevik,14.344,55.516,50
86,Rockhammar,15.448,59.529,50
60,Enviken,15.756,60.808,50
147,Eksjoe,14.971,57.668,123
103,Glanshammar,15.402,59.317,50
123,Palsboda,15.34,59.065,86
60,Tallasen,16,61.861,50
60,Riddarhyttan,15.537,59.809,60
103,Landsbro,14.908,57.37,72
147,Vika,15.714,60.517,60
303,Backe,16.413,63.81,176
103,Hestra,15.074,57.955,60
363,Fraensta,16.166,62.499,176
123,Fridafors,14.657,56.408,50
1556,Vaexjoe,14.798,56.894,626
123,Fornasa,15.232,58.479,72
123,Sundborn,15.777,60.654,60
211,Ryd,14.691,56.466,123
176,Soelvesborg,14.576,56.048,123
103,Borensberg,15.285,58.563,103
72,Danholn,15.793,60.621,50
72,Vad,15.658,60.027,50
147,Saeter,15.74,60.347,103
363,Hammarstrand,16.346,63.109,253
147,Ekenaessjoen,15.02,57.49,60
86,Linghed,15.853,60.785,50
303,Tjaellmo,15.354,58.716,123
751,Vilhelmina,16.66,64.625,751
86,Mantorp,15.28,58.349,60
103,Stora Melloesa,15.503,59.211,50
147,Kungsoer,16.095,59.421,72
522,Ljusdal,16.097,61.829,363
147,Matfors,17.021,62.349,103
253,Korsberga,15.125,57.301,86
103,Goetlunda,15.666,59.354,72
72,Medaker,15.752,59.453,50
60,Noebbele,15.028,56.687,50
176,Kolsva,15.85,59.598,72
123,Norje,14.67,56.127,60
147,Vaestra Bispgarden,16.63,63.026,103
72,Pukavik,14.68,56.16,50
72,Bengtsheden,15.873,60.706,50
522,Ramsele,16.474,63.534,253
60,Skedvi kyrkby,15.805,60.405,50
253,Hjortkvarn,15.439,58.897,86
72,Rydsnaes,15.152,57.798,50
60,Klockrike,15.337,58.496,50
103,Garpenberg,16.195,60.315,86
253,Delsbo,16.555,61.805,176
176,Raevemala,15.266,56.555,60
363,Rejmyre,15.924,58.831,103
123,Fellingsbro,15.59,59.439,103
363,Svaerdsjoe,15.906,60.742,123
103,Urshult,14.818,56.533,60
211,Kilafors,16.566,61.231,86
303,Skinnskatteberg,15.692,59.826,147
103,Vaesterfaernebo,16.273,59.947,86
211,Odensbacken,15.529,59.164,86
147,Surahammar,16.219,59.707,72
103,Hult,15.133,57.642,72
60,Norsholm,15.971,58.518,50
176,Horn,15.843,57.9,86
123,Johansfors,15.536,56.695,50
123,Ashammar,16.548,60.647,50
303,Lingbo,16.688,61.05,123
522,Vetlanda,15.085,57.415,176
147,Simonstorp,16.156,58.786,103
123,Storebro,15.842,57.588,60
176,Strangsjoe,16.193,58.904,72
211,Holmsjoe,15.539,56.421,86
86,Tumbo,16.342,59.426,50
147,Alfta,16.067,61.346,103
60,Haellevik,14.695,56.013,60
123,Moerlunda,15.866,57.32,50
123,Svaengsta,14.77,56.265,60
103,Fagelfors,15.844,57.206,86
60,Vikmanshyttan,15.833,60.298,50
72,Valla,16.377,59.02,72
72,Moerrum,14.756,56.193,50
103,Skogstorp,16.475,59.326,50
363,Enanger,17.013,61.546,50
211,Jaervsoe,16.165,61.717,86
123,Ingelstad,14.92,56.744,103
86,Kilsmo,15.544,59.067,60
86,Torpshammar,16.335,62.474,72
60,Hybo,16.198,61.797,50
176,Vaeckelsang,14.918,56.643,86
147,Ljusfallshammar,15.503,58.786,60
123,Aryd,14.979,56.829,72
303,Fagersta,15.809,60.002,147
103,Braas,15.056,57.061,72
86,Hoervik,14.765,56.04,50
72,Skede,15.175,57.469,50
303,Oesterbymo,15.273,57.827,147
60,Furuby,15.034,56.853,50
60,Holsbybrunn,15.198,57.436,50
363,Karlshamn,14.856,56.174,303
176,Nykil,15.447,58.287,72
176,Ljungsbro,15.506,58.502,72
60,Hampetorp,15.672,59.14,60
176,Tingsryd,14.979,56.528,176
103,Husby,15.998,60.392,50
103,Norrhult-Klavrestroem,15.162,57.128,60
103,Hoegsjoe,15.669,59.026,86
147,Norberg,15.928,60.066,60
303,Hedemora,15.983,60.282,103
211,Langshyttan,16.038,60.452,86
103,Sonstorp,15.634,58.724,72
72,Haellaryd,14.949,56.207,50
86,Slaka,15.565,58.368,50
123,Igelfors,15.691,58.845,72
86,Skeda udde,15.56,58.291,50
253,Hovmantorp,15.153,56.784,176
253,Arboga,15.845,59.393,103
103,Linneryd,15.128,56.658,72
103,Ingatorp,15.413,57.639,72
103,Vallsta,16.366,61.519,50
1867,Linkoeping,15.621,58.404,751
72,Ekaengen,15.64,58.466,50
253,Arbra,16.378,61.468,103
86,Konga,15.122,56.495,72
211,Stoede,16.587,62.419,176
253,Lenhovda,15.272,56.995,147
86,Hallabro,15.102,56.391,50
901,Bollnaes,16.372,61.348,363
901,Storuman,17.116,65.094,363
363,Junsele,16.862,63.697,147
86,Valskog,15.947,59.442,50
123,Virsbo,16.052,59.873,103
86,Lottefors,16.41,61.422,50
626,Aseda,15.353,57.167,176
176,Vingaker,15.875,59.046,147
72,Braekne-Hoby,15.117,56.232,72
303,Koeping,15.997,59.513,211
303,Backaryd,15.153,56.346,72
60,Lessebo,15.27,56.749,50
176,Friggesund,16.551,61.897,72
211,Finspang,15.804,58.705,176
176,Brokind,15.679,58.217,60
72,Lotorp,15.823,58.736,50
147,Sturefors,15.724,58.333,50
435,Kisa,15.635,57.984,176
626,Avesta,16.178,60.14,303
176,Rimforsa,15.682,58.137,123
123,Paulistroem,15.507,57.47,50
253,Naesaker,16.902,63.443,176
435,Hofors,16.29,60.55,176
72,Vanga,15.814,58.582,50
72,Linghem,15.786,58.432,72
147,Kvillsfors,15.515,57.406,72
147,Mariannelund,15.576,57.613,123
522,Liden,16.809,62.69,123
253,Hassela,16.691,62.115,147
147,Kosta,15.397,56.843,86
211,Amot,16.446,60.964,86
103,Bankekind,15.823,58.374,50
123,Skruv,15.366,56.677,60
147,Ramnaes,16.189,59.776,50
60,Munktorp,16.132,59.533,50
147,Fors,16.313,60.209,60
253,Virserum,15.582,57.32,123
147,Gistad,15.89,58.466,50
123,Skaerblacka,15.921,58.584,103
123,Jaedraas,16.468,60.841,86
103,Aeskoeping,16.064,59.147,60
103,Gullringen,15.719,57.8,50
72,Kallinge,15.288,56.252,50
211,Ronneby,15.278,56.209,147
211,Alberga,16.116,59.281,103
86,Nedansjoe,16.824,62.379,72
72,Grebo,15.871,58.3,60
86,Eringsboda,15.367,56.44,72
123,Rengsjoe,16.614,61.363,72
72,Marmorbyn,16.07,59.046,50
72,Baggetorp,16.074,59.009,60
123,Hallstahammar,16.229,59.616,86
72,Kimstad,15.966,58.549,50
72,Oesterforse,17.018,63.142,50
86,Eriksmala,15.486,56.735,50
86,Langasjoe,15.447,56.582,50
103,Horndal,16.411,60.299,103
103,Kolbaeck,16.239,59.564,50
72,Aelghult,15.575,57.008,50
86,Segersta,16.648,61.268,50
72,Stroemsholm,16.243,59.528,50
123,Svaertinge,16.025,58.654,60
123,Torsaker,16.48,60.511,60
147,Soedra Vi,15.793,57.742,60
123,Halsjoe,16.78,61.827,50
123,Maleras,15.567,56.908,60
60,Salbohed,16.349,59.913,50
103,Langsele,17.064,63.178,86
103,Silverdalen,15.75,57.541,50
123,Storvik,16.527,60.588,86
176,Fagerhult,15.664,57.146,72
72,Listerby,15.397,56.19,50
86,Johannishus,15.42,56.224,50
751,Sorsele,17.533,65.527,363
211,Alstermo,15.638,56.973,123
123,Naes bruk,16.471,60.187,60
253,Emmaboda,15.553,56.633,147
176,Jaerbo,16.6,60.72,72
86,Kvicksund,16.303,59.466,72
176,Bie,16.211,59.089,72
147,Bjoersaeter,16.021,58.336,60
435,Vimmerby,15.847,57.669,303
123,Tving,15.468,56.307,72
72,Hammarby,16.571,60.544,50
363,Atvidaberg,15.998,58.198,176
435,Katrineholm,16.205,58.992,303
147,Malilla,15.788,57.384,86
86,Saetra brunn,16.437,59.864,50
72,Skriketorp,16.145,58.683,50
751,Asele,17.352,64.163,363
363,Hultsfred,15.838,57.49,147
123,Naesviken,16.877,61.765,50
176,Vissefjaerda,15.582,56.537,72
72,Dingtuna,16.383,59.571,50
176,Hassloe,15.469,56.111,72
103,Skultuna,16.432,59.716,72
363,Ockelbo,16.719,60.892,176
103,Naevragoel,15.567,56.373,50
72,Herstadberg,16.178,58.626,50
211,Moeklinta,16.539,60.068,103
435,Norrkoeping,16.179,58.591,211
176,Indal,17.099,62.58,103
60,Mohed,16.828,61.291,50
72,Jaederfors,16.689,60.665,50
103,Lucksta,17.05,62.3,50
103,Oebonaes,16.183,58.54,50
60,Bergvik,16.834,61.26,50
60,Vaestra Husby,16.175,58.485,60
103,Spjutsbygd,15.592,56.312,50
147,Oestra Ryd,16.165,58.405,60
176,Orrefors,15.746,56.839,72
147,Skog,16.839,61.168,72
72,Munga,16.523,59.745,50
86,Froedinge,16.002,57.701,60
60,Soerforsa,16.974,61.717,50
626,Solleftea,17.281,63.166,435
435,Sala,16.58,59.918,176
123,Roedeby,15.622,56.26,50
103,Kovland,17.152,62.468,60
103,Torshaella,16.467,59.422,50
72,Vena,15.976,57.519,60
103,Oersjoe,15.751,56.701,72
103,Barkaroe,16.506,59.552,60
303,Arsunda,16.735,60.515,86
522,Bergsjoe,17.059,61.98,176
626,Karlskrona,15.624,56.198,435
60,Soederala,16.923,61.285,50
60,Hallsta,16.459,59.295,50
176,Sandviken,16.775,60.619,123
253,Ilsbo,17.05,61.856,72
626,Vaesteras,16.543,59.618,435
253,Baelgviken,16.458,59.248,50
72,Tidoe-Lindoe,16.531,59.512,50
303,Eskilstuna,16.503,59.371,211
60,Ljunga,16.304,58.579,50
751,Arjeplog,17.862,66.046,522
103,Falerum,16.207,58.144,86
60,Kumla kyrkby,16.635,59.841,50
211,Ransta,16.633,59.81,86
60,Klingsta och Allsta,17.201,62.324,60
60,Skoeldinge,16.455,59.033,50
72,Njutanger,17.057,61.61,50
123,Sturkoe,15.674,56.115,60
147,Tillberga,16.626,59.686,60
211,Soederkoeping,16.325,58.473,86
1297,Hudiksvall,17.116,61.729,522
176,Iggesund,17.076,61.645,72
176,Alsterbro,15.916,56.941,86
123,Halltorp,16.101,56.499,50
86,Stavsjoe,16.435,58.729,60
363,Nybro,15.906,56.745,211
86,Haelleforsnaes,16.502,59.156,72
86,Harmanger,17.222,61.931,72
86,Bjoerkvik,16.522,58.837,72
72,Kaettilsmala,15.739,56.281,50
103,Jaemjoe,15.841,56.192,103
176,Tuna,16.107,57.576,50
103,Soeraker,17.514,62.504,60
211,Oesterfaernebo,16.801,60.31,72
86,Saelgsjoen,17.113,60.617,50
303,Troedje,17.211,60.821,50
72,Hummelsta,16.945,59.626,60
103,Bollstabruk,17.695,62.981,50
72,Gunnebo,16.527,57.722,50
72,Nyland,17.763,63.011,50
123,Soederfors,17.234,60.387,123
103,Berga,16.037,57.22,50
253,Enkoeping,17.086,59.639,211
253,Hoegsby,16.025,57.169,176
72,Stjaernhov,17.008,59.081,72
363,Soederhamn,17.056,61.309,253
86,Aelandsbro,17.843,62.678,50
72,Sundbyholm,16.623,59.439,50
901,Nykoeping,17.023,58.757,363
60,Haellberga,16.6,59.32,50
3225,Sundsvall,17.296,62.397,1297
60,Forsbacka,16.909,60.612,50
86,Bockara,16.068,57.263,50
303,Bredbyn,18.102,63.451,176
123,Mankarbo,17.462,60.228,103
176,Gnarp,17.237,62.05,60
86,Melloesa,16.562,59.1,50
123,Laeby,17.555,60.09,50
86,Totebo,16.186,57.63,50
72,Irsta,16.691,59.605,60
253,Kristineberg,18.577,65.061,103
211,Timra,17.345,62.497,86
303,Loettorp,17.003,57.164,211
103,Jaettendal,17.249,61.979,50
176,Oeverum,16.307,57.99,72
147,Runhaellen,16.822,60.026,72
147,Paryd,15.924,56.566,86
60,Bergby,17.035,60.931,50
176,Flen,16.592,59.056,147
60,Bergeforsen,17.38,62.527,50
86,Kjulaas,16.677,59.389,72
103,Valbo,16.986,60.637,50
103,Stockvik,17.362,62.342,50
60,Hamrangefjaerden,17.057,60.902,50
211,Ljusne,17.126,61.211,50
86,Stavreviken,17.411,62.553,50
103,Aerla,16.679,59.287,86
123,Ruda,16.115,57.11,50
147,Ringarum,16.444,58.335,50
72,Sandarne,17.153,61.269,50
211,Kristdala,16.206,57.4,103
211,Heby,16.854,59.943,103
103,Baeckebo,16.069,56.888,72
176,Torhamn,15.848,56.096,72
253,Njurundabommen,17.383,62.264,60
86,Kristvallabrunn,16.052,56.779,60
60,Ankarsvik,17.413,62.373,50
123,Taernsjoe,16.926,60.154,103
253,Alberga,16.578,58.725,60
123,Hedesunda,16.998,60.397,103
86,Bettna,16.64,58.907,50
253,Hjorted,16.309,57.623,60
176,Oestra Husby,16.562,58.576,86
72,Stocka,17.337,61.893,50
72,Kaersta och Bredsdal,16.839,59.677,50
147,Ankarsrum,16.338,57.699,123
60,Tvaerskog,16.046,56.621,50
211,Norrsundet,17.138,60.933,176
103,Gusum,16.495,58.267,50
176,Fagelmara,15.949,56.262,60
253,Gamleby,16.401,57.893,103
86,Malmkoeping,16.724,59.135,72
522,Torsas,16.001,56.412,147
103,Abyggeby,17.115,60.738,50
2688,Gaevle,17.122,60.69,626
103,Edsbruk,16.471,58.019,72
72,Trekanten,16.116,56.7,60
147,Fjaerdhundra,16.922,59.774,103
86,Morgongava,16.964,59.933,50
211,Vrena,16.703,58.861,50
86,Soederakra,16.064,56.448,50
103,Fliseryd,16.254,57.125,86
60,Bjoerke,17.19,60.764,50
72,Joenaker,16.727,58.744,50
72,Vassmoloesa,16.156,56.592,50
303,Valdemarsvik,16.596,58.21,211
253,Sparreholm,16.822,59.074,50
72,Haerad,16.902,59.361,50
176,Hagby,16.182,56.559,103
123,Stigtomta,16.783,58.802,103
72,Smedby,16.24,56.68,50
147,Blomstermala,16.329,56.98,50
86,Norrlandet,17.269,60.722,50
1081,Oskarshamn,16.432,57.257,435
123,Naevekvarn,16.798,58.633,86
103,Lindsdal,16.291,56.733,50
363,Oestervala,17.178,60.182,147
435,Kramfors,17.777,62.928,211
123,Merlaenna,16.982,59.28,60
253,Straengnaes,17.019,59.373,176
72,Bredsand,17.075,59.596,50
176,Rockneby,16.35,56.801,60
86,Svalsta,16.867,58.743,50
176,Paskallavik,16.454,57.166,72
147,Harbo,17.208,60.107,60
176,Misterhult,16.547,57.464,72
901,Vaestervik,16.626,57.755,522
253,Moensteras,16.441,57.042,176
1081,Kalmar,16.34,56.677,751
176,Loftahammar,16.687,57.902,123
176,Figeholm,16.549,57.374,103
123,Jaerlasa,17.204,59.885,103
86,Lunde,17.862,62.879,50
176,Skutskaer,17.397,60.64,123
253,Ramvik,17.864,62.81,86
60,Lungvik,17.899,62.928,50
72,Buskhyttan,16.942,58.663,50
253,Moerbylanga,16.395,56.519,103
176,Mehedeby,17.403,60.447,60
86,Marma,17.424,60.491,50
72,Utansjoe,17.919,62.773,50
147,Aelvkarleby,17.454,60.57,50
72,Arnoe,17.021,58.725,50
522,Haernoesand,17.907,62.631,211
147,Vickleby,16.464,56.587,50
147,Kastloesa,16.424,56.443,60
86,Grillby,17.257,59.626,72
103,Faerjestaden,16.484,56.651,72
103,Runtuna,17.075,58.872,72
123,Lillkyrka,17.249,59.559,50
86,Stallarholmen,17.205,59.368,72
303,Degerhamn,16.417,56.354,123
211,Oersundsbro,17.308,59.735,86
60,Algutsrum,16.531,56.68,50
72,Bjoernlunda,17.162,59.064,60
123,Raella,16.57,56.772,72
211,Mariefred,17.23,59.266,86
176,Oxeloesund,17.087,58.676,60
86,Gardskaer,17.579,60.609,50
626,Tierp,17.52,60.345,253
72,Nygards hagar,17.269,59.218,50
435,Borgholm,16.662,56.876,123
123,Vaenge,17.436,59.858,72
72,Ramstalund,17.444,59.799,50
72,Kraegga,17.404,59.607,50
86,Karlholmsbruk,17.625,60.522,72
86,Gardby,16.64,56.601,60
147,Tystberga,17.236,58.851,86
211,Ullanger,18.185,63.01,147
147,Gnesta,17.31,59.046,103
147,Bjoerklinge,17.552,60.033,72
86,Baelinge,17.538,59.949,72
626,Fredrika,18.403,64.074,303
176,Sidensjoe,18.274,63.302,103
103,Mellansel,18.3,63.427,72
60,Tobo,17.656,60.259,50
86,Raby,17.498,59.534,50
211,Balsta,17.521,59.578,123
123,Nykvarn,17.427,59.177,86
72,Moelnbo,17.421,59.048,50
303,Skaerplinge,17.76,60.472,60
86,Ytternaes och Vreta,17.599,59.776,50
103,Oerbyhus,17.706,60.227,72
147,Nordingra,18.287,62.931,60
72,Sund,17.409,58.962,50
1081,Uppsala,17.634,59.851,435
103,Docksta,18.328,63.055,50
86,Slottsskogen,17.609,59.69,50
123,Ekeby,17.522,59.254,50
522,Mala,18.742,65.185,303
211,Storvreta,17.705,59.958,86
123,Skyttorp,17.738,60.081,50
1081,Lycksele,18.666,64.594,626
72,Vattholma,17.731,60.015,50
147,Hoeloe,17.539,59.025,60
123,Karby,18.221,59.561,60
211,Bjoernoemalmen och Klacknaeset,18.517,59.222,50
86,Moliden,18.456,63.378,50
176,Knivsta,17.785,59.723,72
86,Vagnhaerad,17.487,58.947,50
72,Saevja,17.702,59.816,50
103,Bro,17.633,59.518,50
176,Langviksmon,18.698,63.631,72
86,Tumba,17.822,59.198,86
72,Stora Vika,17.787,58.956,50
211,Kungsberga,17.636,59.406,60
211,Jaerna,17.562,59.094,60
103,Mariedal,17.68,59.569,50
176,Vaesterhaninge,18.063,59.114,103
60,Stava,18.221,59.5,50
176,Muskoe,18.133,59.001,86
123,Mjaellom,18.435,62.986,50
86,Hargshamn,18.466,60.169,72
72,Viksaeter,17.617,59.238,50
72,Saltsjoebaden,18.281,59.283,50
86,Billsta,18.508,63.32,72
72,Sigtuna,17.718,59.621,50
303,Trosa,17.546,58.899,103
363,Glommerstraesk,19.633,65.261,176
103,Skebobruk,18.611,59.967,60
176,Bjaesta,18.504,63.201,103
253,Soedertaelje,17.626,59.184,176
72,Rundvik,19.436,63.54,50
147,Svanberga,18.662,59.839,60
253,Bergshamra,18.629,59.637,103
123,Soederby-Karl,18.702,59.892,50
103,Stenhamra,17.687,59.335,50
123,Oesterbybruk,17.894,60.198,103
253,Bjoerna,18.599,63.551,123
60,Pershagen,17.657,59.152,50
86,Kungsaengen,17.74,59.482,72
123,Gunsta,17.832,59.855,50
86,Gavsta,17.876,59.944,60
253,Rusksele,18.895,64.814,176
435,Maersta,17.847,59.627,86
123,Sibble,17.747,59.112,50
176,Ekeroe,17.803,59.274,60
1297,Oernskoeldsvik,18.688,63.317,522
86,Rosersberg,17.888,59.583,50
60,Laenna,17.957,59.872,50
72,Varsta,17.79,59.167,50
86,Skoby,18.021,60.029,50
123,Upplands Vaesby,17.924,59.514,72
86,Drottningholm,17.879,59.323,50
211,Alunda,18.085,60.066,86
1081,Arvidsjaur,19.18,65.592,626
176,Almunge,18.048,59.878,147
72,Norra Riksten,17.913,59.186,50
176,Oesmo,17.896,58.987,60
211,Gimo,18.184,60.173,72
86,Segersaeng,17.93,59.027,50
60,Lindholmen,18.107,59.586,50
211,Taeby,18.075,59.448,147
435,Nynaeshamn,17.944,58.905,176
211,Gidea,18.972,63.483,103
60,Vidja,18.061,59.199,50
100000,Stockholm,18.091,59.27,100000
123,Knutby,18.269,59.911,86
176,Lidingoe,18.148,59.362,72
901,Oesthammar,18.361,60.26,253
626,Moskosel,19.452,65.873,253
72,Rydbo,18.186,59.462,50
60,Haesthagen,18.158,59.298,50
72,Jordbro,18.127,59.145,50
253,Karsta,18.268,59.655,60
147,Ranaes,18.304,59.804,86
147,Oeregrund,18.445,60.333,60
253,Bjurholm,19.22,63.932,176
123,Akersberga,18.302,59.483,86
303,Amsele,19.344,64.53,176
72,Boo,18.266,59.319,50
176,Granoe,19.311,64.251,103
147,Husum,19.159,63.335,147
103,Vaxholm,18.334,59.404,60
751,Norsjoe,19.489,64.913,303
435,Porjus,19.815,66.957,253
123,Edsbro,18.489,59.896,72
147,Gustavsberg,18.391,59.328,50
123,Finsta,18.495,59.737,72
60,Oskar-Fredriksborg,18.435,59.396,50
363,Hallstavik,18.599,60.054,147
72,Bammarboda,18.475,59.51,72
1297,Jokkmokk,19.85,66.601,435
176,Herraeng,18.647,60.13,60
60,Fagelvikshoejden,18.449,59.281,50
72,Riala,18.533,59.63,50
123,Dalaroe,18.417,59.138,103
60,Kopparmora,18.58,59.331,50
211,Haellnaes,19.623,64.311,86
626,Norrtaelje,18.697,59.762,253
626,Nordmaling,19.503,63.569,253
8023,Kiruna,20.245,67.854,1556
211,Tvaeralund,19.668,64.096,86
103,Soedersvik,18.918,59.752,86
86,Grisslehamn,18.807,60.101,72
103,Soerfors,20.03,63.87,60
147,Aelmsta,18.812,59.971,103
123,Ersmark,20.319,63.887,50
147,Visttraesk,20.647,65.692,103
86,Vibble,18.25,57.604,50
72,Innertavle,20.407,63.812,50
211,Bygdsiljum,20.504,64.351,147
303,Klintehamn,18.202,57.387,103
522,Burtraesk,20.644,64.513,176
626,Vindeln,19.719,64.2,253
211,Djuroe,18.701,59.312,103
1297,Visby,18.314,57.639,901
253,Vaennaes,19.744,63.905,176
123,Vaeskinde,18.42,57.69,50
435,Burgsvik,18.277,57.033,176
363,Joern,20.034,65.056,147
176,Havdhem,18.327,57.162,60
253,Romakloster,18.45,57.509,103
751,Hemse,18.383,57.239,303
211,Bastutraesk,20.04,64.79,103
103,Stanga,18.471,57.283,50
103,Tingstaede,18.604,57.732,72
147,Hoernefors,19.911,63.619,147
176,Jukkasjaervi,20.595,67.852,103
147,Yttersjoe,20.003,63.775,60
103,Tavelsjoe,20.069,64.041,72
147,Soermjoele,20.006,63.682,60
147,Laerbro,18.786,57.786,60
1297,Gaellivare,20.655,67.139,522
60,Malmberget,20.661,67.169,50
363,Slite,18.795,57.712,211
86,Hissjoen,20.162,63.939,60
253,Ljugarn,18.707,57.333,103
253,Botsmark,20.245,64.254,86
363,Tjautjas/Cavccas,20.735,67.325,123
303,Vidsel,20.516,65.833,176
60,Roebaeck,20.188,63.81,50
363,Vuollerim,20.624,66.431,253
303,Boliden,20.38,64.866,211
147,Flurkmark,20.233,63.98,50
60,Stoecksjoe,20.198,63.78,50
9627,Umea,20.241,63.833,3225
72,Stoecke,20.229,63.743,50
522,Faroesund,19.05,57.859,123
253,Holmsund,20.367,63.707,103
176,Bullmark,20.482,64.032,103
176,Svappavaara,21.055,67.648,176
86,Taeftea,20.482,63.839,50
123,Saevar,20.55,63.903,103
147,Medle,20.729,64.74,86
435,Harads,20.958,66.082,211
147,Roknaes,21.161,65.346,103
363,Hakkas,21.567,66.915,303
253,Ullatti,21.818,67.017,103
435,Aelvsbyn,21.004,65.674,211
72,Myckle,20.857,64.754,50
522,Robertsfors,20.849,64.192,253
147,Kage,20.982,64.834,60
123,Oevre Svartla,21.178,66.01,86
253,Bygdea,20.859,64.062,103
1867,Skelleftea,20.996,64.757,751
123,Ostvik,21.058,64.887,50
211,Anaeset,21.044,64.278,86
435,Byske,21.211,64.954,103
72,Ursviken,21.178,64.706,72
751,Vittangi,21.639,67.678,435
626,Oevre Soppero,21.697,68.09,303
103,Hemmingsmark,21.284,65.224,86
103,Boele,21.312,65.383,50
253,Burea,21.19,64.619,72
147,Kloevertraesk,21.405,65.636,86
147,Sjulsmark,21.485,65.519,86
626,Pitea,21.456,65.322,253
303,Loevanger,21.315,64.368,176
60,Norrfjaerden,21.501,65.417,60
363,Jaevre,21.49,65.154,123
435,Boden,21.676,65.824,211
253,Rosvik,21.685,65.429,103
211,Unbyn,21.75,65.713,50
103,Saevast,21.759,65.763,50
60,Avan,21.802,65.682,50
147,Antnaes,21.839,65.554,86
253,Braendoen,22.336,65.696,50
123,Svartbyn,22.834,66.265,50
86,Gammelstaden,22.017,65.641,72
123,Karesuando,22.459,68.439,123
103,Kallax,22.056,65.529,60
86,Persoen,22.165,65.741,60
3225,Lulea,22.223,65.587,1556
72,Bensbyn,22.235,65.641,50
363,Junosuando,22.498,67.426,303
363,Ranea,22.293,65.859,176
176,Kangos,22.658,67.503,72
1297,Kuttainen,22.814,68.381,626
123,Jaemtoen,22.495,65.852,60
176,Toere,22.654,65.916,103
363,Morjaerv,22.702,66.066,123
253,Oeverkalix,22.848,66.324,253
123,Palaeng,22.892,65.816,72
751,Korpilombolo,23.051,66.849,303
751,Kalix,23.151,65.859,253
901,Pajala,23.36,67.215,901
147,Nyborg,23.186,65.788,50
103,Batskaersnaes,23.418,65.783,72
211,Sangis,23.502,65.86,86
1867,Oevertornea,23.641,66.39,435
303,Hedenaeset,23.687,66.224,123
363,Juoksengi,23.843,66.565,147
253,Seskaroe,23.741,65.736,103
363,Karungi,23.949,66.045,123
103,Nikkala,23.917,65.804,60
522,Haparanda,24.122,65.834,303
