rs,name,lon,lat,r1
685,Antwerpen,4.432,51.192,276
571,Liège,5.566,50.629,571
571,Gent,3.731,51.053,331
986,Charleroi,4.461,50.416,331
397,Brugge,3.226,51.206,230
192,Oostende,2.923,51.223,160
134,Leuven,4.71,50.876,134
230,Namur,4.858,50.462,192
160,La Louvière,4.187,50.479,134
276,Verviers,5.866,50.591,160
276,Aalst,4.05,50.94,134
397,Roeselare,3.126,50.947,192
331,Turnhout,4.948,51.319,276
160,Vilvoorde,4.43,50.924,46
685,Tournai,3.388,50.61,276
112,Hasselt,5.336,50.928,79
94,Beveren,4.26,51.216,46
397,Mons,3.951,50.456,134
276,Knokke-Heist,3.27,51.343,112
24,Brasschaat,4.497,51.3,20
24,Maasmechelen,5.688,50.975,20
66,Avelgem-Outrijve,3.449,50.772,55
230,Blaton,3.665,50.504,94
192,Aalter,3.461,51.089,79
160,Oupeye,5.64,50.704,33
134,Landen,5.08,50.747,55
39,Morlanwelz,4.249,50.449,20
112,Geraardsbergen,3.872,50.77,79
55,Duffel,4.506,51.095,20
134,Lille,4.815,51.249,55
571,Marche-en-Famenne,5.333,50.209,230
192,Hoogstraten,4.763,51.409,46
331,Dinant,4.914,50.257,160
230,Zelzate,3.807,51.199,66
112,Ecaussinnes,4.169,50.56,39
112,Oudenaarde,3.605,50.848,79
33,Genval,4.492,50.727,20
79,Brecht,4.659,51.346,39
276,Gembloux,4.692,50.561,79
160,Thuin,4.282,50.349,46
79,Dadizele-Ledegem,3.119,50.856,39
112,Veurne,2.669,51.074,39
79,Kasterlee,4.906,51.232,39
134,Lanaken,5.648,50.894,55
66,Welkenraedt,5.974,50.66,28
112,Andenne,5.094,50.495,79
79,Lichtervelde,3.132,51.027,33
66,Herenthout,4.761,51.139,46
94,Rochefort,5.238,50.162,55
55,Estinnes,4.087,50.416,39
79,Berlaar,4.647,51.113,39
33,Gosselies,4.431,50.467,24
160,Hannut,5.071,50.668,66
66,Villers-la-Ville,4.544,50.565,55
66,Kortessem,5.411,50.852,39
39,Kortemark-Handzame,3.028,51.028,39
79,Genappe,4.445,50.6,46
66,Perwez,4.79,50.633,55
66,Beernem,3.331,51.132,46
39,Eksel-Wijchmaal,5.402,51.146,20
66,Zonnebeke,3.002,50.882,55
94,Baarle-Hertog,4.929,51.445,66
134,Pecq,3.333,50.69,33
55,Zomergem,3.558,51.122,24
33,Peer,5.461,51.132,28
94,Theux,5.818,50.534,33
112,Houthulst,2.936,50.978,46
66,Aalbeke,3.23,50.779,20
230,Aarschot,4.836,50.985,79
79,Aarsele,3.423,50.997,46
39,Aartrijke,3.09,51.119,33
112,Aartselaar,4.388,51.135,33
79,Achel,5.479,51.255,33
39,Achêne,5.045,50.266,33
24,Achet,5.175,50.333,20
24,Acosse,5.049,50.594,24
66,Adegem,3.486,51.203,39
39,Adinkerke,2.603,51.075,20
28,Agimont,4.793,50.164,28
33,Aineffe,5.257,50.622,33
28,Aische-en-Refail,4.836,50.6,28
46,Aiseau,4.587,50.41,20
46,Alken,5.306,50.875,20
66,Alle,4.971,49.842,46
79,Alleur,5.507,50.667,33
94,Alveringem,2.707,51.012,55
94,Amay,5.325,50.551,46
24,Ambly,5.313,50.142,20
79,Amonines,5.556,50.266,55
33,Ampsin,5.287,50.54,20
112,Anderlues,4.271,50.407,66
24,Andrimont,5.883,50.614,20
24,Angreau,3.691,50.351,24
112,Anhée,4.877,50.31,46
79,Anlier,5.62,49.771,33
33,Anloy,5.221,49.95,24
33,Ans,5.54,50.653,20
39,Anseremme,4.908,50.238,20
112,Anthée,4.761,50.24,66
33,Antheit,5.236,50.551,28
46,Antoing,3.449,50.566,39
66,Antwerpen,4.399,51.221,24
39,Anvaing,3.561,50.683,28
46,Appels,4.067,51.03,20
24,Appelterre-Eichem,3.966,50.819,24
33,Arbrefontaine,5.835,50.301,20
55,Ardooie,3.198,50.978,33
94,Arendonk,5.087,51.321,66
2450,Arlon,5.817,49.684,685
55,Arquennes,4.273,50.568,28
39,Arville,5.317,50.032,28
79,As,5.589,51.007,46
24,Aspelare,3.957,50.842,24
39,Asper,3.653,50.913,33
134,Asse,4.201,50.91,66
24,Assebroek,3.252,51.195,20
66,Assenede,3.753,51.227,24
39,Assenois,5.465,49.801,33
24,Assent,5.014,50.952,20
24,Assesse,5.023,50.371,24
276,Ath,3.774,50.629,94
28,Athis,3.776,50.365,20
276,Athus,5.83,49.561,94
28,Attenhoven,5.09,50.768,20
66,Attenrode,4.923,50.877,28
39,Attert,5.784,49.752,39
134,Aubel,5.858,50.705,55
24,Aublain,4.409,50.067,24
39,Auby-sur-Semois,5.182,49.816,39
33,Aulnois,3.903,50.34,33
79,Autelbas,5.871,49.65,28
28,Autreppe,3.735,50.349,28
112,Auvelais,4.632,50.447,55
33,Avekapelle,2.733,51.066,33
24,Averbode,4.98,51.033,24
94,Avin,5.067,50.621,33
79,Awenne,5.306,50.074,39
39,Aye,5.299,50.224,20
28,Ayeneux,5.714,50.609,20
24,Baaigem,3.718,50.933,20
33,Baal,4.753,50.996,33
33,Baardegem,4.142,50.955,24
55,Baasrode,4.165,51.039,20
39,Bachte-Maria-Leerne,3.58,51.009,28
46,Baileux,4.375,50.03,28
28,Bailièvre,4.238,50.069,28
39,Bailleul,3.317,50.669,20
39,Baillonville,5.34,50.29,39
46,Balegem,3.79,50.925,46
55,Balen,5.175,51.172,28
28,Bande,5.415,50.167,28
160,Barvaux,5.495,50.351,94
46,Barvaux-Condroz,5.261,50.329,46
39,Bas-Oha,5.187,50.522,20
66,Basse-Bodeux,5.825,50.359,55
46,Bassevelde,3.676,51.23,39
66,Bassilly,3.937,50.673,24
331,Bastogne,5.718,50.002,192
33,Battice,5.822,50.648,33
79,Baudour,3.835,50.485,33
28,Bauffe,3.852,50.568,20
28,Baulers,4.352,50.613,20
134,Bavegem,3.866,50.945,46
55,Bazel,4.3,51.147,20
134,Beaufays,5.636,50.563,46
192,Beaumont,4.235,50.237,94
46,Beauraing,4.956,50.11,46
24,Beausaint,5.553,50.169,20
33,Beclers,3.504,50.621,24
28,Beek,5.603,51.155,20
79,Beerse,4.855,51.314,46
28,Beerst,2.886,51.058,20
28,Beert,4.179,50.739,24
39,Beervelde,3.878,51.08,24
46,Beerzel,4.671,51.057,28
24,Beez,4.922,50.469,20
66,Begijnendijk,4.782,51.02,20
39,Beho,5.997,50.221,39
79,Bekkevoort,4.977,50.943,28
33,Bellefontaine,5.497,49.666,33
39,Bellegem,3.28,50.778,28
24,Bellem,3.491,51.088,20
94,Bellevaux,5.111,49.84,33
112,Bellevaux-Ligneuville,6.055,50.375,28
55,Belœil,3.734,50.55,39
33,Belsele,4.088,51.146,28
28,Berbroek,5.208,50.95,24
28,Berchem,3.514,50.789,28
55,Beringen,5.225,51.048,28
55,Berlare,4.004,51.025,33
39,Berloz,5.211,50.699,24
28,Berneau,5.731,50.743,20
24,Bernissart,3.651,50.476,24
66,Bersillies-l'Abbaye,4.152,50.262,39
55,Bertem,4.63,50.866,33
28,Bertogne,5.667,50.083,28
397,Bertrix,5.256,49.855,230
24,Beselare,3.025,50.848,24
28,Betekom,4.781,50.985,20
33,Beuzet,4.745,50.534,20
39,Bevel,4.682,51.137,20
160,Beveren,2.642,50.939,55
39,Beveren,3.145,50.968,20
66,Beveren,3.346,50.875,33
66,Beverlo,5.22,51.087,66
39,Beverst,5.474,50.892,20
28,Beyne-Heusay,5.651,50.623,20
46,Bierbeek,4.757,50.828,33
46,Bierset,5.449,50.654,28
94,Bièvre,5.022,49.938,55
33,Bikschote,2.865,50.926,24
39,Bilzen,5.518,50.871,39
79,Binche,4.166,50.411,55
33,Binkom,4.883,50.871,24
33,Bioul,4.799,50.334,33
24,Bissegem,3.227,50.823,20
39,Blaimont,4.835,50.192,39
55,Blandain,3.303,50.625,39
28,Blanden,4.718,50.828,28
66,Blankenberge,3.133,51.311,66
28,Blaregnies,3.898,50.357,28
46,Blaugies,3.805,50.373,20
79,Bleid,5.627,49.569,24
55,Blicquy,3.685,50.588,33
66,Bocholt,5.579,51.174,28
28,Boechout,4.497,51.164,20
94,Boekhoute,3.718,51.258,24
24,Boëlhe,5.168,50.684,24
24,Boezinge,2.856,50.896,24
46,Bogaarden,4.135,50.74,20
112,Bohan,4.886,49.864,94
33,Boignée,4.614,50.502,20
39,Bois-de-Lessines,3.888,50.697,28
55,Bois-de-Villers,4.824,50.39,55
46,Bois-d'Haine,4.217,50.503,20
33,Bois-et-Borsu,5.337,50.397,33
55,Bolland,5.762,50.662,20
33,Bomal,5.524,50.379,24
39,Bommershoven,5.381,50.785,20
39,Boncelles,5.536,50.575,20
66,Boneffe,4.957,50.624,28
46,Bonheiden,4.549,51.022,33
24,Bonnert,5.819,49.711,24
24,Bonneville,5.034,50.471,20
24,Bon-Secours,3.607,50.497,20
79,Bonsin,5.38,50.371,55
79,Booischot,4.779,51.053,24
46,Boom,4.366,51.088,46
24,Boorsem,5.72,50.941,20
24,Boortmeerbeek,4.572,50.982,20
24,Borgerhout,4.442,51.215,20
28,Borgloon,5.343,50.802,28
24,Borlez,5.246,50.633,24
24,Borlo,5.181,50.742,20
55,Bornem,4.242,51.1,55
24,Borsbeek,4.485,51.194,20
33,Borsbeke,3.894,50.905,20
28,Bossut-Gottechain,4.695,50.762,20
39,Bost,4.941,50.79,20
66,Bottelare,3.755,50.963,24
33,Bouge,4.894,50.472,20
28,Bougnies,3.941,50.387,24
94,Bouillon,5.068,49.795,94
66,Bourseigne-Neuve,4.855,50.025,55
79,Boussu,3.796,50.434,33
33,Boussu-en-Fagne,4.472,50.076,20
39,Bousval,4.508,50.617,28
33,Bouvignes-sur-Meuse,4.897,50.273,20
24,Bouvignies,3.766,50.647,20
55,Bouwel,4.743,51.17,24
33,Bovekerke,2.963,51.054,28
28,Bovesse,4.779,50.517,20
134,Bovigny,5.917,50.225,46
66,Bra,5.732,50.324,33
33,Braibant,5.062,50.313,20
331,Braine-l'Alleud,4.369,50.683,94
33,Braine-le-Château,4.269,50.682,28
134,Braine-le-Comte,4.137,50.611,112
112,Bras,5.395,49.971,46
28,Brasmenil,3.547,50.542,24
192,Brasschaat,4.486,51.288,46
28,Bray,4.106,50.431,20
33,Bredene,2.965,51.24,24
192,Bree,5.597,51.142,79
33,Breendonk,4.326,51.044,20
28,Bressoux,5.609,50.642,20
24,Brielen,2.849,50.868,20
46,Broechem,4.604,51.181,33
79,Brugelette,3.852,50.595,39
33,Brûly,4.527,49.969,33
33,Brussegem,4.267,50.927,20
100000,Bruxelles/Brussel,4.352,50.847,100000
28,Brustem,5.219,50.802,20
39,Budingen,5.104,50.864,20
94,Buggenhout,4.203,51.015,79
66,Buissonville,5.199,50.217,46
24,Buken,4.618,50.937,20
33,Bulskamp,2.651,51.043,24
33,Bunsbeek,4.945,50.843,28
33,Burdinne,5.073,50.583,33
33,Bure,5.259,50.089,33
24,Buvingen,5.176,50.752,20
39,Buvrinnes,4.209,50.389,20
28,Buzenol,5.595,49.647,20
112,Buzet,4.367,50.538,46
28,Cambron-Saint-Vincent,3.917,50.582,20
33,Carlsbourg,5.083,49.894,28
112,Casteau,4.015,50.513,46
46,Castillon,4.353,50.247,39
33,Celles,3.458,50.71,33
66,Celles,5.008,50.229,46
79,Cerfontaine,4.413,50.17,79
24,Chairière,4.947,49.862,24
24,Champion,4.902,50.498,20
55,Champlon,5.503,50.107,55
33,Chantemelle,5.652,49.653,20
33,Chapelle-à-Wattines,3.656,50.612,20
46,Chapelle-lez-Herlaimont,4.28,50.471,46
33,Charneux,5.805,50.669,20
24,Chassepierre,5.263,49.707,24
24,Chastrès,4.459,50.264,20
39,Châtelet,4.524,50.405,33
39,Chaudfontaine,5.647,50.585,20
66,Chaumont-Gistoux,4.698,50.684,46
33,Chaussée-Notre-Dame-Louvignies,3.999,50.592,20
28,Cherain,5.865,50.181,28
39,Cheratte,5.675,50.685,20
46,Chevetogne,5.12,50.223,46
33,Chevron,5.73,50.381,33
28,Chièvres,3.81,50.587,28
160,Chimay,4.315,50.049,160
46,Chiny,5.341,49.738,28
24,Ciergnon,5.089,50.167,24
160,Ciney,5.101,50.297,94
28,Ciplet,5.095,50.617,28
33,Ciply,3.944,50.42,20
28,Clermont,4.316,50.26,28
24,Cognelée,4.904,50.514,20
94,Comblain-au-Pont,5.576,50.476,66
39,Comblain-Fairon,5.543,50.445,20
46,Corbion,5.007,49.798,33
24,Corenne,4.68,50.252,24
33,Corroy-le-Château,4.655,50.536,20
24,Corroy-le-Grand,4.674,50.661,20
33,Cortil-Noirmont,4.64,50.587,24
39,Cortil-Wodon,4.955,50.566,24
24,Couillet,4.469,50.392,20
39,Courcelles,4.376,50.458,39
55,Courrière,4.984,50.378,24
39,Cour-sur-Heure,4.389,50.3,20
33,Couthuin,5.14,50.529,24
28,Coutisse,5.116,50.463,24
28,Couture-Saint-Germain,4.479,50.674,20
79,Couvin,4.492,50.056,79
24,Cras-Avernas,5.122,50.698,20
39,Crombach,6.068,50.259,33
28,Crupet,4.961,50.348,28
39,Cuesmes,3.923,50.436,20
476,Cul-des-Sarts,4.455,49.962,79
33,Dailly,4.436,50.058,28
46,Daknam,3.98,51.125,20
24,Dampicourt,5.498,49.554,20
24,Darion,5.187,50.665,24
24,Daussois,4.454,50.222,24
39,De Klinge,4.09,51.256,33
46,De Moeren,2.599,51.045,24
39,De Panne,2.588,51.097,24
46,De Pinte,3.651,50.993,46
39,Deerlijk,3.353,50.852,33
33,Deftinge,3.842,50.786,20
24,Denderbelle,4.084,51.001,20
33,Denderhoutem,4.019,50.872,33
66,Denderleeuw,4.081,50.883,46
39,Denderwindeke,4.025,50.798,28
66,Denée,4.75,50.316,46
66,Dentergem,3.419,50.964,33
112,Dessel,5.112,51.239,39
24,Desselgem,3.35,50.886,20
39,Destelbergen,3.798,51.056,28
46,Desteldonk,3.781,51.122,20
24,Deurne,5.096,51.038,24
33,Deux-Acren,3.851,50.731,20
55,Dhuy,4.858,50.56,28
24,Diegem,4.436,50.894,20
28,Diepenbeek,5.42,50.908,28
134,Diest,5.05,50.985,134
55,Dikkebus,2.833,50.82,28
33,Dikkelvenne,3.691,50.918,33
160,Diksmuide,2.865,51.034,79
55,Dilbeek,4.264,50.848,33
112,Dilsen,5.726,51.037,46
39,Dion,4.889,50.118,20
33,Dion-le-Mont,4.66,50.698,24
33,Dion-le-Val,4.662,50.716,20
39,Dison,5.855,50.608,20
46,Dochamps,5.622,50.235,39
55,Dohan,5.142,49.796,39
24,Doische,4.745,50.136,24
55,Dolembreux,5.625,50.537,20
24,Donceel,5.321,50.648,24
39,Dongelberg,4.82,50.702,24
66,Dorinne,4.973,50.317,46
55,Dottignies,3.306,50.729,46
55,Dour,3.78,50.396,46
39,Dourbes,4.593,50.089,24
66,Dranouter,2.783,50.766,39
79,Drieslinter,5.047,50.844,55
46,Drongen,3.665,51.05,28
134,Dudzele,3.228,51.275,46
24,Duisburg,4.552,50.816,20
33,Durbuy,5.457,50.353,20
39,Durnal,4.985,50.337,39
46,Dworp,4.3,50.729,24
33,Ébly,5.54,49.852,33
33,Edegem,4.445,51.155,33
276,Eeklo,3.566,51.185,112
134,Eernegem,3.027,51.13,55
134,Éghezée,4.906,50.592,55
28,Eigenbilzen,5.574,50.875,24
79,Eindhout,5.003,51.106,39
46,Eke,3.642,50.956,46
55,Ekeren,4.418,51.277,46
55,Eksaarde,3.966,51.149,39
55,Elen,5.759,51.066,24
46,Elewijt,4.498,50.96,39
79,Ellemelle,5.443,50.466,24
66,Ellezelles,3.681,50.734,39
33,Ellignies-Sainte-Anne,3.673,50.562,28
55,Ellikom,5.524,51.13,33
39,Elsenborn,6.22,50.458,28
55,Elverdinge,2.816,50.885,33
28,Elversele,4.138,51.115,20
39,Emblem,4.607,51.163,20
33,Emptinne,5.121,50.326,20
79,Engis,5.404,50.583,33
24,Énines,4.926,50.695,20
28,Épinois,4.204,50.403,20
28,Eppegem,4.456,50.962,20
66,Éprave,5.162,50.141,39
24,Ère,3.367,50.582,20
24,Erembodegem,4.058,50.92,20
24,Erpe,3.977,50.934,20
46,Erpent,4.907,50.451,20
33,Erpion,4.356,50.212,33
66,Erps-Kwerps,4.558,50.905,66
39,Ertvelde,3.747,51.179,33
28,Erwetegem,3.814,50.855,20
33,Escanaffles,3.447,50.756,20
39,Esneux,5.568,50.534,33
160,Essen,4.472,51.465,160
39,Estaimpuis,3.264,50.706,20
24,Estinnes-au-Mont,4.098,50.397,20
39,Èthe,5.58,49.58,24
24,Etterbeek,4.387,50.836,20
33,Eugies,3.887,50.39,20
28,Évegnée-Tignée,5.705,50.65,20
55,Évelette,5.174,50.412,24
134,Evergem,3.708,51.111,46
28,Évrehailles,4.912,50.32,20
33,Eynatten,6.082,50.693,20
28,Ezemaal,5,50.777,20
28,Fagnolle,4.57,50.105,24
66,Falaën,4.794,50.279,46
134,Fallais,5.171,50.61,39
66,Falmignoul,4.891,50.204,39
24,Familleureux,4.211,50.522,20
46,Farciennes,4.549,50.429,20
39,Faulx-les-Tombes,5.019,50.427,33
33,Fauvillers,5.667,49.851,33
24,Faymonville,6.14,50.405,20
24,Fays-les-Veneurs,5.162,49.866,24
24,Fayt-lez-Manage,4.227,50.49,20
55,Felenne,4.848,50.07,28
46,Ferrières,5.606,50.4,39
24,Feschaux,4.911,50.151,24
28,Fexhe-Slins,5.571,50.722,28
24,Filot,5.568,50.427,20
24,Finnevaux,4.945,50.159,24
33,Fize-le-Marsal,5.386,50.701,20
33,Flavion,4.712,50.249,33
33,Flawinne,4.81,50.457,20
39,Fleurus,4.552,50.488,39
55,Florée,5.07,50.372,28
79,Florennes,4.602,50.251,79
276,Florenville,5.31,49.701,112
24,Floriffoux,4.77,50.452,20
112,Focant,5.038,50.132,46
39,Folx-les-Caves,4.937,50.662,20
33,Fontaine-l'Évêque,4.324,50.412,28
28,Forchies-la-Marche,4.319,50.438,28
46,Forges,4.32,50.022,20
66,Forrières,5.279,50.132,24
24,Forville,5.002,50.575,24
55,Fosses-la-Ville,4.697,50.397,39
55,Fourbechies,4.311,50.164,55
331,Fraire,4.508,50.261,112
94,Frameries,3.893,50.41,33
28,Framont,5.161,49.919,20
46,Franchimont,4.64,50.19,46
66,Francorchamps,5.95,50.454,39
66,Franière,4.728,50.44,28
66,Frasnes-lez-Buissenal,3.619,50.667,55
55,Froidfontaine,5,50.06,39
55,Froidmont,3.328,50.578,33
55,Fronville,5.422,50.294,20
28,Froyennes,3.355,50.621,20
46,Fumal,5.185,50.587,28
33,Furnaux,4.706,50.308,24
24,Gages,3.891,50.607,20
24,Gallaix,3.576,50.606,20
33,Galmaarden,3.971,50.754,33
55,Gaurain-Ramecroix,3.487,50.591,46
24,Gavere,3.66,50.928,24
66,Gedinne,4.937,49.981,66
94,Geel,4.987,51.161,94
28,Geest-Gérompont-Petit-Rosière,4.871,50.644,28
33,Geetbets,5.115,50.891,33
46,Gelbressée,4.954,50.51,28
79,Gelinden,5.263,50.767,39
33,Gelrode,4.803,50.966,20
79,Geluveld,2.994,50.835,39
33,Geluwe,3.077,50.81,20
28,Gembes,5.064,49.997,28
66,Gemmenich,5.995,50.746,24
28,Genappe,4.451,50.613,20
476,Genk,5.495,50.965,276
24,Gentinnes,4.603,50.581,20
46,Gerin,4.816,50.246,46
33,Gérouville,5.426,49.619,33
160,Gerpinnes,4.528,50.338,46
55,Gesves,5.066,50.406,28
46,Ghlin,3.902,50.476,24
33,Ghoy,3.81,50.728,20
24,Gibecq,3.888,50.638,24
46,Gierle,4.867,51.267,28
66,Gijverinkhove,2.675,50.975,28
94,Gijzegem,4.054,50.985,20
39,Gijzelbrechtegem,3.506,50.828,39
39,Gijzenzele,3.815,50.971,28
28,Gilly,4.479,50.429,20
33,Gimnée,4.714,50.132,33
46,Gingelom,5.135,50.75,28
55,Gistel,2.961,51.154,39
33,Gits,3.096,50.997,24
79,Givry,4.029,50.38,33
39,Glabais,4.453,50.63,20
55,Glimes,4.838,50.68,33
39,Glons,5.546,50.751,39
112,Gochenée,4.76,50.184,79
79,Godinne,4.866,50.35,79
46,Goegnies-Chaussée,3.946,50.343,39
46,Gondregnies,3.911,50.627,33
24,Gonrieux,4.426,50.036,24
28,Gontrode,3.798,50.984,20
94,Gooik,4.114,50.795,39
39,Gorsem,5.164,50.833,20
55,Gors-Opleeuw,5.396,50.823,20
24,Gottignies,4.062,50.496,20
33,Gougnies,4.578,50.354,28
28,Gouy-lez-Piéton,4.328,50.487,24
33,Gozée,4.351,50.333,33
39,Graide,5.067,49.951,39
39,Grand-Axhe,5.224,50.679,20
79,Grand-Halleux,5.908,50.326,33
24,Grand-Leez,4.766,50.581,24
134,Grand-Reng,4.069,50.328,66
66,Grandrieu,4.172,50.201,33
24,Grand-Rosière-Hottomont,4.867,50.632,24
28,Graux,4.719,50.325,28
39,Grembergen,4.107,51.054,28
79,Grez-Doiceau,4.696,50.739,46
33,Grimbergen,4.372,50.932,28
33,Grivegnée,5.604,50.619,20
39,Grote-Brogel,5.505,51.153,24
112,Gruitrode,5.587,51.089,39
112,Grune,5.382,50.156,46
46,Guirsch,5.852,49.718,28
39,Gutschoven,5.318,50.771,20
24,Haacht,4.636,50.97,24
46,Haaltert,4.005,50.902,28
33,Haasdonk,4.241,51.181,28
112,Habay-la-Neuve,5.654,49.732,79
46,Hachy,5.681,49.701,24
28,Hacquegnies,3.593,50.653,20
28,Haillot,5.149,50.441,20
33,Hakendover,4.981,50.794,20
66,Halanzy,5.741,49.561,46
33,Halen,5.114,50.948,33
112,Halle,4.233,50.735,55
46,Halle,4.643,51.242,33
33,Halle-Booienhoven,5.107,50.807,33
66,Hamme,4.138,51.098,55
24,Hamme,4.276,50.914,20
160,Hamoir,5.528,50.426,112
66,Hamois,5.15,50.343,33
55,Hamont,5.546,51.251,55
46,Ham-sur-Heure,4.393,50.322,46
28,Hanret,4.944,50.583,20
46,Hansbeke,3.535,51.075,39
33,Han-sur-Lesse,5.187,50.126,28
28,Hanzinne,4.543,50.31,24
55,Harchies,3.693,50.479,20
28,Hargimont,5.308,50.184,20
39,Harmignies,4.018,50.404,20
28,Harre,5.659,50.351,28
79,Harzé,5.668,50.44,33
28,Hastière-Lavaux,4.821,50.213,28
33,Hatrival,5.348,50.007,20
46,Haulchin,4.082,50.384,24
33,Hauset,6.071,50.708,28
276,Haut-Fays,5.018,50.001,66
28,Haut-Ittre,4.298,50.653,24
276,Havelange,5.245,50.386,79
94,Havré,4.045,50.464,39
55,Hechtel,5.366,51.125,55
46,Heer,4.832,50.163,46
33,Heers,5.295,50.753,33
24,Heestert,3.411,50.782,20
33,Heist,3.236,51.339,20
46,Heist-op-den-Berg,4.728,51.076,46
46,Hekelgem,4.109,50.908,20
55,Helchteren,5.384,51.056,20
28,Hemiksem,4.345,51.144,28
24,Hemptinne,4.562,50.229,24
24,Hennuyères,4.169,50.639,20
28,Henri-Chapelle,5.932,50.676,20
33,Henripont,4.184,50.597,24
55,Hensies,3.685,50.432,20
28,Heppen,5.229,51.109,20
46,Heppenbach,6.218,50.363,46
33,Heppignies,4.493,50.485,20
112,Herbeumont,5.237,49.782,55
55,Herchies,3.858,50.529,33
39,Herderen,5.573,50.808,39
24,Herdersem,4.067,50.972,20
230,Herentals,4.841,51.178,112
28,Herk-de-Stad,5.166,50.935,28
33,Hermalle-sous-Argenteau,5.681,50.71,20
39,Hermalle-sous-Huy,5.362,50.558,20
28,Herne,4.029,50.724,20
46,Herseaux,3.232,50.723,20
24,Herselt,4.88,51.053,24
66,Herstal,5.63,50.665,28
24,Hertain,3.289,50.613,20
33,Hertsberge,3.273,51.105,33
24,Herve,5.794,50.639,24
112,Herzele,3.893,50.885,55
33,Heule,3.235,50.844,20
39,Heure,5.296,50.294,39
28,Heure-le-Romain,5.629,50.732,24
55,Heurne,3.628,50.883,20
24,Heusden,5.282,51.034,24
28,Heusy,5.866,50.577,20
79,Hever,4.556,50.992,33
24,Heverlee,4.693,50.864,20
46,Heyd,5.56,50.347,33
24,Hingene,4.269,51.104,20
66,Hives,5.579,50.15,24
66,Hoboken,4.35,51.177,33
28,Hodeige,5.34,50.698,20
33,Hoegaarden,4.888,50.774,28
160,Hoeilaart,4.473,50.766,66
39,Hoeleden,4.986,50.868,24
46,Hoepertingen,5.285,50.812,24
39,Hoeselt,5.487,50.85,39
24,Hoevenen,4.404,51.307,20
46,Hofstade,4.035,50.961,20
39,Hofstade,4.493,50.991,24
39,Hognoul,5.454,50.681,28
24,Hollain,3.427,50.538,24
33,Hollebeke,2.936,50.806,20
33,Holsbeek,4.756,50.921,20
28,Hombeek,4.442,51.015,20
24,Hombourg,5.92,50.723,20
39,Honnay,5.039,50.081,39
66,Hooglede,3.083,50.979,28
79,Horion-Hozémont,5.397,50.624,33
24,Hornu,3.828,50.434,20
28,Horpmaal,5.333,50.759,20
28,Horrues,4.043,50.609,24
112,Hotton,5.449,50.27,55
24,Houdeng-Goegnies,4.156,50.488,20
33,Houdremont,4.944,49.942,33
192,Houffalize,5.79,50.13,94
24,Hour,5.037,50.161,24
66,Houtaing,3.682,50.638,28
33,Houtain-le-Val,4.416,50.582,20
39,Houtave,3.111,51.236,33
79,Houtem,2.606,51.012,46
134,Houthalen,5.378,51.031,55
46,Houthem,2.965,50.787,39
24,Houtvenne,4.809,51.042,20
24,Houwaart,4.861,50.935,20
112,Houyet,5.007,50.187,55
46,Hoves,4.035,50.671,20
39,Huccorgne,5.165,50.567,20
28,Huissignies,3.755,50.565,28
33,Huizingen,4.276,50.746,24
33,Huldenberg,4.584,50.789,24
24,Hulshout,4.788,51.076,24
33,Hulsonniaux,4.948,50.202,33
24,Huppaye,4.892,50.692,24
397,Huy,5.241,50.518,160
28,Hyon,3.964,50.44,20
66,Ichtegem,3.01,51.092,46
55,Idegem,3.927,50.801,28
94,Ieper,2.886,50.851,94
33,Ingelmunster,3.256,50.92,20
28,Isières,3.819,50.663,24
55,Isnes,4.739,50.509,20
55,Itegem,4.729,51.103,24
24,Ittre,4.263,50.649,20
39,Ivoz-Ramet,5.465,50.589,20
66,Izegem,3.214,50.92,46
33,Izel,5.373,49.695,33
24,Izenberge,2.655,50.993,24
33,Izier,5.579,50.384,33
33,Jabbeke,3.095,51.183,33
79,Jalhay,5.968,50.559,55
46,Jamagne,4.532,50.218,20
79,Jamioulx,4.414,50.354,28
28,Jamoigne,5.419,49.695,28
94,Jauche,4.955,50.682,46
28,Jehonville,5.2,49.907,28
33,Jemeppe,4.668,50.466,33
46,Jemeppe,5.504,50.616,33
66,Jeneffe,5.356,50.654,20
33,Jesseren,5.391,50.806,24
66,Jette,4.328,50.88,24
66,Jeuk,5.209,50.734,33
134,Jodoigne,4.867,50.724,66
24,Joncret,4.513,50.353,20
55,Jumet,4.435,50.44,20
79,Juprelle,5.528,50.711,28
46,Juseret,5.548,49.88,46
24,Kachtem,3.192,50.932,20
55,Kain,3.381,50.638,24
24,Kalken,3.919,51.037,20
55,Kallo,4.277,51.252,28
276,Kalmthout,4.477,51.383,134
79,Kampenhout,4.55,50.941,28
33,Kanegem,3.402,51.013,20
28,Kanne,5.674,50.814,28
66,Kapellen,4.433,51.319,66
39,Kaprijke,3.617,51.218,28
39,Kasterlee,4.968,51.241,33
39,Kaulille,5.518,51.188,39
46,Keerbergen,4.633,51.004,46
55,Keiem,2.882,51.081,39
28,Kemmel,2.824,50.78,28
28,Kemzeke,4.079,51.207,20
39,Kerkom,4.871,50.854,20
24,Kerkom-bij-Sint-Truiden,5.181,50.774,24
24,Kerksken,3.992,50.89,20
66,Kermt,5.253,50.948,39
24,Kerniel,5.363,50.816,20
28,Kersbeek-Miskom,4.994,50.887,24
39,Kessel,4.629,51.139,20
28,Kessel-Lo,4.737,50.892,20
112,Kessenich,5.825,51.151,46
66,Kester,4.12,50.764,46
28,Kettenis,6.045,50.646,20
66,Kieldrecht,4.176,51.289,55
66,Kinrooi,5.741,51.145,39
33,Kleine-Brogel,5.45,51.172,24
24,Klemskerke,3.025,51.242,24
24,Klerken,2.904,50.997,20
28,Kluizen,3.733,51.155,20
33,Koersel,5.273,51.059,20
79,Koksijde,2.634,51.119,79
28,Koningshooikt,4.61,51.095,20
28,Koninksem,5.442,50.766,20
33,Kontich,4.446,51.135,33
55,Koolkerke,3.249,51.242,28
33,Koolskamp,3.209,51.002,33
39,Korbeek-Lo,4.763,50.86,28
39,Kortenaken,5.061,50.909,39
39,Kortenberg,4.539,50.886,20
112,Kortrijk,3.265,50.828,94
46,Kortrijk-Dutsel,4.805,50.926,24
24,Kozen,5.239,50.875,20
46,Krombeke,2.689,50.915,46
24,Kruibeke,4.313,51.171,20
33,Kumtich,4.886,50.818,24
33,Kuringen,5.306,50.944,20
46,Kuurne,3.286,50.85,46
28,Kwaremont,3.524,50.777,20
33,La Glanerie,3.303,50.531,20
55,La Gleize,5.846,50.41,46
24,La Reid,5.791,50.489,24
94,La Roche-en-Ardenne,5.575,50.181,94
55,Laarne,3.85,51.03,20
55,Labuissière,4.185,50.316,55
33,Lacuisine,5.318,49.716,20
46,Lahamaide,3.726,50.695,33
46,Lamain,3.292,50.597,20
28,Lambusart,4.552,50.456,20
79,Lamorteau,5.479,49.526,33
39,Lanaye,5.694,50.782,20
39,Landegem,3.573,51.057,28
24,Landenne,5.065,50.514,20
24,Laneffe,4.494,50.278,24
24,Langdorp,4.87,50.993,20
134,Langemark,2.918,50.915,39
46,Lanklaar,5.721,51.014,20
39,Lantin,5.524,50.688,20
79,Laplaigne,3.448,50.52,79
66,Lapscheure,3.357,51.278,24
24,Lasne-Chapelle-Saint-Lambert,4.484,50.686,20
33,Lathuy,4.824,50.723,24
33,Latour,5.57,49.557,20
55,Lauw,5.415,50.74,20
28,Lauwe,3.186,50.794,20
66,Lavacherie,5.511,50.053,66
46,Lavaux-Sainte-Anne,5.094,50.114,28
112,Le Mesnil,4.672,50.031,66
24,Le Roux,4.624,50.388,20
55,Lebbeke,4.128,51,46
28,L'Écluse,4.832,50.772,28
66,Lede,3.978,50.967,33
33,Ledeberg,3.742,51.037,20
28,Leefdaal,4.591,50.848,20
24,Leerbeek,4.119,50.776,24
39,Leernes,4.332,50.397,20
33,Leers-et-Fosteau,4.245,50.304,28
39,Leers-Nord,3.27,50.687,33
24,Leest,4.419,51.033,24
33,Leeuwergem,3.83,50.888,20
28,Leffinge,2.877,51.175,20
33,Léglise,5.536,49.799,33
55,Leignon,5.11,50.27,20
39,Leisele,2.621,50.984,39
39,Leke,2.891,51.101,33
39,Lembeek,4.223,50.714,20
55,Lembeke,3.632,51.195,33
24,Lendelede,3.239,50.886,24
55,Lens,3.903,50.556,55
46,Lens-Saint-Remy,5.133,50.655,33
66,Leopoldsburg,5.263,51.12,66
24,Les Avins,5.299,50.415,24
112,Lessines,3.829,50.712,46
39,Lesterny,5.281,50.112,20
24,Lesve,4.779,50.374,24
28,Leugnies,4.196,50.225,20
55,Leut,5.736,50.992,24
55,Leuze,4.91,50.56,46
134,Leuze,3.621,50.601,79
46,Leval-Trahegnies,4.224,50.425,20
112,Libin,5.256,49.981,94
112,Libramont,5.377,49.915,66
28,Liedekerke,4.084,50.87,28
33,Liège,5.576,50.645,20
79,Lier,4.57,51.131,66
79,Lierneux,5.795,50.284,79
24,Liernu,4.827,50.584,24
24,Liers,5.564,50.693,20
33,Liezele,4.281,51.06,20
79,Lillois-Witterzée,4.362,50.646,28
46,Limal,4.574,50.693,20
55,Limbourg,5.942,50.62,33
28,Limerlé,5.924,50.158,28
24,Lincent,5.033,50.714,24
79,Linkhout,5.137,50.966,46
55,Linsmeau,5.003,50.732,20
66,Lint,4.494,51.127,24
33,Lippelo,4.263,51.043,20
39,Lissewege,3.199,51.294,33
33,Lixhe,5.679,50.755,20
94,Lochristi,3.831,51.096,55
24,Loenhout,4.644,51.399,24
33,Loker,2.772,50.782,33
112,Lokeren,3.989,51.104,79
24,Loksbergen,5.07,50.935,24
55,Lombise,3.939,50.599,28
24,Lommersweiler,6.165,50.239,24
55,Londerzeel,4.302,51,55
112,Longchamps,5.69,50.053,39
28,Longchamps,4.898,50.578,20
28,Longlier,5.456,49.854,20
39,Longvilly,5.836,50.025,39
24,Lonzée,4.727,50.553,20
33,Loppem,3.195,51.155,20
46,Lorcé,5.735,50.417,46
39,Lot,4.278,50.763,20
79,Lotenhulle,3.46,51.05,33
46,Louette-Saint-Denis,4.957,49.959,46
39,Loverval,4.473,50.375,20
33,Loyers,4.95,50.464,28
112,Lubbeek,4.839,50.883,55
66,Luttre,4.396,50.509,33
24,Maarke-Kerkem,3.654,50.816,20
331,Maaseik,5.792,51.095,160
24,Mabompré,5.738,50.099,24
24,Machelen,4.433,50.913,20
28,Machelen,3.484,50.96,24
39,Macon,4.21,50.052,24
134,Macquenoise,4.178,49.976,46
46,Maffe,5.312,50.354,33
33,Maffle,3.804,50.616,20
24,Mainvault,3.717,50.649,24
46,Maisières,3.965,50.488,24
46,Maissin,5.18,49.965,39
24,Maizeret,4.979,50.46,20
39,Mal,5.522,50.768,28
28,Maldegem,3.445,51.209,28
24,Malderen,4.243,51.02,20
33,Malempré,5.716,50.281,33
39,Malèves-Sainte-Marie-Wastines,4.78,50.657,20
46,Malonne,4.795,50.437,28
33,Malvoisin,4.96,50.012,33
112,Manderfeld,6.341,50.33,79
33,Mannekensvere,2.818,51.126,28
33,Marbais,4.533,50.545,20
33,Marche-en-Famenne,5.34,50.226,20
33,Marche-lez-Écaussinnes,4.182,50.546,20
24,Marchienne-au-Pont,4.396,50.407,24
24,Marchin,5.226,50.48,24
28,Mariakerke,3.676,51.073,20
39,Mariekerke,4.19,51.06,20
276,Mariembourg,4.522,50.095,230
24,Marilles,4.953,50.708,20
33,Marke,3.233,50.808,20
33,Markegem,3.403,50.946,20
24,Marquain,3.322,50.607,20
24,Martelange,5.735,49.831,24
28,Martouzin-Neuville,5.005,50.117,24
28,Masnuy-Saint-Pierre,3.959,50.537,24
33,Massemen,3.872,50.981,20
28,Massenhoven,4.636,51.199,20
55,Matagne-la-Grande,4.623,50.117,39
46,Maulde,3.549,50.617,28
39,Maurage,4.101,50.456,20
28,Mazenzele,4.172,50.943,20
46,Mazy,4.676,50.513,39
230,Mechelen,4.481,51.028,134
192,Mechelen-aan-de-Maas,5.696,50.963,112
39,Meeffe,5.016,50.609,39
28,Meensel-Kiezegem,4.924,50.896,24
79,Meer,4.736,51.443,28
28,Meerdonk,4.147,51.26,28
55,Meerhout,5.077,51.133,39
66,Meerle,4.804,51.474,55
28,Meilegem,3.698,50.905,20
94,Meise,4.328,50.934,20
66,Meix-devant-Virton,5.479,49.605,33
39,Meix-le-Tige,5.72,49.617,33
55,Meldert,4.134,50.932,20
33,Meldert,4.838,50.788,24
66,Meldert,5.141,50.998,33
33,Mélin,4.827,50.739,20
24,Melkwezer,5.059,50.822,20
33,Melle,3.799,51.003,28
46,Mellet,4.476,50.504,28
24,Mellier,5.519,49.768,24
28,Melsbroek,4.476,50.917,24
46,Melsen,3.693,50.958,28
24,Membach,5.995,50.619,20
24,Membruggen,5.534,50.817,20
66,Menen,3.12,50.796,66
39,Merbes-Sainte-Marie,4.171,50.356,33
33,Merchtem,4.232,50.958,33
28,Merdorp,4.999,50.65,28
94,Merelbeke,3.746,50.994,46
28,Merendree,3.577,51.078,20
66,Merkem,2.849,50.955,46
39,Merksem,4.44,51.241,20
55,Merksplas,4.863,51.358,33
33,Merlemont,4.607,50.173,33
46,Mesnil-Saint-Blaise,4.885,50.167,46
66,Messancy,5.814,49.595,28
55,Messelbroek,4.937,50.996,20
39,Mettet,4.657,50.32,39
66,Meulebeke,3.288,50.949,39
79,Meux,4.801,50.552,39
46,Middelburg,3.416,51.256,39
46,Middelkerke,2.821,51.185,39
39,Miécret,5.249,50.366,20
55,Mignault,4.153,50.529,20
55,Millen,5.561,50.785,46
33,Milmort,5.593,50.69,20
39,Modave,5.301,50.443,39
28,Moelingen,5.71,50.757,20
33,Moen,3.398,50.768,28
24,Moerbeke,3.919,50.753,24
46,Moerbeke,3.938,51.172,39
66,Moere,2.956,51.122,24
79,Moerkerke,3.339,51.246,46
24,Moerzeke,4.153,51.063,20
66,Moha,5.185,50.548,28
55,Mohiville,5.191,50.32,20
66,Moircy,5.475,49.994,55
160,Mol,5.121,51.187,112
94,Molenbaix,3.43,50.693,39
46,Molenbeersel,5.738,51.17,46
39,Molenstede,5.015,51.004,20
39,Mollem,4.228,50.931,20
33,Momalle,5.373,50.686,33
94,Momignies,4.166,50.03,94
55,Monceau-en-Ardenne,4.986,49.905,55
24,Monstreux,4.289,50.598,20
24,Mont,4.902,50.353,20
24,Montegnée,5.515,50.64,24
24,Montenaken,5.128,50.721,24
28,Mont-Gauthier,5.121,50.209,28
33,Montignies-Saint-Christophe,4.188,50.281,28
33,Mont-Sainte-Geneviève,4.233,50.375,24
66,Mont-Saint-Guibert,4.612,50.637,24
46,Mont-sur-Marchienne,4.406,50.39,28
39,Montzen,5.962,50.707,28
33,Moorsel,4.099,50.947,24
39,Moorsele,3.164,50.841,20
39,Moorslede,3.064,50.891,33
28,Moregem,3.562,50.85,20
46,Morialmé,4.565,50.275,46
46,Morkhoven,4.821,51.119,28
66,Mormont,5.592,50.326,46
24,Mornimont,4.704,50.455,20
28,Mortier,5.743,50.682,28
24,Mortroux,5.753,50.711,20
46,Mortsel,4.457,51.171,20
33,Mozet,4.987,50.441,20
28,Muizen,4.515,51.011,20
46,Munkzwalm,3.733,50.878,39
134,Muno,5.175,49.717,66
55,Munsterbilzen,5.526,50.889,55
33,Munte,3.744,50.945,20
28,Musson,5.705,49.558,28
28,Mussy-la-Ville,5.661,49.57,24
66,Naast,4.101,50.554,24
55,Nadrin,5.684,50.158,55
39,Nafraiture,4.916,49.911,39
24,Nalinnes,4.445,50.325,24
28,Naninne,4.919,50.418,28
39,Naomé,5.09,49.923,24
39,Nassogne,5.342,50.128,33
79,Natoye,5.065,50.335,33
28,Nazareth,3.597,50.96,24
55,Néchin,3.269,50.667,33
79,Nederbrakel,3.764,50.804,55
33,Nederename,3.633,50.867,20
28,Nederokkerzeel,4.565,50.919,20
24,Nederzwalm-Hermelgem,3.685,50.886,24
28,Neerharen,5.687,50.907,20
33,Neerhespen,5.053,50.794,20
24,Neerheylissem,4.991,50.758,24
33,Neerijse,4.626,50.817,33
24,Neerlanden,5.08,50.778,20
46,Neeroeteren,5.704,51.088,46
33,Neervelp,4.811,50.82,28
46,Neerwinden,5.038,50.766,20
39,Nessonvaux,5.735,50.575,39
39,Nethen,4.674,50.784,39
24,Nettinne,5.262,50.292,24
134,Neufchâteau,5.435,49.84,94
39,Neufmaison,3.793,50.53,20
39,Neufvilles,4.002,50.568,33
39,Neuville,4.522,50.174,20
33,Niel,4.326,51.109,20
46,Nieuwenrode,4.35,50.979,24
28,Nieuwerkerken,4.004,50.923,24
55,Nieuwerkerken,5.193,50.865,39
33,Nieuwkapelle,2.8,50.999,33
39,Nieuwkerke,2.827,50.746,24
39,Nieuwkerken-Waas,4.178,51.193,20
46,Nieuwmunster,3.099,51.274,20
160,Nieuwpoort,2.751,51.129,94
33,Nieuwrode,4.835,50.951,28
134,Nijlen,4.67,51.16,112
24,Nimy,3.956,50.477,20
230,Ninove,4.015,50.833,79
33,Nismes,4.549,50.075,33
79,Nivelles,4.325,50.598,79
46,Nives,5.601,49.912,46
28,Nobressart,5.719,49.739,28
28,Noduwez,4.964,50.73,24
24,Noirchain,3.932,50.401,20
39,Noirefontaine,5.093,49.821,20
39,Nokere,3.511,50.885,20
66,Nollevaux,5.121,49.87,28
33,Noorderwijk,4.84,51.141,28
39,Nothomb,5.787,49.771,39
33,Noville,5.761,50.063,33
66,Nukerke,3.595,50.797,33
28,Obourg,4.009,50.474,28
79,Ochamps,5.277,49.925,46
28,Ocquier,5.395,50.396,28
79,Odeigne,5.68,50.259,55
66,Oedelem,3.34,51.17,28
28,Oekene,3.16,50.921,20
28,Oelegem,4.597,51.211,24
24,Oeselgem,3.432,50.934,20
39,Oetingen,4.064,50.773,39
33,Œudeghien,3.713,50.678,33
79,Oevel,4.905,51.139,24
33,Offagne,5.174,49.886,20
33,Ogy,3.781,50.721,20
46,Ohain,4.471,50.697,24
39,Ohey,5.121,50.436,39
46,Oisquercq,4.22,50.67,20
24,Oizy,5.008,49.894,24
28,Okegem,4.056,50.855,20
28,Oleye,5.28,50.713,20
46,Olmen,5.149,51.142,24
24,Olsene,3.466,50.935,20
33,On,5.288,50.172,28
55,Onnezies,3.716,50.364,33
33,Onoz,4.671,50.492,20
24,Onze-Lieve-Vrouw-Lombeek,4.114,50.822,20
33,Ooike,3.552,50.871,24
33,Oostakker,3.764,51.101,28
28,Oostduinkerke,2.679,51.12,24
33,Oosteeklo,3.688,51.193,28
33,Oosterzele,3.808,50.945,33
39,Oostham,5.178,51.104,20
112,Oostkamp,3.235,51.155,33
39,Oostkerke,3.295,51.277,28
39,Oostkerke,2.796,51.046,33
24,Oostmalle,4.733,51.301,20
24,Oostnieuwkerke,3.06,50.941,24
79,Oostrozebeke,3.334,50.921,46
33,Oostvleteren,2.738,50.933,33
39,Oostwinkel,3.526,51.151,24
46,Opgrimbie,5.681,50.942,20
33,Ophain-Bois-Seigneur-Isaac,4.348,50.666,20
28,Ophasselt,3.895,50.822,28
46,Opheers,5.294,50.737,20
46,Ophoven,5.803,51.126,24
55,Opitter,5.646,51.118,24
39,Oplinter,4.99,50.829,28
33,Opoeteren,5.655,51.069,28
28,Opont,5.118,49.934,24
24,Oppuurs,4.245,51.066,20
134,Opwijk,4.19,50.97,79
94,Oret,4.616,50.299,24
79,Oreye,5.354,50.729,55
39,Orgeo,5.306,49.834,24
33,Orp-le-Grand,4.988,50.7,33
24,Ortho,5.613,50.125,24
28,Ostiches,3.759,50.679,28
55,Otegem,3.423,50.808,24
33,Oteppe,5.127,50.582,28
55,Othée,5.469,50.715,39
24,Otrange,5.384,50.737,20
46,Ottenburg,4.615,50.752,28
79,Ottignies,4.566,50.665,79
94,Oudenburg,3.002,51.185,24
39,Oudergem,4.428,50.816,24
79,Oud-Heverlee,4.663,50.838,20
24,Oud-Turnhout,4.982,51.317,20
46,Ouffet,5.467,50.438,46
66,Ougrée,5.538,50.595,28
39,Ouwegem,3.597,50.912,33
39,Overijse,4.537,50.773,39
66,Overmere,3.946,51.047,33
55,Paal,5.173,51.039,39
39,Paifve,5.524,50.728,20
39,Pailhe,5.258,50.423,28
112,Paliseul,5.137,49.904,55
46,Pamel,4.075,50.844,20
46,Papignies,3.818,50.684,24
24,Passendale,3.021,50.9,20
24,Patignies,4.951,50,24
33,Peissant,4.12,50.352,28
28,Pepingen,4.159,50.76,20
46,Pepinster,5.802,50.567,28
39,Perk,4.497,50.933,20
28,Péronnes,3.453,50.552,28
33,Péronnes,4.145,50.436,20
46,Péruwelz,3.591,50.508,39
94,Pervijze,2.795,51.073,33
24,Perwez,5.171,50.453,24
24,Pesche,4.458,50.042,20
79,Petegem-aan-de-Leie,3.528,50.972,79
33,Petigny,4.533,50.059,20
33,Petit-Enghien,4.083,50.689,24
28,Petit-Hallet,5.02,50.687,20
24,Petit-Roeulx-lez-Braine,4.089,50.625,24
33,Petit-Roeulx-lez-Nivelles,4.313,50.554,20
39,Petit-Thier,5.967,50.307,28
134,Philippeville,4.544,50.196,134
33,Piétrain,4.918,50.725,24
33,Pipaix,3.576,50.583,24
46,Pittem,3.267,50.995,33
24,Plancenoit,4.43,50.661,24
94,Ploegsteert,2.88,50.726,94
46,Poederlee,4.835,51.227,20
24,Poelkapelle,2.958,50.918,24
28,Poesele,3.517,51.034,20
55,Polleur,5.881,50.539,33
28,Pollinkhove,2.733,50.971,28
33,Pondrôme,5.009,50.1,28
33,Pontillas,5.018,50.55,20
192,Poperinge,2.728,50.855,192
55,Poppel,5.039,51.446,55
55,Porcheresse,5.087,49.978,55
55,Pottes,3.405,50.733,20
33,Poucet,5.112,50.678,20
66,Poulseur,5.579,50.509,39
28,Poupehan,5.003,49.812,28
28,Pousset,5.303,50.695,20
33,Presgaux,4.42,50.025,33
39,Presles,4.58,50.39,28
28,Profondeville,4.869,50.378,28
79,Proven,2.657,50.891,33
33,Pry,4.43,50.271,20
33,Pulle,4.714,51.205,28
55,Quaregnon,3.865,50.443,46
24,Quevaucamps,3.68,50.518,20
33,Quévy-le-Grand,3.946,50.359,28
79,Quiévrain,3.683,50.407,79
55,Rachecourt,5.727,49.591,24
33,Rahier,5.778,50.386,33
39,Ramelot,5.328,50.464,39
24,Ramsdonk,4.335,51.015,20
28,Ramskapelle,3.25,51.315,20
39,Ramskapelle,2.763,51.109,20
39,Rance,4.269,50.144,39
28,Ransart,4.476,50.462,24
33,Ranst,4.56,51.19,20
112,Ravels,4.995,51.372,39
55,Rebaix,3.784,50.66,24
39,Rebecq-Rognon,4.133,50.665,39
66,Recht,6.043,50.335,46
46,Reet,4.412,51.101,20
39,Rekem,5.705,50.924,28
55,Remersdaal,5.881,50.731,20
46,Remicourt,5.32,50.678,33
66,Rendeux,5.51,50.235,33
28,Reninge,2.789,50.948,28
39,Reningelst,2.764,50.817,33
28,Renlies,4.266,50.192,28
28,Reppel,5.561,51.155,20
66,Retie,5.084,51.268,39
192,Reuland,6.136,50.196,66
46,Rèves,4.416,50.538,46
55,Rhisnes,4.804,50.504,28
24,Rienne,4.889,49.993,24
66,Rièzes,4.369,49.96,66
94,Rijkevorsel,4.758,51.35,94
24,Rijkhoven,5.521,50.842,20
24,Rijmenam,4.583,51.001,20
39,Riksingen,5.462,50.806,20
39,Rillaar,4.893,50.974,28
66,Rixensart,4.522,50.713,66
24,Robechies,4.278,50.073,20
24,Robelmont,5.509,49.595,24
39,Robertville,6.122,50.454,20
24,Roborst,3.753,50.866,20
33,Rochehaut,5.006,49.84,33
55,Rocherath,6.296,50.432,55
79,Roclenge-sur-Geer,5.594,50.757,46
28,Rocourt,5.546,50.674,20
24,Roesbrugge-Haringe,2.625,50.92,24
39,Rognée,4.389,50.269,20
28,Roloux,5.395,50.649,20
39,Romedenne,4.698,50.172,39
28,Romerée,4.675,50.135,28
55,Rongy,3.386,50.507,24
24,Ronquières,4.221,50.609,24
66,Roosbeek,4.862,50.833,39
55,Rosée,4.687,50.232,39
46,Rosières,4.553,50.735,20
24,Rossignol,5.485,49.718,24
28,Rotem,5.737,51.052,20
66,Rotheux-Rimière,5.481,50.536,28
28,Rotselaar,4.71,50.952,24
28,Roucourt,3.587,50.529,20
46,Rouveroy,4.065,50.357,20
46,Roux,4.392,50.441,20
33,Roy,5.41,50.188,33
33,Rozebeke,3.752,50.85,20
28,Ruddervoorde,3.206,51.096,24
24,Ruette,5.592,49.538,24
39,Ruiselede,3.397,51.041,39
33,Rumbeke,3.154,50.933,20
33,Rumes,3.305,50.556,33
230,Rummen,5.163,50.892,46
39,Rumst,4.427,51.078,28
28,Runkelen,5.154,50.847,20
24,Rupelmonde,4.291,51.128,20
39,Russeignies,3.531,50.745,39
28,Rutten,5.443,50.747,20
33,Saint-Amand,4.55,50.504,20
28,Saint-Denis,4.784,50.535,20
33,Saint-Denis,4.018,50.49,20
66,Sainte-Cécile,5.241,49.729,33
134,Sainte-Marie,5.564,49.672,79
55,Sainte-Marie-Chevigny,5.457,49.924,39
33,Saintes,4.16,50.704,24
33,Saint-Georges-sur-Meuse,5.356,50.601,33
55,Saint-Gérard,4.741,50.346,39
28,Saint-Germain,4.843,50.573,24
192,Saint-Hubert,5.374,50.025,112
112,Saint-Léger,5.655,49.613,66
33,Saint-Maur,3.392,50.572,20
55,Saint-Médard,5.327,49.817,33
28,Saint-Remy-Geest,4.859,50.747,20
46,Saint-Sauveur,3.598,50.706,33
24,Saint-Servais,4.837,50.473,20
33,Saint-Séverin,5.413,50.53,24
24,Saint-Symphorien,4.007,50.438,24
55,Saint-Vaast,4.159,50.452,20
33,Salles,4.247,50.056,33
55,Samrée,5.639,50.209,33
46,Sars-la-Bruyère,3.878,50.371,20
24,Sars-la-Buissière,4.209,50.34,20
39,Sart,5.933,50.517,33
134,Sart-Bernard,4.951,50.405,46
24,Sart-Eustache,4.599,50.376,20
39,Sautin,4.226,50.163,39
24,Sautour,4.558,50.169,24
39,Sauvenière,4.724,50.581,20
39,Schaarbeek,4.373,50.868,20
28,Schaffen,5.082,51,20
33,Schaltin,5.123,50.358,20
39,Schelle,4.336,51.127,20
46,Schepdaal,4.192,50.834,33
33,Scherpenheuvel,4.975,50.98,33
55,Schilde,4.578,51.242,55
79,Schönberg,6.265,50.29,79
46,Schoonaarde,4.016,51.005,20
33,Schore,2.839,51.111,33
55,Schorisse,3.679,50.807,28
79,Schoten,4.498,51.251,28
66,Schriek,4.694,51.028,24
24,Schuiferskapelle,3.333,51.033,24
24,Schulen,5.177,50.956,24
55,Sclayn,5.028,50.49,33
28,Scy,5.21,50.307,28
28,Sélange,5.851,49.61,20
39,Seloignes,4.255,50.016,33
28,Semmerzake,3.663,50.943,20
79,Seneffe,4.257,50.529,24
28,Senzeille,4.465,50.177,28
39,Seraing-le-Château,5.299,50.621,20
39,Serskamp,3.93,50.989,20
55,'s-Gravenvoeren,5.76,50.76,33
39,'s-Gravenwezel,4.554,51.263,20
66,Sibret,5.636,49.971,46
66,Sijsele,3.322,51.201,39
66,Silenrieux,4.41,50.225,20
55,Sinaai,4.042,51.157,39
33,Sinsin,5.261,50.276,33
24,Sint-Andries,3.18,51.197,24
24,Sint-Baafs-Vijve,3.391,50.909,20
39,Sint-Denijs,3.369,50.751,33
28,Sint-Denijs-Westrem,3.669,51.02,28
33,Sint-Eloois-Winkel,3.179,50.876,28
39,Sint-Gillis,4.346,50.824,20
24,Sint-Gillis-bij-Dendermonde,4.111,51.019,24
55,Sint-Gillis-Waas,4.13,51.217,39
33,Sint-Huibrechts-Lille,5.485,51.226,24
55,Sint-Job-in-'t-Goor,4.583,51.293,55
28,Sint-Joris,3.371,51.128,20
46,Sint-Joris-Weert,4.653,50.803,46
46,Sint-Joris-Winge,4.876,50.908,46
79,Sint-Katelijne-Waver,4.532,51.069,33
39,Sint-Katherina-Lombeek,4.156,50.873,28
24,Sint-Kruis-Winkel,3.825,51.155,20
28,Sint-Kwintens-Lennik,4.155,50.806,28
55,Sint-Lambrechts-Herk,5.307,50.898,24
28,Sint-Lambrechts-Woluwe,4.426,50.844,24
134,Sint-Laureins,3.524,51.242,28
46,Sint-Lievens-Esse,3.885,50.857,24
46,Sint-Lievens-Houtem,3.859,50.92,28
33,Sint-Maria-Lierde,3.824,50.813,33
33,Sint-Maria-Oudenhove,3.796,50.835,24
28,Sint-Martens-Bodegem,4.214,50.862,24
24,Sint-Martens-Voeren,5.812,50.749,24
160,Sint-Niklaas,4.139,51.165,134
28,Sint-Pauwels,4.097,51.194,20
33,Sint-Pieters-Kapelle,3.99,50.708,24
28,Sint-Pieters-Kapelle,2.875,51.127,28
39,Sint-Pieters-Leeuw,4.245,50.781,39
134,Sint-Truiden,5.186,50.816,79
46,Sirault,3.788,50.506,24
134,Sivry,4.181,50.168,55
46,Sleidinge,3.679,51.133,20
55,Slijpe,2.848,51.155,20
33,Smetlede,3.928,50.966,24
79,Smuid,5.266,50.018,28
39,Snaaskerke,2.937,51.175,20
66,Snellegem,3.123,51.169,33
33,Soheit-Tinlot,5.378,50.478,33
55,Soignies,4.069,50.579,55
46,Solre-Saint-Géry,4.244,50.217,20
55,Sombreffe,4.599,50.522,24
46,Sommethonne,5.447,49.578,46
46,Sommière,4.848,50.277,24
39,Somzée,4.484,50.293,39
46,Sorée,5.126,50.399,28
28,Sorinne-la-Longue,5.027,50.39,28
55,Sorinnes,4.982,50.26,33
55,Sougné-Remouchamps,5.706,50.482,55
55,Soumagne,5.732,50.633,55
33,Soumoy,4.437,50.189,20
46,Sovet,5.035,50.296,33
46,Soy,5.51,50.285,33
192,Spa,5.867,50.493,79
55,Spiennes,3.987,50.426,28
28,Spiere,3.355,50.718,20
24,Spontin,5.006,50.322,24
55,Sprimont,5.662,50.506,46
28,Spy,4.705,50.482,20
24,Stabroek,4.369,51.335,24
46,Staden,3.014,50.975,39
55,Stalhille,3.071,51.214,28
39,Stambruges,3.717,50.509,28
39,Stave,4.66,50.283,28
24,Stavele,2.674,50.94,24
66,Stavelot,5.93,50.394,55
39,Steenhuize-Wijnhuize,3.888,50.84,39
24,Steenkerke,2.689,51.058,20
46,Steenkerque,4.069,50.643,24
94,Stekene,4.041,51.206,46
39,Stene,2.915,51.202,20
33,Sterrebeek,4.512,50.862,24
46,Stevoort,5.251,50.917,46
39,Stokrooie,5.283,50.967,20
24,Stoumont,5.808,50.408,24
46,Straimont,5.381,49.797,33
55,Strée,5.324,50.488,39
24,Strépy-Bracquegnies,4.122,50.475,24
33,Strijtem,4.116,50.841,20
33,Strombeek-Bever,4.356,50.91,24
331,Sugny,4.901,49.815,79
94,Suxy,5.401,49.765,55
112,Taintignies,3.341,50.549,46
28,Tamines,4.614,50.432,28
55,Tarcienne,4.498,50.312,55
24,Tavier,5.471,50.496,24
79,Tellin,5.216,50.082,39
46,Templeuve,3.283,50.644,33
39,Temploux,4.751,50.483,24
94,Temse,4.214,51.125,33
79,Termes,5.457,49.706,55
24,Tertre,3.816,50.472,20
33,Tervuren,4.512,50.824,24
66,Terwagne,5.349,50.444,55
160,Tessenderlo,5.088,51.068,112
24,Testelt,4.952,51.009,24
39,Teuven,5.875,50.752,39
39,Thiaumont,5.73,49.716,33
24,Thieulain,3.605,50.619,20
66,Thimister,5.865,50.653,33
28,Thimougies,3.51,50.635,28
28,Thines,4.368,50.598,24
28,Thirimont,4.236,50.261,20
24,Thoricourt,3.949,50.611,24
46,Thuillies,4.328,50.295,46
39,Thulin,3.739,50.429,28
33,Thumaide,3.629,50.543,24
28,Thy-le-Bauduin,4.524,50.295,20
39,Thynes,4.985,50.28,39
39,Tiegem,3.476,50.808,20
24,Tielrode,4.175,51.112,20
134,Tielt,3.327,51.001,112
46,Tielt,4.909,50.936,33
134,Tienen,4.938,50.807,112
33,Tildonk,4.643,50.945,20
28,Tilff,5.584,50.57,24
46,Tillet,5.531,50.011,46
24,Tintange,5.752,49.879,24
33,Tintigny,5.514,49.683,24
24,Tisselt,4.359,51.034,24
66,Toernich,5.779,49.652,24
66,Tohogne,5.48,50.38,24
79,Tollembeek,4.007,50.741,39
160,Tongeren,5.464,50.781,112
33,Tongerlo,4.916,51.106,33
39,Torgny,5.476,49.507,39
230,Torhout,3.102,51.065,94
33,Tourinne,5.177,50.64,20
66,Tourinnes-la-Grosse,4.747,50.778,55
33,Tournay,5.398,49.854,20
24,Tourpes,3.653,50.574,24
39,Transinne,5.203,49.999,28
79,Treignes,4.669,50.093,66
33,Trembleur,5.727,50.696,24
39,Tremelo,4.704,50.991,39
79,Tubize,4.205,50.693,79
28,Ucimont,5.055,49.831,28
94,Ukkel,4.333,50.804,33
79,Ursel,3.486,51.13,33
24,Val-Meer,5.595,50.787,24
55,Vance,5.668,49.67,55
33,Varsenare,3.143,51.189,20
46,Vaulx,3.426,50.59,20
24,Vaux-Chavanne,5.697,50.303,24
66,Vaux-sous-Chèvremont,5.634,50.602,20
79,Vedrin,4.873,50.503,33
28,Veerle,4.986,51.07,20
66,Velaines,3.488,50.667,46
39,Veldegem,3.16,51.105,33
55,Veldwezelt,5.632,50.865,24
24,Velm,5.133,50.779,24
33,Veltem-Beisem,4.624,50.901,33
28,Vencimont,4.922,50.032,28
66,Vergnies,4.305,50.199,33
24,Verlaine,5.322,50.605,24
94,Verrebroek,4.188,51.255,33
33,Vesqueville,5.395,50.005,20
39,Vezon,3.501,50.569,39
66,Viane,3.931,50.743,28
94,Vichte,3.403,50.836,33
230,Vielsalm,5.917,50.285,112
79,Viemme,5.27,50.649,28
24,Viersel,4.649,51.187,20
24,Vierves-sur-Viroin,4.634,50.08,24
33,Viesville,4.408,50.492,20
24,Vieux-Waleffe,5.205,50.616,24
24,Villance,5.221,49.971,20
24,Ville-Pommeroeul,3.732,50.473,20
28,Villers-aux-Tours,5.513,50.497,28
33,Villers-devant-Orval,5.332,49.619,33
79,Villers-en-Fagne,4.585,50.146,39
24,Villers-la-Tour,4.264,50.035,24
28,Villers-la-Ville,4.529,50.579,20
33,Villers-le-Bouillet,5.267,50.569,28
46,Villers-le-Temple,5.37,50.508,33
46,Villers-lez-Heest,4.84,50.531,20
94,Villers-Perwin,4.479,50.526,33
28,Villers-Sainte-Gertrude,5.579,50.361,28
33,Villers-sur-Lesse,5.11,50.154,33
55,Villers-sur-Semois,5.561,49.7,24
28,Ville-sur-Haine,4.06,50.479,28
24,Vinalmont,5.226,50.563,20
33,Vinkem,2.662,51.016,24
39,Vinkt,3.48,51.008,33
24,Virelles,4.334,50.062,20
55,Virginal-Samme,4.211,50.641,39
230,Virton,5.531,49.567,160
55,Visé,5.693,50.735,28
28,Vitrival,4.656,50.394,28
33,Vladslo,2.916,51.046,24
33,Vlamertinge,2.821,50.855,33
55,Vlezenbeek,4.233,50.805,20
24,Vliermaal,5.429,50.84,20
24,Vliermaalroot,5.424,50.864,20
46,Vlimmeren,4.781,51.295,24
33,Vlissegem,3.056,51.255,20
24,Volkegem,3.644,50.839,20
24,Vollezele,4.024,50.76,24
28,Voormezele,2.876,50.817,24
24,Voort,5.316,50.791,20
55,Vorselaar,4.774,51.202,33
55,Vorst,5.021,51.075,33
24,Vosselaar,4.888,51.312,20
39,Vosselare,3.555,51.026,39
79,Vossem,4.558,50.835,66
33,Vottem,5.585,50.673,20
28,Vrasene,4.195,51.219,28
33,Vreren,5.497,50.752,24
46,Vresse,4.933,49.872,46
28,Vroenhoven,5.64,50.826,20
55,Waanrode,5.004,50.916,55
39,Waarbeke,3.969,50.778,20
66,Waardamme,3.221,51.112,33
33,Waarloos,4.455,51.106,20
28,Waasmunster,4.084,51.109,28
66,Wachtebeke,3.858,51.169,28
24,Wagnelée,4.532,50.522,20
33,Wakken,3.398,50.93,24
55,Walcourt,4.431,50.251,55
28,Walem,4.457,51.066,20
33,Walhain-Saint-Paul,4.695,50.618,33
33,Walhorn,6.046,50.675,24
55,Walshoutem,5.087,50.722,20
24,Wandre,5.662,50.67,20
55,Wanfercée-Baulet,4.589,50.472,55
55,Wanlin,5.061,50.159,55
24,Wannebecq,3.801,50.694,20
33,Wannegem-Lede,3.551,50.89,20
28,Wanze,5.214,50.536,20
28,Warchin,3.427,50.61,20
24,Warcoing,3.345,50.703,20
33,Wardin,5.789,49.991,33
192,Waregem,3.433,50.885,160
230,Waremme,5.257,50.698,160
33,Waret-la-Chaussée,4.928,50.544,20
55,Waret-l'Évêque,5.068,50.556,24
24,Warnant,4.832,50.322,20
39,Warnant-Dreye,5.227,50.595,24
39,Warquignies,3.823,50.401,20
66,Warsage,5.769,50.735,39
28,Warzée,5.428,50.449,20
39,Wasmes,3.843,50.422,20
33,Wasmes-Audemez-Briffoeil,3.535,50.554,20
33,Wasseiges,5.001,50.624,33
79,Waterland-Oudeman,3.589,51.288,33
66,Waterloo,4.396,50.715,66
66,Watermaal-Bosvoorde,4.417,50.798,39
28,Watervliet,3.628,51.276,28
66,Watou,2.62,50.859,55
33,Wattripont,3.548,50.729,28
46,Wavre,4.608,50.716,46
33,Wechelderzande,4.786,51.263,20
33,Weelde,5.006,51.411,33
46,Weert,4.193,51.101,20
28,Weillen,4.824,50.26,28
28,Welle,4.045,50.901,20
79,Wellen,5.33,50.841,66
112,Wellin,5.114,50.082,66
33,Wenduine,3.082,51.298,28
55,Wépion,4.871,50.42,33
112,Werbomont,5.678,50.392,66
39,Werchter,4.694,50.971,20
33,Wéris,5.53,50.326,20
331,Wervik,3.044,50.778,134
46,Wespelaar,4.633,50.959,39
55,Westende,2.768,51.159,24
66,Westerlo,4.912,51.09,46
66,Westkapelle,3.303,51.315,24
46,Westkerke,3.015,51.165,28
39,Westmalle,4.693,51.297,39
33,Westmeerbeek,4.835,51.061,24
55,Westouter,2.747,50.798,39
24,Westrem,3.862,50.97,20
55,Westrozebeke,3.012,50.931,39
160,Wetteren,3.886,51.006,79
55,Wevelgem,3.181,50.809,55
66,Wezemaal,4.756,50.948,39
28,Wibrin,5.719,50.166,28
24,Widooie,5.408,50.772,20
55,Wiers,3.533,50.509,28
39,Wijer,5.224,50.898,20
39,Wijnegem,4.524,51.228,20
28,Wijshagen,5.561,51.105,28
94,Wijtschate,2.882,50.786,55
79,Willebroek,4.362,51.063,55
55,Willerzie,4.848,49.987,55
39,Wilrijk,4.403,51.17,20
24,Wilsele,4.703,50.897,20
33,Wimmertingen,5.353,50.883,24
192,Winenne,4.898,50.1,134
79,Wingene,3.277,51.058,46
94,Witry,5.612,49.86,94
28,Wodecq,3.748,50.718,20
39,Woesten,2.79,50.901,20
39,Wolkrange,5.8,49.633,33
55,Wommelgem,4.523,51.203,39
33,Wommersom,5.018,50.813,33
46,Wondelgem,3.713,51.089,28
28,Wontergem,3.444,50.98,20
66,Wortegem,3.505,50.854,20
24,Wortel,4.794,51.398,20
28,Woubrechtegem,3.916,50.873,20
55,Woumen,2.87,51.001,28
46,Wulpen,2.7,51.101,20
24,Wulvergem,2.854,50.76,20
79,Wuustwezel,4.598,51.392,39
46,Xhendelesse,5.78,50.604,24
24,Xhendremael,5.479,50.705,24
24,Xhoris,5.602,50.444,24
39,Yves-Gomezée,4.494,50.24,20
33,Yvoir,4.878,50.326,33
46,Zaffelare,3.862,51.133,28
94,Zandhoven,4.66,51.214,39
39,Zandvoorde,2.976,51.201,24
28,Zandvoorde,2.98,50.813,20
24,Zarlardinge,3.829,50.762,20
55,Zarren,2.958,51.019,33
79,Zaventem,4.466,50.887,33
39,Zedelgem,3.136,51.142,33
79,Zele,4.037,51.069,79
33,Zelem,5.104,50.98,28
33,Zellik,4.266,50.887,20
24,Zemst,4.465,50.985,20
24,Zepperen,5.247,50.822,24
24,Zétrud-Lumay,4.885,50.759,20
46,Zeveneken,3.9,51.107,33
28,Zeveren,3.503,50.996,20
33,Zevergem,3.695,50.978,20
24,Zichem,4.984,51.001,20
55,Zichen-Zussen-Bolder,5.633,50.798,55
39,Zillebeke,2.922,50.836,20
79,Zoersel,4.712,51.267,24
55,Zolder,5.314,51.024,55
79,Zonhoven,5.367,50.992,46
55,Zottegem,3.811,50.87,55
33,Zoutleeuw,5.107,50.833,33
24,Zuidschote,2.828,50.913,20
28,Zuienkerke,3.155,51.265,24
55,Zulte,3.443,50.922,28
79,Zutendaal,5.572,50.933,39
46,Zwevegem,3.341,50.813,46
39,Zwevezele,3.211,51.036,39
39,Zwijndrecht,4.326,51.219,33
28,Wichelen,3.971,51.009,20
230,Lommel,5.304,51.23,192
46,Aarle,5.021,51.472,24
39,Essen-Hoek,4.411,51.446,24
66,Nieuwmoer,4.518,51.433,28
39,Wildert,4.462,51.428,28
33,Braken,4.611,51.408,20
33,Zondereigen,4.893,51.407,20
46,Weelde-Station,4.938,51.393,39
28,Achterbroek,4.5,51.397,20
28,Eel,5.016,51.387,28
55,Gooreind,4.542,51.358,33
33,Overbroek,4.607,51.343,20
33,Zeebrugge,3.18,51.329,24
55,Maria-ter-Heide,4.523,51.329,24
28,Hoge Heide,4.592,51.321,24
28,Zwankendamme,3.196,51.31,20
39,Zwaneven,5.01,51.307,20
55,Zevendonk,4.944,51.291,20
39,Schoonbroek,5.049,51.286,20
39,Grootrees,4.976,51.275,20
28,Hodonk,5.119,51.269,20
66,Kolonie,5.386,51.252,24
46,Landsdijk,3.646,51.253,20
28,'t Kalf,4.101,51.236,20
46,Hellestraat,4.044,51.233,24
28,Goor,4.95,51.224,20
46,Koewacht,3.979,51.224,28
66,Rauw,5.204,51.221,39
46,Donk,3.383,51.214,28
28,Raversijde,2.861,51.207,24
33,Holven,5.383,51.212,20
134,Lozen,5.556,51.208,20
66,Ten Aard,4.981,51.204,28
39,Kruisstraat,3.937,51.203,24
33,Overslag,3.888,51.2,24
46,Wezel,5.222,51.191,24
39,Europawijk,5.042,51.192,24
39,Stru,5.056,50.449,33
46,Molu,5.239,50.447,46
46,Weywertz,6.165,50.435,46
28,Gdoumont,6.065,50.436,20
28,Houssonlonge,5.682,50.425,28
28,Clavier-Station,5.323,50.428,28
33,Haie Jadot,5.188,50.347,20
28,Born,6.113,50.334,28
24,Haies,4.442,50.344,24
55,Doornzele,3.766,51.143,28
33,Punt,4.942,51.14,20
28,Beke,3.6,51.134,20
33,Winkelomheide,5.012,51.129,20
24,Oosterwijk,4.867,51.128,24
24,Erpekom,5.491,51.118,20
24,Stelen,4.98,51.12,20
24,Tervenen,3.709,51.169,20
39,O.-L.-V. Olen,4.904,51.169,33
134,Kerkhoven,5.265,51.162,33
66,Bel,5.063,51.163,24
33,Oostveld,3.39,51.161,20
28,Bertransart,4.473,50.344,28
39,Petit-Han,5.437,50.335,33
28,Hulsen,5.114,51.148,20
28,Schoorheide,5.213,51.147,20
33,Locht,5.365,51.144,20
46,Wauberg,5.46,51.083,39
28,Engsbergen,5.056,51.03,28
66,Okselaar,5.014,51.03,39
28,Wolfsdonk,4.917,51.03,20
24,Voortkapel,4.863,51.115,24
46,Gestel,5.097,51.113,20
33,Beitem,3.114,50.893,28
33,Sint-Juliaan,2.936,50.891,20
28,Marialoop,3.328,50.964,20
33,Sleihage,3.056,50.961,20
33,Houtem,4.46,50.947,20
46,Madonna,2.928,50.937,33
33,Rooierheide,5.419,50.936,20
24,Godsheide,5.383,50.936,20
24,Oud-Sledderlo,5.521,50.934,24
46,Maria-Aalter,3.372,51.099,28
24,Frezenberg,2.961,50.854,20
39,Heerweg,3.446,50.849,24
33,Stok,4.997,50.849,20
24,Terhand,3.059,50.841,20
33,Zemst-Laar,4.414,50.992,20
28,Termolen,5.411,50.987,24
55,Bolderberg,5.275,50.984,28
28,Peizegem,4.225,50.983,20
28,Schalbroek,5.177,50.979,28
39,Zemst-Bos,4.423,50.977,20
33,Rossem,4.276,50.972,24
24,Winksele-Delle,4.637,50.927,20
24,Lozer,3.569,50.919,20
24,Roeselberg,4.86,50.921,20
28,Kraasbeek,4.915,50.923,20
28,Hoksem,4.874,50.8,20
28,Ten Brielen,3.003,50.794,20
28,Bevingen,5.177,50.792,20
39,Arc,3.534,50.7,39
28,Crenwick,5.171,50.696,20
46,Busch,5.991,50.684,20
33,Tombroek,3.265,50.751,20
33,Tombeek,4.567,50.754,20
28,Beaufaux,3.659,50.747,20
24,Rijsbergdijk,5.177,51.19,20
33,Kleit,3.455,51.185,20
39,Gelderhorsten,5.27,51.183,20
28,Sint-Jozef-Olen,4.902,51.182,20
33,Klein Sinaai,3.991,51.181,24
28,Vliegend Paard,3.304,51.182,20
33,Meerhoeve,4.782,51.174,20
28,Puivelde,4.07,51.173,20
39,Sint-Anna,4.076,51.095,20
28,Eikevliet,4.306,51.091,20
39,Heikant,4.669,51.083,20
55,Baliebrugge,3.172,51.077,24
46,Plokrooi,5.525,51.071,20
33,St.-Elooi,3.259,51.072,20
33,Bergom,4.917,51.076,33
24,Reiger,3.028,51.081,20
28,Wildenburg,3.304,51.083,20
28,St.-Jan,3.315,51.062,20
24,Tervant,5.194,51.052,20
55,Edewalle,3.015,51.053,20
28,Halewijn,3.618,51.054,20
33,Heide,4.983,51.055,20
24,Dorne,5.628,51.047,24
24,Kapelhoek,3.163,50.988,20
46,Meers,3.545,50.808,20
33,Gastuche,4.648,50.734,20
46,Hoef,5.373,51.103,20
46,Houthalen-Oost,5.475,51.02,46
46,Vleugt,5.116,51.02,20
24,Kesselt,5.625,50.837,24
28,Melkouwen,4.675,51.096,20
24,Chapelle-Saint-Laurent,4.748,50.732,24
39,La Durenne,3.614,50.727,20
46,Everbeek-Boven,3.773,50.774,24
46,Louise-Marie,3.639,50.771,20
28,La Bruyère,4.787,50.765,20
28,Terlanen,4.603,50.77,20
33,Viversel,5.256,51,28
28,Zelk,5.087,50.96,20
39,Vijfwegen,2.98,50.95,20
33,Bokrijk,5.409,50.952,24
39,Ginste,3.357,50.946,20
24,Briegden,5.628,50.877,20
33,Hogen,5.076,50.881,20
24,Wisbecq,4.131,50.686,20
46,Herresbach,6.257,50.319,46
79,Medell,6.17,50.32,33
33,Fromiée,4.579,50.332,24
230,Meaurain,3.715,50.329,46
28,Hymiée,4.539,50.325,20
24,St.-Katarina,3.242,50.871,20
33,Molenaarelst,3.005,50.867,20
55,Breedhout,4.202,50.758,20
24,Jeuk-Station,5.188,50.722,20
28,Gaillemarde,4.442,50.722,20
39,Hèze,4.719,50.721,20
28,Mussain,4.158,50.719,20
33,Trooz,5.69,50.569,20
33,Andoy,4.927,50.435,20
46,Meiz,5.984,50.425,24
55,Petergensfeld,6.181,50.65,33
24,Dommartin,5.362,50.617,20
33,Jehanster,5.901,50.556,20
39,Avister,5.57,50.555,20
24,Charneux,5.956,50.547,20
24,Ôneux,5.833,50.546,20
55,Banneux,5.742,50.539,39
112,Vaudignies,3.804,50.552,55
24,Morlies,3.493,50.544,20
28,Longpré,5.148,50.543,20
24,Rosseignies,4.322,50.54,24
66,Bois Dame Aguisse,5.178,50.466,33
39,Awan,5.652,50.461,28
33,Berg,6.217,50.438,20
24,Nieuwdorp,5.1,50.907,20
24,Schoonbeek,5.469,50.903,20
39,Krijt,5.42,50.887,20
46,Zogge,4.092,51.076,20
46,Kruiskerke,3.388,51.07,24
24,Sonnis,5.418,51.068,20
55,Blauwberg,4.929,51.044,46
33,Battel,4.447,51.042,20
39,Baarle,3.62,51.037,24
33,Peulis,4.588,51.039,20
24,Genenbos,5.23,51.01,24
33,Ten Ede,3.839,51.009,20
55,De Geite,3.036,51.001,20
24,Leenhaag,5.068,50.87,20
66,Abele,2.669,50.822,33
55,Alt-Hoeselt,5.501,50.828,20
24,Kruiseke,3.023,50.814,20
24,Sint-Katarina-Houtem,4.869,50.786,20
28,Grand Monchau,3.68,50.707,24
46,Au Chaumont,5.851,50.681,20
24,Sart-Risbart,4.759,50.68,24
39,Bizencourt,3.42,50.643,20
28,Mantou,3.468,50.641,24
39,Ôdet,5.307,50.386,33
33,Nonceveux,5.735,50.466,20
33,Kin,5.693,50.465,20
33,Xhoffraix,6.07,50.46,24
46,Groynne,5.077,50.469,20
28,Bossière,4.697,50.345,20
79,Pontaury,4.657,50.339,66
55,Oppagne,5.514,50.309,33
33,Wallerode,6.16,50.299,20
24,Les Bruyères,4.608,50.31,24
55,Salet,4.821,50.31,28
24,Somtet,4.654,50.308,20
24,Mürringen,6.303,50.409,24
33,Ville,5.588,50.416,28
33,Atrin,5.37,50.416,33
33,Sclage,4.515,50.632,28
33,Sart Messire Guillaume,4.56,50.618,28
28,Autreppe,3.722,50.587,20
33,Ottiamont,4.599,50.537,20
33,Solwaster,5.965,50.524,28
24,Les Écacheries,3.737,50.529,20
28,Spixhe,5.816,50.52,20
66,Petit-Waret,5.048,50.526,28
24,La Saisinne,4.036,50.525,20
46,Deigné,5.728,50.507,20
24,Limont,5.495,50.508,24
24,Becco,5.787,50.501,24
33,Gives,5.153,50.507,33
39,Nivezé,5.9,50.496,20
28,Florzé,5.667,50.489,20
33,Wartet,4.972,50.494,24
24,Fraiture,5.607,50.488,20
55,Hockai,5.987,50.482,46
46,Hédomont,6.04,50.405,20
24,Hünningen,6.292,50.396,24
46,Sy,5.524,50.404,20
24,Névremont,4.678,50.407,20
39,Schoppen,6.178,50.391,24
24,Thirimont,6.093,50.389,20
46,Hèvremont,5.935,50.596,20
24,Fonteny,4.414,50.603,20
33,Villeroux,4.609,50.602,20
28,Winamplanche,5.819,50.478,24
24,Ovifat,6.107,50.466,24
39,Honsfeld,6.279,50.382,39
24,Möderscheid,6.194,50.379,24
24,Hautvent,4.685,50.384,20
46,Frisée,5.126,50.373,24
24,Mirfeld,6.188,50.358,24
24,Warre,5.466,50.365,20
46,Maison,4.713,50.366,24
33,Besinne,4.803,50.363,20
66,Deidenberg,6.141,50.349,55
55,Rodt,6.071,50.287,28
24,Goronne,5.868,50.29,24
33,Fisenne,5.539,50.292,33
33,Awagne,4.949,50.296,28
33,Mortehan,5.211,49.8,33
39,Louftémont,5.628,49.79,39
28,Parette,5.773,49.785,28
79,Les Fossés,5.482,49.783,46
39,Thibessart,5.552,49.781,39
46,Heinstert,5.726,49.758,39
66,Metzert,5.787,49.723,33
24,Viville,5.795,49.698,20
24,Breuvanne,5.492,49.694,24
24,Fouches,5.709,49.69,24
33,Stockem,5.769,49.686,24
24,Prouvy,5.437,49.684,24
28,Fratin,5.574,49.66,20
33,Weyler,5.825,49.659,20
55,Lahage,5.499,49.647,33
24,Udange,5.771,49.636,24
66,Warempage,5.64,50.12,55
24,Journal,5.505,50.12,24
79,Buret,5.867,50.097,39
28,Ny,5.481,50.286,20
33,Petit-Sart,5.846,50.27,24
24,Fays,5.073,50.277,20
39,Salmchâteau,5.905,50.266,20
24,Hébronval,5.815,50.255,24
66,Neidingen,6.146,50.25,24
28,Mogimont,5.068,49.85,28
24,Rossart,5.333,49.847,24
33,Radelange,5.723,49.843,33
24,Petitvoir,5.377,49.842,24
33,Namoussart,5.5,49.835,33
28,Nevraumont,5.34,49.832,28
24,Warmifontaine,5.391,49.83,24
33,Wittimont,5.54,49.814,33
28,Gives,5.638,50.07,28
66,Bourcy,5.809,50.059,46
66,Regné,5.788,50.254,24
28,Provedroux,5.896,50.252,24
24,Corbion,5.097,50.257,24
39,Menil-Favay,5.44,50.25,20
33,Rogery,5.949,50.242,33
46,Haid,5.175,50.25,39
66,Maldingen,6.036,50.234,46
33,Grüfflingen,6.087,50.224,33
24,Aldringen,6.024,50.221,24
39,Chaumont,4.61,50.231,20
46,Marcouray,5.546,50.213,28
33,Oudler,6.094,50.203,33
28,Espeler,6.056,50.204,28
39,Grimbièmont,5.427,50.205,39
33,Bérismenil,5.664,50.178,33
66,Dinez,5.774,50.172,33
66,Rettigny,5.88,50.168,46
39,Savy,5.706,50.02,20
46,Mageret,5.784,50.015,33
39,Marvie,5.746,49.985,20
33,Freux-Menil,5.452,49.976,33
33,Assenois,5.68,49.966,28
28,Séviscourt,5.415,49.956,28
134,Lutremange,5.761,49.942,46
39,Bougnimont,5.468,49.945,39
46,Remichampagne,5.641,49.935,46
39,Givry,5.643,50.056,39
24,Recogne,5.738,50.052,24
66,Tronquoy,5.451,49.887,39
46,Hotte,5.663,49.876,46
66,Compogne,5.706,50.085,46
55,Rachamps,5.787,50.084,39
66,Laneuville-au-Bois,5.467,50.081,55
33,Havrenne,5.226,50.201,33
28,Dürler,6.072,50.189,28
24,Lautenne,4.679,50.201,24
79,Ourthe,5.984,50.189,79
28,Lignières,5.436,50.192,28
66,Honville,5.728,49.909,66
46,Bercheux,5.535,49.901,46
28,Neuvillers,5.357,49.901,20
276,Warnach,5.726,49.865,112
28,Guerlange,5.855,49.582,20
33,Aix-sur-Cloie,5.781,49.578,20
24,Houdrigny,5.496,49.576,20
39,Signeulx,5.642,49.552,33
24,St-Remy,5.62,49.54,24
79,Grandcourt,5.604,49.527,39
28,Lambermont,5.194,49.705,28
39,Korsele,3.701,50.857,20
33,Merlin,3.401,50.555,20
24,Fourcroix,3.325,50.64,20
33,Vieux Comté,3.363,50.672,20
28,Gare de Pecq,3.36,50.686,20
28,Stationswijk,3.35,50.837,20
39,Burcht,3.925,50.718,20
28,Prairie,3.895,50.668,24
28,Gambremont,3.923,50.641,28
33,Bétissart,3.746,50.606,20
24,Trieu Périlleux,3.801,50.627,20
28,Cahos,3.25,50.651,20
39,Wieltje,2.919,50.873,20
39,Smisse,2.977,50.999,20
33,Bentille,3.6,51.247,24
66,Putte-Kapellen,4.4,51.348,24
28,Heikant,4.489,51.371,20
28,Leeuwerk,4.714,51.348,24
55,Achtel,4.768,51.379,20
39,Meersel-Dreef,4.773,51.491,20
24,Kelfs,4.679,50.949,20
24,Wilder,4.591,50.932,20
24,Imde,4.307,50.973,20
24,Pikkerie,4.405,51.002,20
66,Heide,4.098,51.127,20
39,Dijk,4.06,51.05,20
39,Bos,4,51.069,20
28,Watimé,4.412,50.554,20
28,Hériamont,4.345,50.514,20
39,Les Culots,4.299,50.505,20
28,Tri-Bas,4.168,50.691,20
28,Hussevelde,3.913,51.059,20
55,Es,4.295,51.19,20
28,Sassenhout,4.818,51.21,20
33,Winkelom,5.003,51.145,20
24,Langvoort,5.072,51.101,20
24,Genebos,5.135,51.082,24
33,Gestel,5.21,51.029,20
24,Rode,5.055,51.009,20
24,Wolfshagen,4.625,50.788,20
33,Longpré,4.779,50.694,33
46,Beurs,5.273,50.847,20
28,Tiewinkel,5.229,50.97,20
46,Lutselus,5.449,50.922,33
33,Elst,5.557,50.769,20
33,Manaihan,5.819,50.624,20
28,Ober-Emmels,6.092,50.301,20
33,Neringe,4.892,50.95,20
46,La Hamaide,3.773,50.456,20
33,La Maladrie,4.276,50.333,20
33,Maredret,4.75,50.3,33
33,Sovimont,4.75,50.422,20
33,Astenet,6.034,50.691,20
28,Quatre-Chemins,5.899,50.64,20
28,José,5.771,50.63,20
24,Flagothier,5.602,50.521,20
24,Le Halleux,5.439,50.519,24
33,Petit Berleur,5.487,50.519,20
46,Solières,5.185,50.49,33
28,Brumagne,4.953,50.479,20
24,Hattain,4.478,50.596,20
46,Les Garennes,3.869,50.508,20
33,Cognebeau,4.041,50.555,20
94,Boscante,3.997,50.637,24
33,Winterslag,5.493,50.982,20
24,Bende,5.284,50.551,20
24,Sclessin,5.54,50.61,20
33,Le Touquet,2.92,50.712,20
39,Onledemolen,3.134,50.999,20
28,Louvain-la-Neuve,4.612,50.669,28
24,Sint-Lodewijk,3.377,50.822,20
46,Sint-Brixius-Rode,4.327,50.956,20
28,Gompel,5.145,51.192,20
94,De Haan,3.03,51.276,33
66,Manhay,5.676,50.291,66
28,Trois-Ponts,5.873,50.375,28
28,Butgenbach,6.178,50.422,28
230,Edingen,4.04,50.693,66
112,Eupen,6.03,50.632,79
33,Vloesberg,3.737,50.736,33
28,Froidchapelle,4.329,50.151,28
230,La Calamine,6.013,50.716,46
46,Kraainem,4.466,50.862,20
55,Le Rœulx,4.109,50.501,24
33,Linkebeek,4.336,50.773,24
397,Malmedy,6.027,50.426,134
46,Mesen,2.898,50.766,46
134,Moeskroen,3.214,50.743,112
79,Raeren,6.111,50.676,46
276,Ronse,3.601,50.748,112
134,Saint-Vith,6.126,50.281,112
46,Sint-Genesius-Rode,4.346,50.746,46
46,Waimes,6.11,50.414,39
55,Wemmel,4.303,50.907,24
66,Bullange,6.256,50.406,39
46,Meeuwen,5.521,51.096,33
94,Overpelt,5.422,51.211,94
55,Puurs,4.278,51.076,55
55,Lovendegem,3.61,51.095,55
66,Kruishoutem,3.528,50.905,39
24,Knesselare,3.412,51.139,24
33,Neerpelt,5.433,51.228,20
79,Waarschoot,3.607,51.151,28
79,Opglabbeek,5.583,51.043,55
