rs,name,lon,lat,r1
39,"Ţîra, loc.st.c.f.",28.44,47.861,20
33,"Petreşti, loc.st.c.f",27.744,47.29,20
28,Flămînzeni,28.074,47.494,24
24,Dermengi,28.413,45.879,20
66,Carbalia,28.446,45.873,39
276,Goteşti,28.17,46.144,112
24,Tătărăşeni,28.302,46.342,20
55,Hănăseni,28.324,46.35,33
28,Pleşeni,28.342,46.36,20
33,Cuporani,28.358,46.374,20
66,Toceni,28.218,46.367,28
39,Vîlcele,28.253,46.38,20
55,Taraclia,28.517,46.213,20
134,Sadîc,28.515,46.269,66
112,Lărguţa,28.329,46.31,46
28,Floricica,28.411,46.235,20
66,Enichioi,28.418,46.22,28
55,Ţolica,28.481,46.194,24
66,Hănăsenii Noi,28.255,46.417,33
55,Valea Florii,28.438,46.713,24
24,Cărpineanca,28.474,46.694,20
112,Orac,28.458,46.67,39
66,Sărata-Răzeşi,28.264,46.615,39
55,Sărăteni,28.467,46.61,20
39,Sărăţica Nouă,28.547,46.572,33
24,Cîmpul Drept,28.513,46.565,20
94,Sîrma,28.245,46.526,33
55,Tigheci,28.377,46.387,24
39,Chircani,28.174,46.087,24
28,Constantineşti,28.212,46.111,24
55,Cucoara,28.169,46.055,33
39,Paşcani,28.185,45.825,20
79,Manta,28.181,45.806,33
55,Doina,28.328,46.112,33
33,Porumbeşti,28.277,46.317,28
66,Şamalia,28.437,46.272,33
94,Beşalma,28.646,46.171,46
66,Beşghioz,28.873,46.119,46
46,Pînzăreni,27.679,47.618,20
33,Pînzărenii Noi,27.646,47.602,20
24,Albineţul Vechi,27.636,47.559,24
46,Albineţul Nou,27.619,47.582,20
94,Ilenuţa,27.712,47.636,33
55,Obreja Veche,27.659,47.676,33
46,Năvîrneţ,27.56,47.589,39
39,Chetriş,27.446,47.596,24
46,Hînceşti,27.501,47.545,20
192,Izvoare,27.666,47.435,33
112,Pruteni,27.551,47.502,46
24,Rediul de Sus,27.6,47.509,24
39,Valea Rusului,27.584,47.472,24
46,Hiliuţi,27.762,47.669,33
46,Pîrliţa,27.805,47.741,20
46,Suvorovca,27.893,47.638,20
39,"Catranîc, loc.st.c.f.",27.776,47.623,20
24,Pietrosul Nou,27.769,47.582,20
24,Lucăceni,27.598,47.457,20
66,Horeşti,27.579,47.431,33
28,Unteni,27.583,47.415,20
33,Popovca,27.862,47.707,24
28,Beleuţi,27.903,47.665,20
33,Pietrosu,27.918,47.499,20
55,Catranîc,27.8,47.597,24
28,Burghelea,27.86,47.536,20
79,Andruşul de Jos,28.218,45.983,28
55,Andruşul de Sus,28.247,46.007,20
55,Larga Nouă,28.223,46.071,24
39,Tartaul de Salcie,28.409,45.963,33
66,Badicul Moldovenesc,28.265,46.096,55
134,Crihana Veche,28.192,45.846,46
94,Roşu,28.197,45.949,33
55,Cotihana,28.242,45.938,28
46,Frumuşica,28.477,46.082,33
39,Luceşti,28.329,45.989,20
160,Giurgiuleşti,28.198,45.481,55
94,Vadul lui Isac,28.172,45.763,33
160,Văleni,28.176,45.637,66
55,Pănăşeşti,28.521,47.155,46
39,Condriţa,28.575,47.054,20
66,Scoreni,28.607,47.068,33
39,Stejăreni,28.416,47.109,24
55,Căpriana,28.502,47.117,33
28,Făgureni,28.565,47.147,24
46,Şoltoaia,27.814,47.462,20
46,Făgădău,27.802,47.442,33
79,Scumpia,27.737,47.469,33
46,Taxobeni,27.586,47.388,20
39,Hrubna Nouă,27.616,47.406,20
55,Fîrlădeni,28.686,46.788,28
33,Voinescu,28.304,46.657,20
66,Boghiceni,28.324,46.947,28
46,Tătăreşti,28.345,46.026,46
28,Spicoasa,28.376,46.035,20
55,Huluboaia,28.335,46.053,20
24,Alexeevca,28.565,46.03,20
46,Svetlîi,28.569,46.018,28
79,Sineşti,28.05,47.397,28
55,Negrea,28.393,46.813,24
46,Cioropcani,27.698,47.396,28
55,Tălăieşti,28.265,46.8,24
55,Crasnoarmeiscoe,28.282,46.829,46
28,Bobocica,28.459,46.225,20
160,Baimaclia,28.39,46.187,94
28,Acui,28.429,46.184,24
33,Rumeanţev,28.281,46.112,20
39,Suhat,28.344,46.162,20
55,Cîşla,28.339,46.137,20
79,Cotovscoe,28.514,46.159,55
28,Dimitrova,28.468,46.16,20
55,Cîietu,28.481,46.136,24
46,Haragîş,28.378,46.289,28
55,Capaclia,28.4,46.329,20
94,Cîrpeşti,28.34,46.261,39
28,Vişniovca,28.448,46.333,24
79,Cociulia,28.413,46.353,55
28,Iujnoe,28.476,45.75,20
46,"Vulcăneşti, loc.st.c.f.",28.482,45.685,39
192,Burlăceni,28.505,45.759,79
66,Alexanderfeld,28.428,45.809,55
79,Găvănoasa,28.385,45.76,46
28,Sătuc,28.353,45.803,20
46,Vladimirovca,28.362,45.788,20
79,Brînza,28.174,45.674,28
46,Cîşliţa-Prut,28.171,45.538,20
33,Colibabovca,28.429,46.649,20
33,Tochile-Răducani,28.253,46.569,33
33,Dolna,28.269,47.121,20
66,Drăguşenii Noi,28.423,47.049,28
33,Şişcani,28.212,46.973,24
66,Odaia,28.201,47.009,28
24,Băneşti,28.375,47.574,20
39,Băneştii Noi,28.402,47.584,20
79,Brînzenii Vechi,28.474,47.658,39
55,Budăi,28.347,47.452,28
28,Căzăneşti,28.473,47.615,24
397,Chiştelniţa,28.651,47.573,134
46,Codru,28.269,47.466,20
66,Mîndreşti,28.27,47.504,46
55,Crăsnăşeni,28.403,47.437,24
55,Nucăreni,28.584,47.598,24
46,Chersac,28.583,47.637,24
55,Ordăşei,28.496,47.683,24
134,Scorţeni,28.646,47.643,55
66,Ghermăneşti,28.514,47.443,28
46,Ţînţăreni,28.564,47.572,33
46,Văsieni,28.445,47.459,20
94,Verejeni,28.469,47.534,46
66,Sărătenii Vechi,28.554,47.527,46
24,Mîndra,28.526,47.536,20
24,Ratuş,28.503,47.539,20
46,Chiţcanii Noi,28.49,47.562,20
46,Leuşeni,28.434,47.482,39
112,Negureni,28.512,47.6,55
192,Baurci-Moldoveni,28.238,46.035,46
39,Săseni,28.492,47.378,28
33,Buda,28.217,47.21,20
66,Căbăieşti,28.149,47.218,28
33,Dereneu,28.245,47.381,20
79,Frumoasa,28.4,47.331,28
46,Oricova,28.235,47.301,20
33,Leordoaia,28.152,47.343,24
46,Bularda,28.217,47.357,20
79,Palanca,28.204,47.335,39
33,Hogineşti,28.321,47.373,28
46,Nişcani,28.345,47.268,20
24,Onişcani,28.283,47.367,20
94,Răciula,28.347,47.302,46
134,Rădeni,28.213,47.396,66
46,Temeleuţi,28.073,47.254,24
24,Ursari,28.189,47.221,20
55,Peticeni,28.206,47.239,28
39,Novaci,28.264,47.236,24
24,Seliştea Nouă,28.312,47.24,20
39,Păruceni,28.107,47.151,20
79,Bălăureşti,28.137,46.942,79
28,Bărboieni,28.062,47.022,20
94,Boldureşti,28.052,47.134,79
39,Chilişoaia,28.032,47.111,20
79,Bolţun,28.289,47.026,24
55,Brătuleni,27.974,47.137,39
46,Bursuc,28.301,47.097,20
33,Călimăneşti,28.193,46.944,20
39,Cristeşti,28.284,47.058,20
79,Grozeşti,28.079,47.001,46
55,Iurceni,28.26,47.08,46
55,Marinici,28.164,46.967,24
66,Soltăneşti,28.109,47.059,33
39,Luminiţa,28.076,47.083,24
33,Băcşeni,28.02,47.086,20
28,Selişteni,28.069,47.064,20
24,Odobeşti,28.071,47.052,20
55,Isăicani,28.029,47.068,24
33,Vulcăneşti,28.191,47.153,20
55,Şendreni,28.193,47.129,24
46,Vărzăreşti,28.183,47.101,20
39,Zberoaia,28.107,46.97,20
28,Săghieni,27.967,47.25,20
24,Floreşti,27.711,47.382,20
46,Buciumeni,27.712,47.369,20
28,Buşila,27.809,47.388,20
79,Chirileni,27.775,47.38,39
79,Cetireni,27.914,47.215,55
33,Stolniceni,27.712,47.41,20
55,Bulhac,27.741,47.428,20
28,Cornova,28.174,47.396,20
55,Costuleni,27.912,47.08,46
28,Floriţoaia Veche,27.905,47.203,20
94,Rădenii Vechi,27.997,47.298,33
66,Gherman,27.605,47.362,24
94,Sculeni,27.628,47.326,66
33,Blindeşti,27.669,47.314,24
46,Floreni,27.663,47.346,20
24,Hristoforovca,27.919,47.356,20
134,Măcăreşti,27.98,47.046,94
28,Frăsineşti,28.018,47.036,20
79,Semeni,27.757,47.269,28
28,Hîrceşti,28.086,47.394,20
33,Drujba,28.077,47.433,20
46,Ţîghira,27.903,47.442,28
28,Negurenii Vechi,27.88,47.412,28
66,Hîrtop,28.418,47.7,20
39,Novaia Nicolaevca,27.835,47.26,20
46,Hirova,28.283,47.413,20
24,Parcani,28.374,47.296,20
24,Bălăneşti,28.066,47.205,20
39,Todireşti,27.821,47.32,33
55,Carabetovca,28.914,46.414,24
39,Iordanovca,28.91,46.394,20
112,Sadaclia,28.88,46.447,55
55,Albina,28.64,46.705,33
39,Bogdanovca Veche,28.829,46.475,33
46,Bogdanovca Nouă,28.843,46.493,20
112,Cenac,28.637,46.477,46
66,Ciucur-Mingir,28.755,46.439,55
39,Coştangalia,28.803,46.618,24
55,Ecaterinovca,28.748,46.583,20
134,Gradişte,28.756,46.608,55
24,Fetiţa,28.675,46.693,20
134,Ialpug,28.588,46.652,28
94,Ialpujeni,28.618,46.589,39
46,Porumbrei,28.809,46.692,24
39,Iurievca,28.764,46.668,24
33,Ivanovca Nouă,28.696,46.745,33
112,Javgur,28.615,46.539,46
24,Maximeni,28.596,46.57,20
24,Schinoşica,28.786,46.729,20
94,Lipoveni,28.755,46.734,33
33,Munteni,28.765,46.705,20
39,Mereni,28.648,46.674,24
79,Sagaidac,28.844,46.661,55
24,Sagaidacul Nou,28.85,46.694,20
66,Satul Nou,28.91,46.615,28
39,Suric,28.871,46.633,20
39,Topala,28.674,46.461,24
66,Dimitrovca,28.716,46.485,24
24,Bălceana,28.406,46.845,20
28,Dubovca,28.607,46.748,20
94,Bozieni,28.64,46.757,39
160,Bujor,28.267,46.923,79
46,Caracui,28.54,46.7,24
46,Călmăţui,28.219,46.783,20
94,Cioara,28.224,46.735,55
94,Horjeşti,28.348,46.713,39
28,Cotul Morii,28.12,46.87,20
39,Dancu,28.207,46.758,20
28,Sărăteni,28.169,46.856,20
33,Frasin,28.195,46.888,20
24,Ivanovca,28.194,46.875,20
24,Anini,28.464,46.889,20
46,Rusca,28.475,46.876,33
134,Leuşeni,28.193,46.824,46
94,Logăneşti,28.541,46.897,55
46,Mereşeni,28.539,46.799,24
192,Mingir,28.327,46.669,79
46,Semionovca,28.304,46.699,20
33,Mireşti,28.254,46.97,24
79,Nemţeni,28.122,46.908,28
46,Obileni,28.163,46.878,28
94,Oneşti,28.25,46.861,24
33,Mărăşeşti,28.071,47.863,24
24,Măgura Nouă,27.954,47.505,20
33,Pervomaisc,27.978,47.632,24
66,Paşcani,28.371,46.971,24
39,Pereni,28.369,47.002,20
46,Pervomaiscoe,28.324,46.886,33
33,Marchet,28.233,46.709,20
66,Pogăneşti,28.233,46.694,33
33,Secăreni,28.327,47.023,20
24,Corneşti,28.334,47.006,20
94,Sofia,28.38,46.843,39
79,Stolniceni,28.485,46.96,39
46,Şipoteni,28.454,46.942,20
28,Meşeni,28.465,46.417,20
134,Iargara,28.434,46.427,94
55,Hîrtop,28.504,46.494,28
55,Beştemac,28.529,46.528,46
33,Piteşti,28.545,46.503,20
79,Borogani,28.519,46.371,55
33,Selişte,28.429,46.528,20
134,Troian,28.462,46.543,20
55,Cazangic,28.435,46.51,20
46,Ceadîr,28.408,46.67,28
24,Frumuşica,28.427,46.556,20
66,Covurlui,28.401,46.592,39
39,Victoria,28.415,46.617,20
39,Cupcui,28.357,46.517,24
79,Filipeni,28.326,46.438,46
55,Romanovca,28.351,46.459,20
94,Cioc-Maidan,28.819,46.363,46
33,Duduleşti,28.519,46.323,24
66,Congazcicul de Sus,28.564,46.332,33
39,Congazcicul de Jos,28.571,46.311,20
33,Etulia Nouă,28.438,45.516,20
66,Gaidar,28.765,46.107,46
94,Joltai,28.873,46.18,33
192,Tomai,28.323,46.573,79
46,Cîzlar,28.523,46.65,20
33,Drăsliceni,28.783,47.157,20
46,Gornoe,28.78,47.19,20
28,Ratuş,28.807,47.167,20
28,Maiscoe,28.049,47.911,20
66,Iliciovca,28.073,47.934,28
66,Nicolaevca,28.284,47.751,33
33,Ion-Vodă,28.325,47.728,20
66,Negreşti,28.625,47.177,24
79,Iabloana,27.618,47.81,46
33,Vatra,28.739,47.074,20
24,Mălăieşti,27.35,47.882,20
28,Ghindeşti,28.376,47.853,20
28,Mărculeşti,28.247,47.884,20
28,Mărculeşti,28.236,47.872,20
39,Stîrcea,27.526,47.79,20
24,Trifăneşti,28.13,47.944,20
28,Piatra Albă,28.819,46.933,20
39,Tomaiul Nou,28.55,46.623,33
46,Sărăţica Veche,28.53,46.602,20
46,Vozneseni,28.469,46.584,20
39,Troiţa,28.465,46.564,20
33,Albota de Jos,28.483,45.94,24
79,Hîrtop,28.492,45.919,20
112,Albota de Sus,28.473,45.972,39
55,Roşiţa,28.474,46.032,20
24,Sofievca,28.472,46.009,24
94,Aluatu,28.582,45.869,28
55,Balabanu,28.577,45.933,20
46,Budăi,28.461,45.848,20
79,Cairaclia,28.622,45.777,66
46,Cealîc,28.556,45.996,20
33,Samurza,28.57,45.976,20
46,Corten,28.735,46.014,39
55,Musaitu,28.502,45.821,39
28,Vinogradovca,28.532,45.802,20
39,Novosiolovca,28.598,45.903,39
46,Salcia,28.512,45.875,28
33,Orehovca,28.527,45.907,20
46,Ciumai,28.567,45.781,28
55,Mirnoe,28.578,45.736,33
66,Chirilovca,28.574,45.817,20
33,Căţeleni,28.187,46.92,33
28,Rassvet,28.426,47.205,20
112,Bugeac,28.664,46.362,39
160,Avdarma,28.838,46.252,66
46,Cigîrleni,28.823,46.755,33
46,Codreni,28.884,46.677,20
24,"Zloţi, loc.st.c.f.",28.897,46.696,20
66,Sadova,28.342,47.196,39
33,Veveriţa,28.103,47.35,20
39,Buzduganii de Sus,27.864,47.16,20
112,Valea Mare,27.863,47.132,33
33,Şicovăţ,27.908,47.108,20
28,Morenii Noi,27.911,47.133,24
46,Ursoaia,28.315,45.85,20
46,Lopăţica,28.412,45.929,20
66,Bucuria,28.346,45.968,33
33,Trifeştii Noi,28.352,45.948,20
160,Moscovei,28.374,45.913,94
79,Burlacu,28.413,46.046,33
46,Taraclia de Salcie,28.414,46.009,28
33,Treteşti,28.174,45.992,20
46,Zîrneşti,28.166,46.011,33
39,Paicu,28.155,46.038,20
55,Borceag,28.527,46.049,46
79,Antoneşti,28.215,46.333,39
55,Leca,28.205,46.308,20
331,Cantemir,28.204,46.276,160
33,Plopi,28.216,46.198,28
33,Taraclia,28.221,46.222,20
66,Hîrtop,28.251,46.234,33
79,Ghioltosu,28.16,46.193,33
28,Ţiganca Nouă,28.166,46.211,20
112,Ţiganca,28.157,46.233,39
55,Stoianovca,28.167,46.257,20
94,Chioselia,28.404,46.14,33
55,Coştangalia,28.385,46.113,24
66,Ciobalaccia,28.284,46.172,28
55,Flocoasa,28.251,46.152,20
66,Lingura,28.324,46.232,24
28,Popovca,28.31,46.248,20
55,Tartaul,28.318,46.204,39
94,Sărata-Galbenă,28.508,46.729,79
28,Brătianovca,28.463,46.74,28
112,Alexandru Ioan Cuza,28.449,45.595,46
94,Başcalia,28.785,46.308,39
33,Cociulia Nouă,28.472,46.442,20
55,Băiuş,28.481,46.455,28
79,Hîrtop,28.684,46.652,39
28,Hîrtop,27.706,47.481,20
66,Pelinei,28.323,45.826,66
66,Hansca,28.751,46.834,28
79,Horeşti,28.874,46.825,39
33,Horodca,28.493,47.045,33
33,Horodca,28.458,47.06,20
94,Moleşti,28.777,46.787,46
55,Ferapontievca,28.773,46.234,33
79,Ulmu,28.543,47.018,33
55,Văsieni,28.59,46.968,39
46,Călugăr,27.687,47.54,33
24,Socii Noi,27.653,47.534,20
28,Frumuşica,27.684,47.514,20
28,Făleştii Noi,27.744,47.574,20
79,Step-Soci,28.795,47.441,33
66,Selişte,28.132,47.167,39
66,Cîrneşti,28,47.175,33
112,Cioreşti,28.22,47.166,55
94,Grozasca,27.902,47.175,24
79,Alexeevca,28.286,47.943,28
39,Băhrineşti,28.243,47.857,20
55,Caşunca,28.395,47.786,20
55,Sîrbeşti,28.325,47.802,33
134,Ciutuleşti,28.391,47.761,66
33,Mărineşti,28.385,47.733,24
112,Coşerniţa,28.464,47.937,55
33,Domulgeni,28.437,47.791,20
55,"Unchiteşti, loc.st.c.f.",28.49,47.906,20
112,Hîrtop,28.458,47.883,33
46,Gura Camencii,28.357,47.893,20
28,Gura Căinarului,28.184,47.863,20
134,Prajila,28.209,47.842,46
33,Mihailovca,28.264,47.802,33
24,Căpreşti,28.466,47.754,20
28,Prodăneşti,28.483,47.739,24
55,Putineşti,28.125,47.838,28
46,Sevirova,28.15,47.928,24
39,Ivanovca,28.157,47.908,20
39,Ştefăneşti,28.437,47.733,28
33,Prodăneştii Vechi,28.449,47.713,20
28,Vărvăreuca,28.317,47.879,20
112,Roşieticii Vechi,28.395,47.82,24
28,Roşietici,28.403,47.832,20
28,Vînători,28.103,47.187,20
66,Hăsnăşenii Noi,27.911,47.857,39
28,Petreni,27.954,47.944,20
55,Buţeni,28.674,46.829,39
55,Fundul Galbenei,28.623,46.882,24
28,Frunzeşti,28.187,47.784,20
112,Sărata Nouă,28.391,46.491,46
55,Cneazevca,28.49,46.632,24
46,Micleuşeni,28.307,47.128,39
94,Văratic,27.258,47.917,46
39,Dumeni,27.203,47.911,24
39,Duruitoarea Nouă,27.245,47.895,20
134,Răuţel,27.823,47.716,55
39,Cajba,27.439,47.727,24
28,Unţeşti,27.911,47.23,20
160,Mileşti,28.041,47.221,46
39,Zagarancea,27.765,47.248,20
66,Drăgăneşti,28.254,47.717,55
24,Duruitoarea,27.261,47.877,20
55,Gălăşeni,27.34,47.871,24
24,Şumna,27.703,47.922,20
55,Bulhac,27.672,47.923,24
24,Cucuieţii Vechi,27.436,47.908,20
55,Sturzeni,27.457,47.916,28
94,Hiliuţi,27.387,47.929,33
24,Dămăşcani,27.304,47.869,20
39,Petruşeni,27.311,47.847,33
33,Păscăuţi,27.277,47.835,20
79,Aluniş,27.652,47.848,33
39,Slobozia-Recea,27.699,47.854,24
66,Uşurei,27.593,47.892,20
24,Lupăria,27.55,47.878,20
39,Sverdiac,27.727,47.896,28
112,Recea,27.67,47.895,66
39,Grinăuţi,27.78,47.882,28
79,Elizaveta,28.006,47.792,46
134,Brăviceni,28.657,47.432,46
24,Andreevca,28.874,47.537,20
112,Chiperceni,28.84,47.522,55
39,Voroteţ,28.856,47.553,28
28,Clişova,28.569,47.478,24
55,Sirota,28.775,47.529,24
33,Ghetlova,28.531,47.381,20
55,Isacova,28.717,47.37,33
33,Neculăieuca,28.696,47.357,20
66,Mălăieşti,28.666,47.462,24
79,Mitoc,28.784,47.388,33
24,Tîrzieni,28.625,47.442,20
39,Breanova,28.65,47.416,20
55,Morozeni,28.636,47.378,46
33,Pelivan,28.776,47.405,20
79,Piatra,28.898,47.362,33
55,Podgoreni,28.778,47.56,28
33,Selişte,28.784,47.337,24
24,Mana,28.684,47.342,20
28,Curchi,28.655,47.337,20
55,Teleşeu,28.707,47.267,33
39,Pocşeşti,28.685,47.25,20
46,Vatici,28.624,47.34,28
79,Tabăra,28.567,47.331,24
39,Ciocîlteni,28.619,47.497,39
55,Bolohan,28.873,47.43,28
24,Cişmea,28.751,47.414,20
94,Pohrebeni,28.908,47.556,39
28,Dişcova,28.6,47.379,20
46,Buşăuca,28.793,47.596,20
192,Cinişeuţi,28.857,47.696,46
39,Cogîlniceni,28.819,47.635,20
28,Echimăuţi,28.901,47.693,24
33,Gordineşti,28.803,47.69,28
39,Bahu,28.461,47.418,28
28,Roşcanii de Sus,28.736,47.649,20
33,Ghiduleni,28.743,47.611,28
24,Roşcanii de Jos,28.769,47.63,20
66,Pereni,28.778,47.656,20
33,Mincenii de Jos,28.883,47.635,33
28,Mincenii de Sus,28.892,47.648,20
39,Meşeni,28.641,47.663,20
28,Otac,28.828,47.588,20
28,Lipceni,28.87,47.808,20
46,Piscăreşti,28.811,47.76,20
24,Pripiceni-Răzeşi,28.759,47.686,24
66,Sîrcova,28.788,47.74,39
24,Ţahnăuţi,28.862,47.742,20
28,Cucuruzenii de Sus,28.702,47.544,28
39,Zahoreni,28.726,47.577,39
112,Hirişeni,28.289,47.435,39
24,Dobruşa,28.556,47.613,20
39,Sărătenii Noi,28.5,47.509,20
66,Tîrşiţei,28.575,47.693,46
39,Chipeşca,28.608,47.762,20
79,Cobîlea,28.673,47.864,33
33,Fuzăuca,28.743,47.743,24
33,Găuzeni,28.565,47.755,20
55,Olişcani,28.714,47.799,39
24,Mihuleni,28.838,47.83,20
46,Lelina,28.744,47.924,20
55,Sămăşcani,28.693,47.755,28
66,Şestaci,28.753,47.861,33
46,Şipca,28.807,47.847,20
28,Vadul-Raşcov,28.825,47.932,20
66,Socola,28.817,47.909,20
24,Iantarnoe,28.841,47.902,20
33,Poiana,28.856,47.887,20
160,Răspopeni,28.623,47.742,55
39,Hligeni,28.878,47.82,28
276,Bravicea,28.439,47.368,94
46,Mîndra,28.265,47.32,33
66,Hîrbovăţ,28.312,47.34,20
33,Podul Lung,28.24,47.26,20
46,Ţibirica,28.369,47.37,39
46,Vălcineţ,28.127,47.267,33
79,Alexeevca,27.936,47.268,33
33,Lidovca,27.895,47.277,24
28,"Buciumeni, loc.st.c.f.",27.697,47.343,20
55,Bumbăta,27.969,47.344,24
66,Măgurele,27.97,47.461,28
94,Petreşti,27.748,47.308,66
28,Izvoreni,27.974,47.431,20
79,Teşcureni,27.942,47.414,39
79,Cotiujenii Mari,28.554,47.846,66
33,"Cobîlea, loc.st.c.f.",28.603,47.859,24
28,Cuşelăuca,28.567,47.876,24
39,Pohoarna,28.498,47.832,28
79,Dobruşa,28.595,47.789,20
24,Rezina,27.879,47.216,20
46,Codrul Nou,28.574,47.546,20
66,Lazo,27.928,47.893,28
33,Cepăria,27.714,47.933,20
46,Grăseni,27.836,47.353,24
24,Bozieni,28.623,46.771,24
39,Heciul Nou,28.062,47.774,33
55,Chirileni,28.196,47.691,20
28,Izvoare,28.195,47.717,20
39,Valea Norocului,28.201,47.767,39
28,Petropavlovca,28.21,47.594,20
28,Ciofu,28.22,47.563,20
39,Clişcăuţi,28.292,47.609,20
28,Şestaci,28.29,47.623,20
33,Mihailovca,28.263,47.592,20
24,Iezărenii Noi,28.094,47.589,20
46,Iezărenii Vechi,28.088,47.565,39
55,Octeabrscoe,27.948,47.715,33
39,Ţambula,27.924,47.698,20
24,Grigorăuca,28.198,47.62,20
39,Copăceni,28.234,47.615,39
28,Antonovca,28.236,47.672,20
24,Gavrilovca,28.26,47.646,20
55,Petrovca,28.231,47.657,33
28,Dobrogea Veche,27.934,47.839,20
28,Cotovca,27.974,47.853,20
134,Cubolta,28.033,47.874,46
134,Pepeni,28.341,47.64,112
46,Vrăneşti,28.101,47.624,20
24,Slobozia-Măgura,27.967,47.488,20
134,Bursuceni,28.018,47.488,28
28,Mîndreştii Noi,28.028,47.719,28
79,Bilicenii Noi,28.036,47.696,20
55,Lipovanca,27.985,47.678,20
24,Coada Iazului,28.001,47.658,24
46,Bilicenii Vechi,28.048,47.656,46
94,Nicolaevca,28.029,47.608,28
46,Bălăşeşti,28.356,47.66,20
39,Sîngereii Noi,28.085,47.724,39
39,Trifăneşti,28.097,47.743,20
66,Biruinţa,28.075,47.813,33
24,Micleşti,28.803,47.241,20
24,Paşcani,28.833,47.169,20
33,Rîşcova,28.848,47.253,20
46,Romăneşti,28.714,47.222,33
39,Găleşti,28.494,47.224,20
24,Găleştii Noi,28.495,47.207,20
24,Ghelăuza,28.596,47.193,20
94,Micăuţi,28.748,47.173,39
33,Grătieşti,28.832,47.088,24
66,Pituşca,28.423,47.236,55
24,Cuhureştii de Jos,28.591,47.93,24
39,Cuhureştii de Sus,28.555,47.923,20
134,Cunicea,28.644,47.908,94
79,Bahmut,28.111,47.321,39
55,Condrăteşti,28.109,47.413,28
46,Boghenii Noi,28.01,47.426,28
33,Mirceşti,27.994,47.406,20
28,Poiana,28.002,47.39,20
39,Agronomovca,27.895,47.349,24
28,Slobozia-Chişcăreni,28.006,47.573,20
192,Chişcăreni,28.012,47.559,79
55,Pecişte,28.707,47.715,33
28,Dănceni,28.708,46.968,20
28,Nimoreni,28.664,47.008,20
24,Pojăreni,28.69,46.886,20
39,Sociteni,28.722,46.943,20
79,Suruceni,28.674,46.984,39
28,Tomeştii Noi,27.354,47.674,20
66,Lipovăţ,27.368,47.727,28
55,Buteşti,27.332,47.795,20
39,Brînzeni,27.36,47.818,39
66,Cobani,27.321,47.768,55
66,Viişoara,27.446,47.618,20
46,Bisericani,27.328,47.643,20
55,Petrunea,27.576,47.749,39
46,Fundurii Vechi,27.713,47.742,46
39,Limbenii Noi,27.623,47.722,28
33,Chetrişul Nou,27.509,47.625,24
66,Ustia,27.59,47.662,55
33,Soroca,27.564,47.805,20
39,Nicolaevca,27.554,47.823,28
28,Camencuţa,27.454,47.83,24
55,Risipeni,27.66,47.462,20
134,Călineşti,27.482,47.571,66
46,Răuţelul Nou,27.75,47.699,24
79,Pompa,27.939,47.656,33
28,Ciuluc,27.785,47.651,20
94,Mărăndeni,27.827,47.666,39
94,Glinjeni,27.888,47.601,79
134,Sărata Veche,27.736,47.508,46
24,Sărata Nouă,27.791,47.499,24
28,Hitreşti,27.765,47.556,20
66,Logofteni,27.579,47.625,28
66,Musteaţa,27.645,47.513,28
46,Işcălău,27.821,47.572,20
66,Doltu,27.823,47.538,39
55,Ciolacu Nou,27.828,47.483,33
66,Tăura Veche,27.953,47.538,28
28,Ţipleteşti,28.12,47.817,20
46,Hulboaca,28.808,47.112,20
24,Limbenii Vechi,27.609,47.69,24
94,Duşmani,27.482,47.719,46
112,Ciuciulea,27.483,47.66,79
112,Danu,27.497,47.831,46
46,Ghindeşti,28.384,47.865,39
28,Grigoreşti,28.063,47.801,20
39,Cîşla,28.225,47.499,20
66,Ghiliceni,28.202,47.483,33
46,Cucioaia,28.185,47.461,20
55,Zgărdeşti,28.193,47.531,24
39,Cozeşti,28.182,47.569,28
55,Bucovăţ,28.456,47.189,33
39,Tătăreşti,28.538,47.206,20
55,Voinova,28.49,47.271,24
33,Chirianca,28.53,47.258,20
39,Oneşti,28.543,47.282,20
24,Lupa-Recea,28.587,47.314,20
112,Codreanca,28.59,47.286,46
28,Ţigăneşti,28.55,47.301,24
134,Zubreşti,28.526,47.239,55
33,Roşcani,28.677,47.147,24
39,Recea,28.58,47.224,33
55,Grebleşti,28.612,47.242,20
24,Drăguşeni,28.662,47.215,20
33,Rădeni,28.698,47.207,20
33,Cotiujenii Mici,28.305,47.704,28
33,Romanovca,28.298,47.656,24
28,Alexeuca,28.288,47.691,20
46,Cuşmirca,28.706,47.905,33
28,Curătura,28.911,47.877,20
134,Alcedar,28.869,47.867,46
28,Odaia,28.847,47.856,20
79,Ignăţei,28.661,47.682,33
79,Cuizăuca,28.815,47.614,66
94,Coropceni,28.521,47.475,39
39,Donici,28.669,47.286,24
66,Işnovăţ,28.865,47.233,39
66,Brejeni,28.139,47.582,24
33,Bobletici,28.054,47.466,24
33,Bocancea-Schit,28.135,47.51,28
55,Dumbrăviţa,28.117,47.48,46
94,Prepeliţa,28.342,47.588,39
33,Tăura Nouă,27.904,47.549,20
276,Pîrliţa,27.88,47.321,112
28,Medeleni,27.693,47.295,20
94,Horodişte,28.248,47.206,33
28,Parcani,28.836,47.817,20
33,Dumbrava,28.744,47.041,20
39,Caterinovca,28.876,47.938,28
134,Corneşti,28.001,47.368,55
33,Ocniţa-Răzeşi,28.722,47.474,20
33,Zorile,28.738,47.455,24
39,Crihana,28.72,47.523,20
79,Cucuruzeni,28.724,47.49,46
46,Ţareuca,28.884,47.75,39
28,Clococenii Vechi,27.421,47.714,20
79,Bocani,27.885,47.518,55
55,Zăzulenii Noi,27.872,47.383,24
66,Hăsnăşenii Mari,27.985,47.918,33
66,Şaptebani,27.346,47.899,28
192,Costeşti,27.255,47.854,55
33,Reteni,27.259,47.811,20
55,Branişte,27.254,47.795,33
39,Răcăria,27.619,47.91,28
46,Malinovscoe,27.505,47.883,33
94,Ivancea,28.861,47.285,28
112,Sofia,27.861,47.945,55
55,Elizavetovca,27.827,47.244,33
28,Moara de Piatră,28.005,47.892,20
28,Nihoreni,27.558,47.939,20
55,Alexăndreşti,27.424,47.894,20
94,Sturzovca,27.719,47.8,55
28,Brăila,28.839,46.916,20
66,Malcoci,28.631,47.027,28
55,Mileştii Mici,28.806,46.905,24
24,Zîmbreni,28.847,46.838,20
192,Balatina,27.341,47.697,79
33,Fundurii Noi,27.651,47.754,28
33,Hîjdieni,27.463,47.773,24
55,Sadovoe,27.794,47.778,28
66,Cuhneşti,27.373,47.658,28
160,Colibaşi,28.181,45.718,134
331,Nisporeni,28.18,47.079,160
476,Cimişlia,28.783,46.517,192
192,Gura Galbenei,28.699,46.7,79
160,Lăpuşna,28.413,46.886,112
476,Leova,28.256,46.48,276
134,Cazaclia,28.663,46.008,55
79,Chirsova,28.648,46.229,33
112,Cişmichioi,28.381,45.547,112
192,Congaz,28.597,46.091,134
230,Dezghingea,28.614,46.423,94
39,Etulia,28.439,45.534,33
160,Ciuciuleni,28.414,47.015,94
822,Comrat,28.651,46.27,331
66,Baurci,28.676,46.095,39
2450,Cahul,28.198,45.906,986
476,Hînceşti,28.59,46.814,134
94,Copceac,28.693,45.849,39
160,Slobozia Mare,28.173,45.56,134
192,Lozova,28.382,47.135,79
192,Răzeni,28.903,46.767,94
160,Şoldăneşti,28.79,47.812,112
94,Sipoteni,28.198,47.278,79
192,Rădoaia,28.162,47.725,66
46,Bardar,28.666,46.902,20
276,Sîngerei,28.14,47.639,160
160,Costeşti,28.766,46.866,55
66,Ruseştii Noi,28.65,46.928,66
100000,Chişinău,28.859,47.017,100000
134,Stăuceni,28.879,47.083,39
55,Ghidighici,28.767,47.094,33
66,Sireţi,28.714,47.132,33
66,Durleşti,28.762,47.022,55
94,Cricova,28.858,47.14,94
24,Ciorescu,28.887,47.128,20
1183,Bălţi,27.905,47.767,685
55,Băcioi,28.895,46.916,55
134,Truşeni,28.689,47.066,46
192,Străşeni,28.62,47.147,160
55,Cojuşna,28.672,47.096,20
397,Floreşti,28.294,47.897,192
685,Orhei,28.829,47.338,230
397,Ceadîr-Lunga,28.827,46.055,134
192,Pelinia,27.834,47.874,79
822,Ungheni,27.796,47.197,476
276,Glodeni,27.512,47.772,134
192,Ialoveni,28.781,46.938,66
397,Vulcanesti,28.406,45.683,160
192,Carpineni,28.335,46.764,134
94,Tomai,28.766,46.186,79
476,Taraclia,28.668,45.902,134
55,Vorniceni,28.432,47.153,24
192,Telenesti,28.364,47.502,134
276,Calarasi,28.329,47.249,192
476,Falesti,27.707,47.576,192
79,Codru,28.82,46.973,33
94,Corlateni,27.831,47.827,39
94,Peresecina,28.77,47.251,79
28,"Ghizdita, loc.st.c.f",27.735,48.102,20
39,Calfa,29.376,46.904,28
46,Ciobanovca,29.195,46.815,33
39,Batîc,29.191,46.796,20
55,Batîr,28.998,46.575,33
28,Mileştii Noi,28.961,46.746,24
94,Cărbuna,28.95,46.711,39
55,Mihailovca,28.928,46.545,24
66,Gangura,29.011,46.731,28
79,Misovca,29.004,46.769,28
276,Pervomaisc,29.964,46.737,94
46,Speia,29.324,46.982,20
79,Teiu,29.397,46.957,39
33,Tocmagiu,29.377,46.945,20
66,Crasnogorca,29.459,46.966,28
39,Novovladimirovca,29.521,46.939,33
39,Mereneşti,29.539,46.777,28
79,Nicolscoe,29.857,46.876,20
24,Constantinovca,29.846,46.851,20
134,Vladimirovca,29.823,46.843,66
39,Frunză,29.888,46.828,39
79,Andriaşevca Nouă,29.957,46.831,39
39,Prioziornoe,29.93,46.795,20
66,Novocotovsc,29.953,46.77,24
46,Tiraspolul Nou,29.575,46.84,28
28,"Căinari, loc.st.c.f.",29.102,46.669,24
160,Căinari,29.052,46.679,79
33,Surchiceni,29.055,46.621,28
33,Baimaclia,29.093,46.59,20
66,Chircăieştii Noi,28.977,46.66,24
55,Ciufleşti,29.002,46.626,39
79,Coşcalia,29.158,46.688,55
46,Picus,29.094,46.751,20
55,Ochiul Roş,29.113,46.769,33
46,Constantinovca,29.114,46.721,28
46,Pervomaisc,29.085,46.701,20
112,Taraclia,29.116,46.569,66
33,Larga,29.162,46.761,20
39,Florica,29.22,46.693,33
33,Plop,29.22,46.709,20
28,Tricolici,29.24,46.738,24
66,Zolotievca,29.191,46.738,39
55,Nicolaevca,29.202,46.762,20
66,Cîrnăţenii Noi,29.139,46.648,33
28,Sălcuţa Nouă,29.191,46.632,28
46,Antoneşti,29.846,46.496,28
66,Brezoaia,29.457,46.52,24
94,Carahasani,29.812,46.465,46
160,Căplani,29.872,46.387,94
55,Cioburciu,29.713,46.598,39
66,Copceac,29.523,46.451,55
66,Crocmaz,29.986,46.45,46
79,Ermoclia,29.513,46.58,66
55,Feşteliţa,29.566,46.544,33
33,Alava,29.567,46.51,20
79,Lazo,29.575,46.488,20
28,Marianca de Jos,29.603,46.521,24
160,Palanca,30.094,46.409,33
28,Viişoara,29.825,46.546,20
55,Purcari,29.862,46.54,39
112,Răscăieţi,29.787,46.573,55
46,Răscăieţii Noi,29.775,46.533,24
39,Semionovca,29.514,46.518,28
46,Tudora,30.046,46.437,33
192,Volintiri,29.609,46.43,79
46,Slobozia,29.739,46.508,46
66,Ştefăneşti,29.689,46.445,39
46,Popeasca,29.534,46.599,20
112,Hagimus,29.481,46.766,33
112,Baccealia,29.278,46.692,55
33,Grigorievca,29.327,46.694,24
39,Ştefăneşti,29.372,46.706,20
66,Zaim,29.343,46.616,39
55,Marianca de Sus,29.312,46.648,24
66,Opaci,29.345,46.58,28
112,Tănătari,29.416,46.723,46
24,Ursoaia,29.445,46.705,20
66,Cîrnăţeni,29.49,46.656,33
24,Fîrlădenii Noi,29.306,46.751,20
46,Tănătarii Noi,29.325,46.735,33
55,Chircăieşti,29.526,46.719,46
134,Tocuz,29.297,46.524,55
66,Zviozdocica,29.325,46.478,33
55,Plop-Ştiubei,29.526,46.679,24
134,Sălcuţa,29.248,46.599,79
46,Abaclia,28.938,46.362,33
46,Ivanovca,28.948,46.506,20
94,Iserlia,28.955,46.483,39
33,Carabiber,28.994,46.473,24
160,Selemet,28.924,46.575,66
94,Chiriet-Lunga,28.941,46.211,55
33,Bălăbăneşti,29.136,47.067,28
94,Budeşti,28.997,47.066,66
160,Cimişeni,29.13,47.012,55
24,Cruglic,29.027,47.22,20
33,Constantinovca,27.106,48.249,20
112,Teţcani,26.976,48.175,39
33,Bogdăneşti,26.997,48.142,20
24,Grimeşti,26.975,48.133,20
28,Pavlovca,26.875,48.379,20
55,Gîrbova,27.62,48.376,24
28,Tîrgul-Vertiujeni,28.531,48.03,24
28,Humuleşti,28.978,46.996,20
46,Cuconeştii Vechi,27.156,47.968,24
39,Molochişul Mare,29.05,47.857,28
55,Bîc,28.948,46.947,24
39,Izvoare,28.131,47.978,20
46,Crişcăuţi,27.853,48.267,39
46,Şurii Noi,27.801,48.066,20
46,Baroncea Nouă,27.852,47.998,28
46,Buschi,29.074,47.715,28
39,Cremenciug,29.674,46.71,20
55,Caragaş,29.683,46.782,28
28,Nezavertailovca,29.924,46.605,20
46,Corotna,29.858,46.631,28
66,Zahorna,29.596,46.746,28
79,Dominteni,27.948,47.96,28
46,Teleşeuca,27.903,48.281,24
24,Măcăreuca,27.974,48.142,20
46,Şeptelici,28.155,48.2,24
33,Vanţina,28.189,48.099,20
39,Popeştii Noi,27.983,47.975,20
55,Valea Perjei,28.928,46.029,55
94,Geamăna,29.138,46.821,55
112,Gura Bîcului,29.459,46.93,46
39,Balmaz,29.284,46.798,20
55,Hîrbovăţul Nou,29.279,46.832,33
46,Troiţa Nouă,29.257,46.783,39
79,Roşcani,29.32,46.9,39
79,Teliţa,29.306,46.957,24
94,Troiţcoe,29.028,46.518,39
28,Văratic,29.064,46.81,20
46,Gîsca,29.438,46.781,28
112,Săiţi,29.405,46.498,55
397,Ucrainca,29.275,46.431,66
39,Valea Verde,29.585,46.691,20
33,Grădiniţa,29.583,46.654,33
55,Fîrlădeni,29.365,46.788,46
39,Varniţa,29.476,46.866,28
55,Ţipala,28.973,46.828,33
28,Budăi,28.974,46.813,20
24,Stălineşti,27.266,48.339,20
46,Corestăuţi,27.259,48.352,33
66,Hădărăuţi,27.338,48.37,46
46,Sauca,27.728,48.375,20
46,Berezovca,27.778,48.382,24
66,Mihălăşeni,27.424,48.324,24
94,Rujniţa,27.435,48.25,39
28,Dumitreni,28.319,47.971,28
39,Cerniţa,28.467,47.965,20
66,Ciripcău,28.386,47.982,46
66,Frumuşica,28.116,47.961,33
24,Antoneuca,27.694,48.076,20
33,Baroncea,27.912,48.033,20
134,Cotova,27.948,48.161,46
39,Drochia,27.811,48.113,28
66,Miciurin,27.791,47.987,39
112,Nicoreni,27.698,47.967,55
39,Ochiul Alb,27.67,48.018,33
28,Iliciovca,27.879,48.156,24
46,Şalvirii Noi,27.919,48.144,20
39,Palanca,27.917,48.125,20
24,Sergheuca,27.729,48.063,20
46,Pervomaiscoe,27.717,48.083,20
55,Floriceni,28.013,48.02,39
94,Popeştii de Jos,28.029,48.072,39
33,Popeştii de Sus,28.019,48.091,20
28,Şalvirii Vechi,27.846,48.199,28
24,Ceapaevca,27.866,48.206,20
55,Dărcăuţi,27.983,48.226,33
24,Dărcăuţii Noi,27.999,48.211,20
39,Mălcăuţi,27.944,48.214,20
39,Dubna,28.314,48.013,20
66,Egoreni,28.36,48.207,33
66,Holoşniţa,28.175,48.246,39
33,Cureşniţa,28.178,48.229,20
276,Iarova,28.046,48.318,79
55,Ocolina,28.256,48.124,24
79,Parcani,28.288,48.062,39
112,Racovăţ,28.402,48.08,66
55,Rubleniţa,28.212,48.169,46
66,Schineni,28.094,48.093,28
94,Vărăncău,28.514,48.064,39
55,Slobozia-Cremene,28.421,48.038,28
46,Stoicani,28.359,48.026,28
39,Soloneţ,28.403,47.999,20
39,Rubleniţa Nouă,28.135,48.153,20
46,Şolcani,28.112,48.175,39
94,Vasilcău,28.42,48.134,46
39,Trifăuţi,28.381,48.162,24
33,Voloave,28.289,48.093,20
24,Lugovoe,28.185,48.07,20
66,Pîrliţa,28.212,48.077,28
55,Regina Maria,28.141,48.057,24
46,Vădeni,28.224,48.012,46
39,Dumbrăveni,28.226,48.052,20
55,Voloviţa,28.322,48.105,28
39,Inundeni,28.355,48.128,24
55,Hristici,28.18,48.118,39
66,Fîntîniţa,27.691,48.109,33
112,Mîndîc,27.791,48.151,46
33,Niorcani,27.931,48.297,20
28,Rudi,27.898,48.329,20
33,Tătărăuca Nouă,27.972,48.316,20
46,Tătărăuca Veche,27.982,48.297,28
33,Decebal,27.992,48.28,20
55,Visoca,27.924,48.247,55
28,Armanca,27.524,47.986,20
94,Vasileuţi,27.512,48.008,20
33,Climăuţi,27.613,48.314,28
46,Horodişte,27.785,48.268,28
160,Tîrnova,27.654,48.163,55
39,Donduşeni,27.584,48.226,20
39,Elizavetovca,27.716,48.278,20
94,Maramonovca,27.794,48.203,39
39,Rediul Mare,27.515,48.234,33
66,Plop,27.706,48.253,39
39,Braicău,27.733,48.304,24
39,Sudarca,27.783,48.305,39
192,Briceni,27.703,48.356,94
79,Pocrovca,27.858,48.33,33
55,Scăieni,27.588,48.176,39
55,Ţaul,27.674,48.211,39
134,Cernoleuca,27.56,48.313,46
24,Octeabriscoe,27.669,48.339,20
66,Moşana,27.69,48.323,28
46,Bîrnova,27.531,48.422,24
24,Verejeni,27.615,48.44,20
24,Lencăuţi,27.65,48.433,20
39,Unguri,27.87,48.402,28
94,Gribova,27.931,48.014,39
39,Bădragii Vechi,27.106,48.037,20
28,Chirca,29.108,46.922,20
39,Floreşti,29.181,46.997,20
33,Delacău,29.303,47.099,24
66,Gaşpar,27.496,48.153,46
112,Terebna,27.248,48.048,55
28,Pociumbăuţi,27.321,47.997,20
55,Horodişte,27.261,47.953,28
28,Druţa,27.298,47.964,20
230,Viişoara,27.047,48.095,55
39,Moşeni,27.455,48.028,28
55,Pîrjota,27.429,47.957,28
28,Balanul Nou,27.502,47.961,24
24,Rîngaci,27.341,48.311,20
66,Cepeleuţi,27.312,48.303,46
33,Gordineştii Noi,27.226,48.169,24
33,Alexăndreni,27.261,48.147,24
66,Hîjdieni,28.916,47.458,46
39,Berezlogi,28.933,47.436,20
39,Lopatna,29.051,47.496,20
39,Jora de Mijloc,29.092,47.474,33
192,Susleni,28.987,47.412,79
24,Butuceni,28.969,47.302,20
24,Trebujeni,28.978,47.311,20
33,Izvoare,28.957,47.552,28
55,Şercani,28.927,47.515,28
66,Vîşcăuţi,29.074,47.432,33
28,Boşerniţa,28.984,47.788,20
46,Ciorna,28.976,47.769,28
28,Slobozia-Horodişte,28.939,47.598,20
55,Horodişte,28.947,47.61,46
24,Ţipova,28.979,47.603,20
55,Lalova,29.021,47.562,20
24,Saharna Nouă,28.956,47.676,24
55,Buciuşca,28.988,47.641,20
55,Mateuţi,28.93,47.809,39
28,Păpăuţi,28.924,47.796,20
55,Solonceni,29.002,47.829,24
28,Cot,28.779,47.979,20
55,Salcia,28.73,47.948,20
39,Solnecinoe,28.636,48.04,20
28,Crasnîi Octeabri,28.548,48.013,20
33,Briceva,27.649,48.115,24
66,Rămăzan,27.615,47.985,33
94,Mihăileni,27.616,48.04,79
46,Ştiubeieni,27.514,48.031,20
46,Ciubara,27.536,48.077,24
46,Caraiman,27.565,48.108,20
24,Frasin,27.55,48.137,20
66,Codrenii Noi,27.577,48.144,28
160,Baraboi,27.623,48.085,39
24,Hîrtopul Mic,28.927,47.241,20
28,Hîrtopul Mare,28.94,47.228,28
39,Ciopleni,28.943,47.133,28
160,Izbişte,28.997,47.222,55
46,Jevreni,29.062,47.258,33
94,Maşcăuţi,29.002,47.288,79
46,Oniţcani,29.069,47.145,24
24,Răculeşti,29.067,47.27,20
33,Slobozia-Duşca,29.118,47.166,20
66,Zăicana,28.952,47.167,33
46,Cocieri,29.112,47.307,24
39,Roghi,29.139,47.322,20
24,Pohrebea,29.166,47.18,20
66,Doroţcaia,29.201,47.174,33
28,Holercani,29.069,47.312,24
112,Molovata,29.114,47.35,33
66,Oxentea,29.12,47.382,24
46,Ustia,29.129,47.258,20
55,Zăbriceni,27.259,48.073,20
46,Stolniceni,27.346,48.038,24
66,Coloniţa,28.956,47.042,24
24,Revaca,28.938,46.908,20
24,Tohatin,28.941,47.058,20
55,Bleşteni,27.221,48.117,28
28,Buzdugeni,27.156,48.108,20
55,Brînzeni,27.174,48.083,20
55,Bădragii Noi,27.074,48.063,20
55,Feteşti,27.098,48.165,39
55,Burlăneşti,27.128,48.126,28
66,Lopatnic,27.055,48.134,28
79,Gordineşti,27.169,48.16,66
55,Brăneşti,28.925,47.305,46
46,Furceni,28.92,47.334,20
55,Maximovca,29.017,47.008,33
24,Merenii Noi,29.066,46.927,20
66,Puhăceni,29.346,47.088,28
66,Ţînţăreni,29.138,46.9,55
55,Şuri,27.857,48.094,24
39,Ţarigrad,27.759,48.046,28
55,Zguriţa,28.006,48.128,39
55,Cerlina,28.608,48.081,28
66,Năpadova,28.598,48.02,28
112,Nimereuca,28.538,48.11,66
46,Temeleuţi,28.498,47.979,20
33,Văscăuţi,28.511,47.955,20
134,Vertiujeni,28.538,47.994,66
33,Zăluceni,28.556,48.052,20
192,Bădiceni,28.053,48.205,94
55,Băxani,28.086,48.122,24
160,Căinarii Vechi,28.125,48.004,112
39,Iorjniţa,28.213,48.193,20
160,Cosăuţi,28.279,48.225,55
24,Oclanda,28.057,48.29,20
66,Cremenciug,28.083,48.274,28
28,Grigorăuca,28.096,48.21,20
55,Sobari,28.064,48.231,24
39,Slobozia Nouă,27.98,48.258,24
24,Bezeda,27,48.159,20
46,Podoimiţa,28.75,48.003,33
230,Plopi,29.161,47.955,94
28,Chetroşica Veche,27.404,48.12,20
55,Brătuşenii Noi,27.485,48.062,33
33,Poiana,27.351,48.251,20
39,Hancăuţi,27.188,48.049,33
24,Fîntîna Albă,27.432,48.161,20
94,Ruseni,27.417,48.201,55
24,Goleni,27.434,48.209,20
24,Grozniţa,27.239,48.259,20
39,Mihăileni,27.25,48.245,20
33,Halahora de Sus,27.18,48.254,33
33,Halahora de Jos,27.171,48.231,20
112,Caracuşenii Vechi,27.074,48.269,46
28,Vălcineţ,27.731,48.45,24
46,Pîrîta,29.116,47.106,20
55,Dobrogea,28.989,46.883,24
28,Buneţi,28.916,47.079,20
46,Ceroborta,28.952,47.095,20
33,Japca,28.706,47.982,20
79,Bursuc,28.739,47.973,24
46,Sănătăuca,28.676,48.012,20
28,Chetroşica Nouă,27.475,48.116,28
55,Şofrîncani,27.394,48.052,20
46,Chiurt,27.342,48.062,20
55,Brătuşeni,27.4,48.077,24
94,Rotunda,27.308,48.242,28
33,Hincăuţi,27.307,48.272,24
94,Parcova,27.405,48.153,39
28,Mărcăuţii Noi,27.227,48.297,20
39,Mîrzeşti,28.998,47.499,20
66,Bulăieşti,28.986,47.477,33
39,Marcăuţi,29.059,47.355,28
24,Ohrincea,29.06,47.221,20
46,Corjova,29.174,47.097,28
55,Corpaci,27.138,48.008,39
79,Cuconeştii Noi,27.205,47.988,46
134,Raşcov,28.83,47.95,55
66,Stroieşti,28.934,47.888,28
24,Vadul Turcului,28.99,47.938,24
79,Haraba,29.09,47.897,39
28,Lenin,29.189,47.67,20
66,Pervomaisc,29.206,47.682,46
28,Stanislavca,29.21,47.698,20
230,Jura,29.04,47.516,66
33,Butuceni,29.028,47.535,20
39,Doibani 2,29.213,47.408,20
46,Sagaidac,29.028,47.028,20
39,Văduleni,29.083,47.07,20
79,Vadul lui Vodă,29.075,47.09,39
39,Frunzăuca,28.587,48.157,33
24,Hruşca,28.565,48.117,20
39,Saharna,28.972,47.692,20
46,Constantinovca,28.857,47.988,33
79,Slobozia-Raşcov,28.938,47.952,28
46,Vasilievca,29.11,47.94,24
66,Ivanovca,29.174,47.878,28
112,Broşteni,29.266,47.882,55
230,Crasnencoe,29.142,47.847,66
39,Mihailovca Nouă,29.121,47.795,33
24,Şmalena,29.078,47.759,20
55,Ulmu,29.106,47.745,39
24,Ulmul Mic,29.123,47.754,20
46,Andreevca,29.171,47.765,20
24,Suhaia Rîbniţa,29.181,47.799,20
112,Cobasna,29.211,47.782,46
66,Gherşunovca,29.169,47.718,24
94,Vărăncău,29.122,47.694,66
24,Şevcenco,29.183,47.586,20
94,Basarabca,29.161,47.577,39
39,Novaia Jizni,29.08,47.657,28
33,Vladimirovca,29.092,47.622,28
46,Pobeda,29.195,47.62,28
192,Mocra,29.146,47.629,46
39,Ţîbuleuca,29.105,47.406,20
33,Goian,29.161,47.377,24
33,Iagorlîc,29.161,47.393,20
112,Doibani 1,29.208,47.39,46
46,Afanasievca,29.254,47.323,46
112,Dubău,29.279,47.43,39
39,Goianul Nou,29.32,47.385,20
134,Popencu,29.025,47.587,55
24,"Cobasna, loc.st.c.f.",29.206,47.756,20
33,Maiac,29.383,47.238,20
79,Crasnoe,29.36,47.181,28
28,Dzerjinscoe,29.18,47.223,20
192,Hlinaia,29.415,47.228,79
66,Mocreachi,29.383,47.274,28
66,Marian,29.332,47.235,28
46,Crasnaia Gorca,29.324,47.127,20
39,Taşlîc,29.397,47.072,28
55,Butor,29.4,47.045,20
39,Cotovca,29.478,47.284,20
94,Carmanova,29.504,47.259,39
33,Mocearovca,29.55,47.24,28
112,Vesioloe,29.553,47.203,28
94,Şipca,29.51,47.166,66
134,Vinogradnoe,29.491,47.083,46
94,Cerniţa,29.519,47.031,33
79,Ocniţa,28.636,48.131,28
160,Hristovaia,28.731,48.104,66
46,Rotari,28.811,48.104,39
66,Socolovca,28.837,48.062,28
33,Bodeni,28.781,48.081,24
33,Cuzmin,28.63,48.094,20
66,Hîrjău,29.004,47.799,28
94,Ofatinţi,28.997,47.668,46
33,Zăzuleni,28.996,47.612,20
39,Vasilievca,29.305,47.369,33
28,Crasnîi Vinogradari,29.278,47.298,28
94,Lunga Nouă,29.274,47.285,55
66,Coşniţa Nouă,29.33,47.314,24
24,Pohrebea Nouă,29.378,47.31,20
192,Comisarovca Nouă,29.357,47.339,79
66,Pobeda,29.496,47.351,39
79,Crasnaia Besarabia,29.587,47.284,33
94,Colosova,29.567,47.331,66
33,Lunga,29.163,47.255,20
39,Bălţata,29.046,47.05,28
28,Bălţata de Sus,29.035,47.065,20
66,Severinovca,28.724,48.074,24
28,Ruseni,29.197,46.886,20
33,Salcia,29.17,46.945,20
28,Botnăreşti,29.161,46.931,24
46,Chetrosu,29.046,46.917,33
66,Cobusca Nouă,29.207,46.932,28
33,Socoleni,29.188,46.907,20
66,Cobusca Veche,29.181,46.971,33
134,Zăicani,27.367,47.975,79
39,Pociumbeni,27.304,47.978,24
33,Alexeevca,27.264,48.093,20
39,Rădulenii Vechi,28.262,47.985,24
33,Bulboci,28.092,48.045,28
46,Borosenii Noi,27.47,47.989,46
33,Corbu,27.574,48.264,20
112,Arioneşti,27.849,48.371,39
55,Mereşeuca,27.682,48.434,24
33,Maiovca,27.394,48.371,20
66,Ocniţa,27.438,48.384,24
94,Clocuşna,27.346,48.427,55
28,Grinăuţi,27.468,48.314,24
24,Grinăuţi,27.503,48.317,20
66,Dîngeni,27.481,48.346,28
94,Tîrnova,27.174,48.205,33
55,Hlinaia,27.25,48.221,39
55,Floreni,28.991,46.937,20
55,Speia,29.296,47.009,28
160,Şerpeni,29.354,47.024,46
66,Creţoaia,29.134,46.867,28
66,Boşcana,29,47.127,46
39,Coşerniţa,29.049,47.12,20
46,Trinca,27.114,48.209,39
55,Drepcăuţi,26.725,48.27,46
55,Criva,26.667,48.269,28
55,Coteala,26.863,48.331,33
55,Hlina,26.874,48.291,28
46,Pererita,26.92,48.207,33
55,Balasineşti,26.962,48.244,46
94,Frunză,27.597,48.409,39
66,Grinăuţi-Moldova,27.448,48.282,28
39,Calaraşovca,27.807,48.426,20
134,Naslavcea,27.576,48.46,24
33,Todireşti,29.094,46.909,24
24,Bălţaţi,28.955,46.843,20
33,Slobodca,27.371,48.205,24
24,Hlinaia Mică,27.269,48.253,20
192,Corjeuţi,27.044,48.215,134
33,Caracuşenii Noi,27.025,48.325,33
192,Bulboaca,27.202,48.371,134
46,Trebisăuţi,27.185,48.352,20
39,Şirăuţi,26.841,48.239,24
24,Slobozia-Şirăuţi,26.873,48.242,20
94,Tabani,27.1,48.31,33
94,Cotiujeni,26.938,48.347,55
66,Grimăncăuţi,27.089,48.391,66
39,Colicăuţi,27.151,48.311,28
112,Mărcăuţi,27.222,48.313,28
66,Bălcăuţi,27.2,48.287,24
94,Beleavinţi,26.934,48.292,33
39,Berlinţi,26.936,48.311,20
39,Medveja,26.791,48.362,24
28,Slobozia-Medveja,26.746,48.383,28
39,Bulboaca,29.298,46.881,20
230,Ştefan Vodă,29.661,46.513,134
160,Talmaza,29.655,46.648,46
160,Olăneşti,29.918,46.498,94
476,Căuşeni,29.421,46.634,160
230,Tvardiţa,28.967,46.134,79
79,Hîrbovăţ,29.356,46.845,66
160,Puhoi,29.037,46.822,66
571,Tiraspol,29.633,46.852,476
230,Mălăieşti,29.55,46.981,66
66,Blijnii Hutor,29.645,46.886,28
46,Sucleia,29.661,46.822,20
46,Tîrnauca,29.556,46.81,28
46,Parcani,29.516,46.842,24
79,Copanca,29.611,46.705,39
79,Rezina,28.962,47.729,33
55,Coşniţa,29.134,47.147,39
66,Criuleni,29.158,47.213,46
134,Sîngera,28.971,46.915,39
66,Bubuieci,28.942,46.988,46
230,Anenii Noi,29.23,46.879,134
685,Ocniţa,27.48,48.409,112
571,Edineţ,27.303,48.171,397
79,Chiţcani,29.605,46.778,39
112,Mereni,29.057,46.955,46
134,Otaci,27.774,48.446,79
230,Donduşeni,27.597,48.245,134
476,Larga,26.842,48.374,94
397,Drochia,27.809,48.037,192
160,Slobozia,29.703,46.725,94
66,Cioburciu,29.748,46.683,33
276,Dnestrovsc,29.911,46.622,134
986,Rîbniţa,29.031,47.759,571
331,Dubăsari,29.142,47.278,192
46,Hlinaia,29.804,46.65,39
134,Bender,29.478,46.819,79
685,Soroca,28.29,48.146,331
94,Chetrosu,27.899,48.071,39
94,Dubasarii Vechi,29.2,47.127,46
192,Lipcani,26.807,48.263,134
276,Rîscani,27.548,47.954,112
79,Briceni,27.085,48.355,28
276,Basarabeasca,28.986,46.331,134
94,Cupcini,27.38,48.109,55
192,Grigoriopol,29.295,47.154,112
397,Camenca,28.696,48.032,192
