rs,name,lon,lat,r1
28,Maribor,15.651,46.548,20
24,Velenje,15.119,46.364,20
39,Piran/Pirano,13.594,45.508,20
79,Bled,14.114,46.382,33
33,Tržič,14.297,46.347,20
24,Radovljica,14.173,46.355,20
55,Prebold,15.092,46.258,39
79,Črnuče,14.531,46.102,33
28,Rogaška Slatina,15.637,46.238,20
46,Nove Fužine,14.579,46.059,33
79,Kobilje,16.394,46.685,28
24,Ceršak,15.668,46.698,20
39,Vučja Gomila,16.277,46.703,24
79,Puconci,16.159,46.705,39
24,Predanovci,16.125,46.694,20
24,Skakovci,16.049,46.707,20
33,Motvarjevci,16.35,46.705,24
33,Sebeborci,16.2,46.708,20
112,Cankova,16.02,46.718,33
28,Andrejci,16.227,46.722,20
39,Zenkovci,16.082,46.727,20
46,Vaneča,16.169,46.727,20
79,Fokovci,16.268,46.734,24
28,Ivanovci,16.229,46.737,20
24,Domajinci,16.044,46.741,20
66,Osojnik,15.213,45.68,24
55,Črmošnjice,15.102,45.673,39
46,Bereča vas,15.276,45.681,24
79,Radovica,15.35,45.69,33
33,Dolnje Ložine,14.808,45.689,28
66,Uršna sela,15.126,45.718,39
192,Ribnica,14.727,45.739,79
33,Dolenje Jezero,14.358,45.777,20
39,Soteska,15.028,45.778,20
24,Lož,14.469,45.725,20
28,Trnje,14.225,45.686,20
24,Žerovnica,14.426,45.759,20
94,Dutovlje,13.833,45.756,39
55,Hruševje,14.111,45.762,39
39,Razdrto,14.062,45.757,28
55,Kazlje,13.908,45.761,20
66,Sodražica,14.633,45.764,55
55,Veliki Dol,13.752,45.77,24
33,Skopo,13.824,45.773,20
33,Lozice,13.999,45.781,20
24,Žimarice,14.599,45.777,20
28,Brje pri Komnu,13.718,45.785,20
39,Zagon,14.176,45.794,20
33,Velike Poljane,14.686,45.798,24
55,Mala Slevica,14.628,45.809,20
33,Brestovica pri Komnu,13.626,45.814,24
39,Višnje,14.835,45.809,20
33,Goče,13.925,45.821,20
94,Ambrus,14.816,45.827,55
39,Podgora,14.702,45.827,20
33,Vojščica,13.672,45.829,20
66,Štanjel,13.844,45.823,28
39,Unec,14.291,45.82,20
24,Sadinja vas pri Dvoru,14.962,45.82,20
28,Brezovi Dol,14.847,45.822,20
28,Tomačevica,13.773,45.817,20
160,Žužemberk,14.929,45.831,66
33,Gaberje,13.884,45.838,24
24,Rošnja,15.744,46.479,20
28,Šutna,15.501,45.855,28
33,Mihovica,15.332,45.857,20
24,Podbočje,15.467,45.863,20
28,Dobrava pri Škocjanu,15.32,45.875,20
28,Škalske Cirkovce,15.136,46.396,20
55,Paka pri Velenju,15.141,46.376,20
55,Boharina,15.372,46.401,24
28,Kozjak,15.199,46.404,20
24,Stražgonjca,15.691,46.406,20
24,Cirkovce,15.728,46.395,24
66,Zgornja Polskava,15.611,46.426,33
33,Gornji Dolič,15.188,46.427,20
79,Plešivec,15.105,46.41,24
24,Spodnja Gorica,15.692,46.417,20
28,Ravne,15.062,46.397,20
28,Paka,15.299,46.394,20
24,Skomarje,15.342,46.413,20
28,Graška Gora,15.122,46.423,20
33,Resnik,15.353,46.43,20
94,Žvirče,14.824,45.783,20
24,Veliki Lipovec,15.025,45.806,24
24,Podgora,15.095,45.805,20
33,Prečna,15.125,45.813,24
28,Gorenje Kamence,15.14,45.836,20
33,Ždinja vas,15.171,45.847,24
39,Golek,15.452,45.96,20
24,Kisovec,14.964,46.139,20
55,Imeno,15.599,46.131,20
24,Cerovec,15.36,46.251,20
24,Podvin,15.168,46.264,20
55,Lopata,15.232,46.262,24
28,Ljubečna,15.322,46.259,20
28,Kamenče,15.038,46.268,20
24,Zgornje Negonje,15.624,46.27,24
24,Dolga Gora,15.511,46.278,20
28,Šmarje,13.852,45.848,20
28,Slap,13.936,45.84,20
46,Klečet,14.876,45.85,33
39,Videm,14.695,45.849,33
112,Gabrovka,14.988,46.001,46
28,Rovte,14.178,45.986,20
39,Planica,15.582,46.469,24
94,Opatje selo,13.583,45.851,33
33,Dobje pri Planini,15.394,46.137,33
24,Šemnik,14.934,46.143,20
33,Belovo,15.162,46.145,20
39,Tevče,15.288,46.144,20
33,Trobni Dol,15.345,46.138,20
28,Dob,14.628,46.152,20
28,Krtina,14.65,46.151,20
33,Kostrivnica,15.375,46.154,20
28,Ojstro,15.278,46.165,20
55,Izlake,14.929,46.156,20
55,Hudinja,15.309,46.414,20
33,Šmiklavž,15.12,46.451,20
39,Mestni Vrh,15.857,46.445,20
39,Kicar,15.917,46.449,20
24,Fram,15.63,46.456,20
33,Radizel,15.653,46.471,20
28,Mislinjska Dobrava,15.125,46.469,20
112,Mislinja,15.199,46.443,66
24,Tratna pri Grobelnem,15.441,46.202,20
28,Kokrica,14.356,46.267,20
55,Naklo,14.317,46.273,24
28,Šmartno pri Slovenj Gradcu,15.107,46.494,20
134,Spodnje Hoče,15.649,46.5,39
33,Razvanje,15.635,46.515,20
28,Nadole,15.769,46.294,20
33,Kupčinji Vrh,15.738,46.274,20
33,Stoperce,15.718,46.291,28
46,Polzela,15.077,46.28,20
28,Zbelovo,15.526,46.299,20
46,Stari Grad,15.665,46.296,20
66,Kočice,15.795,46.307,24
39,Stare Slemene,15.374,46.309,24
66,Poljčane,15.578,46.313,55
24,Draža vas,15.48,46.327,20
24,Breg,15.737,46.339,20
112,Slovenske Konjice,15.425,46.339,79
24,Dolena,15.81,46.342,20
24,Slape,15.767,46.342,20
66,Majšperk,15.734,46.35,33
46,Smlednik,14.431,46.163,20
24,Olimje,15.563,46.15,20
66,Olešče,15.308,46.162,28
134,Podčetrtek,15.597,46.157,55
112,Laško,15.236,46.154,66
24,Srpenica,13.498,46.292,20
134,Breginj,13.426,46.262,33
24,Drežniške Ravne,13.607,46.269,20
24,Podnart,14.259,46.293,20
94,Kropa,14.205,46.298,39
134,Preddvor,14.422,46.303,39
55,Nova Štifta,14.745,46.27,33
39,Male Braslovče,15.043,46.299,20
28,Nomenj,14.006,46.292,20
94,Gornji Grad,14.806,46.296,39
28,Bočna,14.853,46.289,28
46,Tenetiše,14.347,46.295,20
33,Kamna Gorica,14.194,46.315,20
24,Ljubno,14.247,46.314,20
33,Dobrovlje,14.996,46.301,20
28,Varpolje,14.91,46.313,20
55,Trnovska vas,15.887,46.52,24
79,Veliko Mraševo,15.479,45.876,20
33,Dobruška vas,15.305,45.889,20
46,Sela pri Šumberku,14.889,45.896,20
39,Gorica,15.479,45.9,20
33,Vrh nad Želimljami,14.592,45.905,20
79,Drnovo,15.484,45.918,20
66,Gradišče nad Pijavo Gorico,14.589,45.921,39
66,Šklendrovec,15.017,46.093,20
39,Veliki Dol,15.545,46.021,20
46,Peče,14.81,46.147,20
28,Čiginj,13.71,46.163,20
39,Sv. Ema,15.604,46.177,20
24,Rifengozd,15.258,46.188,20
33,Zibika,15.557,46.192,20
24,Škofija,15.546,46.203,20
46,Slatina,15.974,46.323,20
24,Gradišča,15.972,46.358,20
33,Sestrže,15.69,46.357,24
28,Zgornja Pristava,15.832,46.352,28
33,Bezina,15.434,46.355,20
28,Malahorna,15.436,46.375,20
28,Črešnjevec,15.613,46.373,24
55,Zreče,15.391,46.37,24
46,Šoštanj,15.048,46.38,33
24,Strmec nad Dobrno,15.204,46.372,20
24,Lešane,15.899,46.665,20
46,Ciringa,15.596,46.687,33
112,Šentilj v Slov. goricah,15.653,46.679,94
24,Selnica ob Muri,15.695,46.689,24
24,Svečane,15.749,46.693,20
24,Trate,15.787,46.703,20
24,Podgorje,15.818,46.706,20
46,Podbrezje,14.276,46.304,24
79,Koprivnik v Bohinju,13.982,46.307,28
46,Nazarje,14.949,46.318,20
28,Zakl,15.873,46.322,20
28,Letuš,15.02,46.317,20
55,Šmartno ob Paki,15.033,46.329,33
55,Podvolovljek,14.7,46.315,33
39,Čezsoča,13.547,46.319,20
79,Golnik,14.33,46.324,20
79,Žaga,13.482,46.304,39
28,Radmirje,14.85,46.329,20
24,Mošnje,14.21,46.335,20
24,Lancovo,14.166,46.329,20
55,Mozirje,14.96,46.339,46
28,Veliki Vrh,15.048,46.352,20
46,Ljubno ob Savinji,14.834,46.344,46
55,Bohinjska Bela,14.061,46.337,24
39,Dolenji Lazi,14.715,45.759,20
24,Repišče,15.95,46.336,20
46,Cirkulane,15.995,46.344,39
39,Turški Vrh,16.052,46.362,20
79,Tržič,14.31,46.364,79
24,Hrastovec,16.053,46.374,20
94,Gorišnica,16.013,46.408,55
24,Cvetkovci,16.066,46.414,20
33,Zamušani,16.036,46.422,20
33,Godeninci,16.268,46.421,20
28,Sodinci,16.078,46.427,20
24,Vodranci,16.248,46.434,20
28,Bresnica,16.038,46.443,20
66,Vičanci,16.077,46.441,20
46,Spodnji Razbor,15.057,46.446,20
28,Runeč,16.127,46.463,20
79,Apače,15.909,46.698,46
33,Žepovci,15.865,46.695,24
55,Zabiče,14.344,45.515,39
33,Kuteževo,14.33,45.531,20
94,Rače,15.681,46.452,39
24,Placar,15.89,46.458,20
28,Zlatoličje,15.789,46.451,20
28,Dravski Dvor,15.716,46.466,20
134,Destrnik,15.876,46.493,46
33,Rogoznica,15.82,46.502,20
24,Pivola,15.624,46.504,20
55,Moravci v Slov. goricah,16.026,46.521,33
24,Pince-Marof,16.51,46.515,20
24,Radoslavci,16.101,46.525,24
79,Petišovci,16.46,46.527,20
28,Zgornji Duplek,15.725,46.517,20
24,Pince,16.522,46.526,20
28,Bučkovci,16.055,46.532,20
39,Zimica,15.755,46.535,20
24,Kostanjevica na Krasu,13.642,45.844,24
24,Velike Žablje,13.851,45.867,20
39,Ustje,13.895,45.87,20
28,Višnje,14.023,45.872,20
33,Planina,14.251,45.83,24
33,Ponikve,14.652,45.861,24
24,Kožmani,13.922,45.876,20
33,Ivanje selo,14.299,45.835,20
24,Hočevje,14.752,45.871,20
28,Cesta,14.692,45.862,20
46,Krka,14.778,45.881,20
94,Grčarevec,14.213,45.873,33
66,Col,14.001,45.88,28
39,Primož pri Šentjurju,15.4,46.238,20
94,Žalec,15.165,46.252,55
33,Trnovlje pri Celju,15.288,46.246,20
33,Gomilsko,15.043,46.253,20
79,Ponikva,15.444,46.254,33
55,Pijovci,15.538,46.256,20
79,Sv. Florijan,15.673,46.258,20
28,Pristava,15.333,46.278,20
230,Vinica,15.255,45.46,66
46,Rakitovec,13.971,45.469,33
55,Movraž,13.917,45.477,24
28,Novokračine,14.308,45.493,20
39,Hrast pri Vinici,15.227,45.48,20
55,Gračišče,13.874,45.503,33
112,Jelšane,14.271,45.501,39
33,Veliko Brdo,14.22,45.514,20
55,Adlešiči,15.312,45.522,39
55,Dragatuš,15.178,45.521,33
39,Kubed,13.87,45.52,20
112,Podgrad,14.146,45.522,55
28,Mala Bukovica,14.241,45.534,20
28,Rižana,13.848,45.544,20
24,Tanča Gora,15.155,45.535,20
28,Obrov,14.087,45.543,20
94,Podgorje,13.945,45.534,55
46,Dolnji Zemon,14.26,45.547,20
33,Butoraj,15.206,45.544,20
28,Črni Kal,13.878,45.55,28
55,Tribuče,15.248,45.544,24
24,Podbeže,14.152,45.547,20
33,Dekani,13.812,45.548,20
39,Morava,14.863,45.551,20
28,Hrušica,14.121,45.54,20
28,Kanižarica,15.17,45.561,20
39,Bertoki,13.766,45.544,24
24,Zarečica,14.224,45.558,20
46,Žirovnica,14.136,46.404,20
24,Robanov Kot,14.702,46.408,20
24,Kočna,14.081,46.415,20
39,Topolšica,15.021,46.4,20
39,Begunje na Gorenjskem,14.198,46.375,20
112,Zgornje Jezersko,14.499,46.393,79
66,Konjski Vrh,14.785,46.387,28
46,Hotiza,16.361,46.549,20
24,Dolina pri Lendavi,16.506,46.538,20
28,Čentiba,16.487,46.551,20
160,Lendava,16.451,46.565,134
39,Velika Polana,16.344,46.573,33
39,Dolga vas,16.448,46.583,20
39,Gomilica,16.312,46.603,20
33,Mostje,16.428,46.602,20
28,Radmožanci,16.384,46.612,24
55,Turnišče,16.32,46.622,39
24,Renkovci,16.296,46.635,20
55,Plintovec,15.618,46.637,33
66,Sv. Ana v Slov. goricah,15.845,46.647,28
24,Pušča,16.139,46.655,20
39,Ivanci,16.256,46.658,20
94,Dobrovnik,16.35,46.651,24
24,Noršinci,16.206,46.67,20
28,Veščica,16.132,46.67,20
33,Lutrje,15.442,46.27,20
28,Arclin,15.301,46.278,20
66,Žetale,15.794,46.275,46
39,Dramlje,15.393,46.273,28
46,Loče,15.256,46.286,20
24,Braslovče,15.04,46.288,20
66,Zbelovska Gora,15.552,46.283,24
28,Pletovarje,15.433,46.284,20
112,Vojnik,15.302,46.292,55
46,Pernovo,15.187,46.287,28
66,Stopiče,15.21,45.77,28
28,Prapreče pri Straži,15.105,45.774,20
28,Šentjošt,15.209,45.783,20
79,Straža,15.074,45.784,46
24,Smolenja vas,15.202,45.816,20
55,Otočec,15.222,45.834,24
39,Ponikve,15.642,45.848,28
33,Rožno,15.423,45.993,20
28,Kandrše - del,14.839,46.132,20
39,Loka pri Žusmu,15.515,46.159,24
39,Harije,14.194,45.554,24
33,Markovščina,14.035,45.561,20
66,Javorje,14.103,45.556,24
46,Spodnje Škofije,13.792,45.571,20
24,Zarečje,14.209,45.574,20
39,Štalcerji,14.871,45.57,33
79,Griblje,15.293,45.571,33
24,Stražnji Vrh,15.14,45.579,20
79,Prešnica,13.939,45.571,28
33,Osp,13.858,45.571,20
46,Bač pri Materiji,14.002,45.58,20
94,Ankaran,13.736,45.579,39
46,Pregarje,14.134,45.578,20
33,Krasinec,15.278,45.589,20
24,Tublje pri Hrpeljah,13.973,45.594,20
24,Lokve,15.182,45.588,20
24,Vranoviči,15.234,45.602,20
46,Rodine,15.146,45.599,24
39,Mozelj,14.933,45.586,24
192,Hrpelje,13.943,45.607,79
24,Podzemelj,15.272,45.61,20
66,Gradac,15.245,45.614,33
33,Dolga vas,14.877,45.624,20
24,Livold,14.891,45.612,20
33,Križevska vas,15.307,45.635,20
24,Mahovnik,14.841,45.653,20
33,Božakovo,15.373,45.646,20
79,Solčava,14.692,46.42,55
39,Bele Vode,14.967,46.407,28
66,Trenta,13.752,46.381,46
66,Zavodnje,15.017,46.424,20
66,Podljubelj,14.288,46.398,28
134,Log pod Mangartom,13.603,46.407,55
39,Jelendol,14.346,46.399,24
46,Dornava,15.955,46.435,33
79,Mojstrana,13.939,46.461,66
33,Koroška Bela,14.099,46.426,20
28,Javorje,14.891,46.456,24
24,Javorniški Rovt,14.092,46.453,20
24,Zgornji Razbor,15.008,46.449,20
33,Hrušica,14.011,46.449,20
33,Žerjav,14.87,46.485,20
66,Koprivna,14.759,46.457,33
79,Kranjska Gora,13.79,46.486,79
46,Podpeca,14.823,46.496,20
24,Podkoren,13.756,46.494,20
24,Gozd Martuljek,13.832,46.484,24
28,Belca,13.91,46.476,20
66,Rateče,13.716,46.498,39
39,Kotlje,14.985,46.522,20
160,Mežica,14.852,46.522,33
24,Vitomarci,15.934,46.526,24
24,Podgora,14.987,46.509,20
33,Sele - del,15.02,46.503,20
33,Leše,14.903,46.531,20
46,Ribnica na Pohorju,15.268,46.535,46
33,Prevalje,14.918,46.546,24
66,Lokovica,14.86,46.554,24
39,Filovci,16.299,46.661,20
28,Polana,16.138,46.682,20
24,Dolina,16.185,46.738,20
33,Prosenjakovci,16.313,46.74,24
24,Krašči,16.035,46.754,20
66,Bodonci,16.112,46.744,28
33,Vadarci,16.071,46.754,20
24,Gerlinci,16.006,46.761,20
33,Pečarovci,16.152,46.747,20
24,Dankovci,16.167,46.764,20
55,Poznanovci,16.126,46.77,20
66,Pertoča,16.038,46.771,28
24,Kuštanovci,16.193,46.774,20
24,Večeslavci,16.018,46.783,20
24,Mačkovci,16.163,46.784,24
46,Križevci,16.231,46.78,20
33,Domanjševci,16.289,46.783,33
276,Rogašovci,16.035,46.805,79
134,Gornji Petrovci,16.219,46.804,66
24,Krplivnik,16.317,46.812,20
24,Stanjevci,16.183,46.808,20
33,Vidonci,16.125,46.817,20
39,Grad,16.092,46.802,33
28,Adrijanci,16.239,46.819,20
24,Serdica,16.022,46.818,20
39,Sotina,16.039,46.827,20
33,Boreča,16.143,46.835,20
24,Gornji Slaveči,16.066,46.816,20
46,Šalovci,16.281,46.822,33
66,Kuzma,16.082,46.834,24
112,Nova vas,14.506,45.773,46
46,Grahovo,14.424,45.77,33
66,Ponikve,13.863,45.788,28
79,Jesenice,15.691,45.86,55
33,Sobenja vas,15.587,45.867,20
33,Cirnik,15.656,45.869,20
28,Čatež ob Savi,15.603,45.891,20
28,Trebelno,15.149,45.912,20
33,Čužnja vas,15.195,45.912,28
24,Mrtvice,15.51,45.913,20
66,Raka,15.382,45.929,39
46,Bučka,15.319,45.929,20
66,Kapele,15.682,45.934,24
28,Veliki Gaber,14.907,45.937,28
28,Veliko Mlačevo,14.677,45.94,20
39,Kriška vas,14.739,45.937,20
39,Globoko,15.627,45.955,24
28,Rovišče pri Studencu,15.355,45.958,20
39,Artiče,15.585,45.952,28
55,Mirna,15.06,45.95,24
24,Piršenbreg,15.653,45.966,20
33,Studenec,15.35,45.971,24
39,Dednja vas,15.639,45.989,20
79,Arto,15.393,45.985,46
79,Grčarice,14.755,45.651,33
160,Metlika,15.316,45.651,66
28,Zgornje Tinsko,15.538,46.171,20
39,Blagovica,14.804,46.176,20
24,Godešič,14.353,46.166,20
39,Zgornja Rečica,15.162,46.169,33
24,Mavčiče,14.406,46.185,20
55,Trojane,14.884,46.188,20
55,Jesenovo,14.97,46.182,24
55,Vodruž,15.364,46.184,20
28,Javornik,15.324,46.191,24
55,Gorica pri Slivnici,15.431,46.187,24
55,Pristava pri Mestinju,15.595,46.196,20
46,Trboje,14.41,46.197,33
24,Krajnčica,15.365,46.206,20
24,Dolga Brda,14.84,46.567,20
55,Pernica,15.727,46.58,20
39,Šentanel,14.876,46.573,20
39,Sv. Primož na Pohorju,15.163,46.558,28
39,Otiški Vrh,15.032,46.571,20
24,Šentjanž nad Dravčami,15.15,46.57,20
28,Tolsti Vrh pri Ravnah na Koroškem - del,14.957,46.558,20
33,Janževski Vrh,15.31,46.552,24
160,Dravograd,15.018,46.59,39
24,Vukovje,15.729,46.592,20
79,Strojna,14.914,46.596,20
24,Vič,15,46.602,20
28,Zgornje Partinje,15.759,46.595,20
39,Jurovski Dol,15.785,46.607,28
24,Libeliška Gora,14.944,46.609,20
55,Libeliče,14.948,46.62,28
28,Malna,15.776,46.622,20
33,Ranca,15.668,46.63,20
28,Žitence,15.791,46.643,20
33,Vukovski Dol,15.72,46.621,24
79,Goriški Vrh,15.018,46.628,24
28,Slatinski Dol,15.601,46.651,20
28,Velike Bloke,14.477,45.788,20
112,Cerknica,14.362,45.796,79
24,Šmihel pod Nanosom,14.12,45.795,24
39,Rakek,14.323,45.811,24
55,Begunje pri Cerknici,14.383,45.82,20
94,Studeno,14.179,45.825,39
46,Jablan,15.095,45.838,20
28,Škrbina,13.735,45.842,20
24,Sv. Andrej,14.303,46.137,20
28,Trzin,14.563,46.133,20
79,Miklavž pri Ormožu,16.214,46.458,28
33,Hlaponci,15.981,46.469,20
55,Gomila pri Kogu,16.239,46.483,20
79,Sveti Tomaž,16.08,46.483,55
33,Savci,16.047,46.473,20
94,Mirna Peč,15.082,45.86,46
79,Podkraj,14.059,45.866,33
79,Zapotok,14.567,45.876,28
28,Budanje,13.952,45.872,20
24,Loče,15.664,45.884,20
55,Dobova,15.661,45.895,28
24,Dolenja Nemška vas,15.036,45.904,20
55,Rakitna,14.44,45.891,46
46,Golo,14.546,45.911,20
33,Zagorica pri Velikem Gabru,14.889,45.922,20
28,Pobrežje,15.878,46.384,20
28,Brezen,15.264,46.378,20
39,Pragersko,15.66,46.395,28
24,Loška gora pri Zrečah,15.374,46.389,20
28,Mizni Dol,14.231,45.983,20
28,Studenec,15.002,45.922,20
24,Limbarska Gora,14.78,46.159,20
24,Strajna,15.832,46.311,20
24,Ojstrica,15.04,46.617,20
39,Jesenica,13.949,46.15,20
39,Lopar,13.832,45.51,20
24,Gornji Suhor pri Metliki,15.273,45.693,20
33,Češnjice pri Trebelnem,15.147,45.898,24
24,Borovak pri Podkumu,15.061,46.077,20
46,Šutna,14.329,46.199,20
39,Grobelno - del,15.443,46.213,20
24,Hajnsko,15.589,46.208,20
66,Zabukovica,15.159,46.212,33
24,Šerovo,15.552,46.215,20
24,Liboje,15.193,46.206,20
28,Košnica pri Celju,15.241,46.211,20
39,Voglje,14.438,46.213,20
24,Lahovče,14.506,46.219,20
28,Kristan Vrh,15.585,46.223,28
46,Zgornje Bitnje,14.338,46.22,20
33,Špitalič,14.833,46.215,28
134,Šentjur,15.395,46.216,79
55,Dobovec pri Rogatcu,15.759,46.209,33
24,Marija Reka,15.073,46.185,20
33,Matke,15.117,46.22,20
46,Štore,15.31,46.222,28
24,Botričnica,15.397,46.227,20
39,Šmarje pri Jelšah,15.519,46.229,39
33,Zalog pri Cerkljah,14.518,46.23,20
24,Male Rodne,15.602,46.235,20
46,Zgornji Jakobski Dol,15.719,46.643,20
160,Piran,13.568,45.528,94
39,Laze,14.266,45.862,20
39,Gozd,13.967,45.898,20
24,Kovk,13.935,45.914,20
94,Ivančna Gorica,14.805,45.938,79
55,Hotedršica,14.139,45.931,28
33,Šentvid pri Stični,14.837,45.954,20
39,Zadlog,14.003,45.941,24
24,Žibrše,14.176,45.936,20
33,Otlica,13.911,45.928,20
28,Vrtovin,13.813,45.899,20
46,Čatež,14.96,45.97,24
46,Vipolže,13.536,45.974,20
66,Petkovec,14.201,45.971,28
24,Metnaj,14.805,45.98,20
24,Velika Stara vas,14.677,45.979,20
33,Medvedje Brdo,14.137,45.968,24
24,Jelični Vrh,14.062,45.969,20
55,Mali Lipoglav,14.648,45.992,28
112,Predmeja,13.88,45.946,33
94,Borovnica,14.364,45.918,46
24,Iška,14.517,45.93,20
28,Sela pri Dobovi,15.633,45.916,20
28,Lokavec,13.88,45.902,20
33,Brezovica pri Mirni,15.042,45.936,20
24,Dobravica,14.541,45.938,20
33,Trebež,15.576,45.937,20
33,Ponova vas,14.631,45.939,20
46,Klenovik,15.251,45.932,20
46,Novi Svet,14.138,45.909,20
39,Iška vas,14.511,45.941,20
112,Mokronog,15.147,45.944,66
24,Libna,15.53,45.95,20
39,Višnja Gora,14.744,45.955,33
24,Dol pri Borovnici,14.352,45.93,20
24,Puščava,15.122,45.956,20
39,Tržišče,15.195,45.96,20
28,Tomišelj,14.48,45.964,20
46,Senuše,15.427,45.937,24
24,Smrjene,14.583,45.933,20
39,Leskovec pri Krškem,15.477,45.94,20
24,Arnovo selo,15.567,45.964,20
46,Zdole,15.544,45.976,20
55,Škofljica,14.571,45.986,46
46,Bevke,14.354,45.981,24
46,Brestanica,15.477,45.996,20
24,Lavrica,14.554,45.999,20
33,Črna vas,14.491,46.006,33
28,Kostanjek,15.54,46.008,20
24,Orle,14.574,46.012,20
24,Dragomer,14.386,46.019,20
55,Podmolnik,14.597,46.019,24
79,Brezovica pri Ljubljani,14.417,46.024,55
55,Dobrova,14.417,46.053,24
33,Hruševo,14.386,46.07,20
24,Kasaze,15.186,46.222,20
46,Prebold,15.094,46.237,20
39,Črni Vrh,14.973,46.218,20
28,Rogatec,15.699,46.229,28
39,Mekinje,14.614,46.235,20
55,Tabor,15.016,46.235,33
24,Šešče pri Preboldu,15.123,46.236,20
28,Preloge pri Šmarju,15.544,46.24,20
24,Proseniško,15.348,46.239,20
33,Žahenberc,15.727,46.244,20
28,Vrh,15.498,46.244,20
46,Levec,15.219,46.241,20
94,Zgornji Tuhinj,14.77,46.227,33
230,Vransko,14.953,46.245,46
55,Šenčur,14.419,46.243,33
28,Prekopa,14.99,46.251,20
55,Cerklje na Gorenjskem,14.487,46.253,39
46,Hum,13.581,45.995,24
94,Dobrovo,13.527,45.997,66
66,Podlipa,14.223,46.006,39
28,Žažar,14.256,46.008,20
94,Grgar,13.671,46.001,33
24,Smrečje,14.194,46.014,20
46,Višnjevik,13.53,46.019,20
112,Horjul,14.301,46.021,46
28,Javor,14.679,46.02,20
28,Vrhovlje pri Kojskem,13.573,46.024,20
66,Dole pri Litiji,15.022,46.031,24
66,Zgornja Besnica,14.685,46.034,46
28,Šentjošt nad Horjulom,14.226,46.032,20
28,Šmartno pri Litiji,14.843,46.044,20
28,Besnica,14.647,46.042,20
24,Butajnova,14.235,46.043,20
28,Plave,13.588,46.04,20
33,Setnik,14.278,46.066,20
24,Zgornji Log,14.828,46.08,20
24,Ponoviče,14.865,46.078,20
28,Kresniški Vrh,14.785,46.087,20
39,Kresnice,14.785,46.101,28
46,Dolenja Trebuša,13.84,46.094,33
66,Črni Vrh,14.259,46.088,55
24,Trstenik,15.07,45.961,20
55,Kamnik pod Krimom,14.408,45.956,24
28,Vrh pri Višnji Gori,14.746,45.97,20
28,Hrastovica,15.151,45.966,20
28,Jezero,14.435,45.971,20
66,Šentrupert,15.091,45.977,33
192,Ig,14.527,45.959,24
24,Iška Loka,14.515,45.971,20
94,Krmelj,15.187,45.984,33
46,Notranje Gorice,14.4,45.987,24
55,Šentjanž,15.169,46.011,20
33,Jablanica,15.214,46.01,24
160,Sevnica,15.305,46.007,112
24,Podolnica,14.328,46.027,20
66,Črni Potok,14.838,46.025,20
24,Orehovo,15.268,46.024,20
28,Osredek pri Krmelju,15.136,46.027,20
39,Poklek nad Blanco,15.389,46.019,28
46,Ledina,15.288,46.035,20
55,Breg,15.243,46.045,33
24,Račica,15.216,46.053,20
24,Zabukovje nad Sevnico,15.364,46.052,24
33,Razbor,15.257,46.059,20
28,Podgorica,15.291,46.056,20
28,Radež,15.229,46.063,20
39,Polhov Gradec,14.313,46.066,33
79,Dol pri Ljubljani,14.642,46.089,39
39,Senožeti,14.733,46.09,39
39,Topol pri Medvodah,14.37,46.093,20
55,Stanežiče,14.437,46.111,20
24,Ihan,14.618,46.121,20
39,Žlebe,14.395,46.12,20
28,Srednje Gameljne,14.5,46.126,20
55,Medvode,14.413,46.14,55
33,Skaručna,14.484,46.155,20
94,Utik,14.508,46.169,20
33,Rova,14.631,46.181,20
33,Topole,14.556,46.178,20
46,Šmarca,14.595,46.19,20
39,Vodice,14.495,46.191,24
55,Komenda,14.539,46.205,33
28,Zgornji Porčič,15.865,46.589,20
24,Pečovnik,15.271,46.198,20
39,Rdeči Breg - del,15.392,46.559,20
94,Podnanos,13.972,45.797,39
33,Gorjansko,13.712,45.802,20
94,Komen,13.745,45.817,66
79,Vipava,13.961,45.845,33
39,Strmica,14.243,45.95,24
33,Loke,13.698,45.96,20
39,Bukovo,13.902,46.151,39
94,Črna na Koroškem,14.85,46.47,39
112,Branik,13.787,45.86,39
39,Dobravlje,13.842,45.885,20
28,Bilje,13.635,45.894,20
134,Miren,13.607,45.893,33
33,Prvačina,13.713,45.89,24
55,Bukovica,13.669,45.899,24
33,Kalce,14.201,45.901,20
28,Vrtojba,13.636,45.914,20
39,Lome,14.077,45.905,20
55,Vinje,14.67,46.115,24
39,Kokošnje,14.686,46.134,20
66,Moravče,14.745,46.136,33
55,Gorenji Novaki,14.059,46.15,24
33,Jagoče,15.238,46.169,20
39,Kolovrat,14.873,46.169,20
79,Lukovica pri Domžalah,14.693,46.17,55
24,Kanjuce,15.304,46.174,20
94,Gabrsko,15.049,46.174,24
33,Spodnja Luša,14.222,46.184,20
66,Loče,15.497,46.302,39
39,Dobrina,15.836,46.289,24
33,Zgornje Gruškovje,15.877,46.291,20
39,Ivanjkovci,16.155,46.461,20
66,Planina pod Golico,14.051,46.466,28
28,Levanjci,15.913,46.486,20
46,Žerovinci,16.155,46.486,28
66,Juršinci,15.971,46.485,39
33,Sakušak,15.991,46.5,20
24,Hvaletinci,15.952,46.513,20
28,Pristava,16.238,46.525,20
28,Razkrižje,16.279,46.522,28
33,Slavšina,15.982,46.543,24
230,Ljutomer,16.196,46.518,94
24,Kot,16.386,46.543,20
39,Dolnja Bistrica,16.29,46.536,20
24,Cven,16.212,46.55,20
55,Ključarovci pri Ljutomeru,16.138,46.55,33
55,Motnik,14.885,46.215,39
28,Srednja vas pri Kamniku,14.683,46.226,28
39,Poreber,14.662,46.241,20
39,Godič,14.609,46.255,20
39,Velika Varnica,15.93,46.305,24
24,Tolsti Vrh,15.418,46.309,20
28,Stanošina,15.86,46.309,20
24,Draženci,15.844,46.39,20
39,Obrež,16.233,46.398,20
112,Središče ob Dravi,16.271,46.396,66
230,Ormož,16.149,46.407,160
39,Zgornja Hajdina,15.839,46.406,20
28,Spodnja Polskava,15.637,46.412,20
79,Kidričevo,15.8,46.388,39
24,Strnišče,15.767,46.401,20
28,Dobrava,16.149,46.421,20
24,Podova,15.698,46.433,20
46,Šalovci,16.224,46.422,20
33,Hajdoše,15.824,46.43,20
55,Šempeter pri Gorici,13.64,45.93,24
39,Šempas,13.746,45.928,33
28,Ozeljan,13.73,45.942,20
94,Črni Vrh,14.043,45.926,28
55,Godovič,14.092,45.957,39
33,Ravne,13.785,45.916,24
24,Trnovo,13.741,45.972,20
33,Ravnica,13.698,45.984,20
55,Čekovnik,14.002,45.978,20
55,Zavratec,14.13,45.993,20
39,Dole,14.096,45.989,20
66,Voglarji,13.736,45.985,33
28,Gore,14.057,46.003,20
55,Lokve,13.792,46.012,28
33,Gorenji Vrsnik,14.09,46.025,20
24,Srednja Kanomlja,13.976,46.022,24
28,Grgarske Ravne,13.668,46.032,20
24,Račeva,14.132,46.042,20
39,Bate,13.677,46.045,20
39,Spodnja Idrija,14.023,46.033,24
94,Žiri,14.11,46.047,46
94,Vojsko,13.903,46.024,39
66,Deskle,13.614,46.053,28
79,Gorenja Kanomlja,13.898,46.061,28
55,Lučine,14.196,46.062,20
33,Selo,14.1,46.062,20
24,Žirovski Vrh,14.16,46.049,24
33,Idrijske Krnice,13.977,46.052,24
46,Banjšice,13.704,46.062,20
28,Gorenja Trebuša,13.842,46.027,28
28,Mamolj,14.922,46.065,20
24,Žirovski Vrh Sv. Urbana,14.169,46.075,20
24,Podkum,15.034,46.07,24
39,Fužine,14.095,46.086,20
55,Tepe,14.942,46.078,20
46,Otalež,13.991,46.08,24
24,Male Dole,15.328,46.309,20
39,Nova Cerkev,15.285,46.312,20
66,Makole,15.669,46.318,33
46,Ponikva pri Žalcu,15.142,46.312,28
24,Hramše,15.204,46.321,20
66,Frankolovo,15.316,46.33,20
24,Sveti Jernej,15.517,46.323,20
24,Studence,15.153,46.299,20
33,Zlateče,15.272,46.333,20
55,Stara vas-Bizeljsko,15.696,45.988,20
33,Ravne pri Zdolah,15.541,45.993,20
33,Lukovec,15.307,45.992,20
33,Terbegovci,16.025,46.547,20
28,Gornji Lakoš,16.418,46.552,20
39,Gornja Bistrica,16.269,46.556,20
24,Križevci pri Ljutomeru,16.14,46.563,20
39,Sveti Jurij ob Ščavnici,16.022,46.569,39
24,Melinci,16.234,46.571,20
66,Črenšovci,16.289,46.575,33
24,Grabonoš,16.001,46.588,20
66,Veržej,16.162,46.582,28
24,Dragotinci,16.032,46.583,20
28,Ižakovci,16.214,46.585,20
33,Vučja vas,16.102,46.598,20
33,Rožički Vrh,16.044,46.593,20
33,Dokležovje,16.179,46.601,20
28,Očeslavci,16.006,46.604,20
28,Lipa,16.285,46.605,20
94,Beltinci,16.237,46.608,46
55,Hrastje-Mota,16.081,46.614,24
33,Bakovci,16.149,46.617,33
28,Janžev Vrh,16.01,46.631,20
46,Litmerk,16.154,46.438,20
46,Brunšvik,15.724,46.44,20
55,Dragonja,13.662,45.455,24
28,Preloka,15.34,45.47,20
55,Zilje,15.312,45.461,33
79,Boršt,13.798,45.485,20
46,Puče,13.718,45.476,20
33,Padna,13.684,45.491,20
24,Korte,13.656,45.489,20
94,Parecag,13.625,45.482,20
24,Seča,13.612,45.496,20
33,Šared,13.653,45.51,20
28,Vanganel,13.779,45.518,20
24,Kampel,13.747,45.52,20
46,Šalara,13.716,45.51,20
24,Podgora,14.11,46.099,20
134,Gorenja vas,14.141,46.103,79
39,Srednje Brdo,14.114,46.123,20
46,Poljane nad Škofjo Loko,14.185,46.123,24
28,Spodnje Koseze,14.69,46.15,20
24,Ržiše,14.96,46.167,20
39,Sovodenj,14.038,46.085,33
66,Sava,14.893,46.089,33
192,Kanal,13.634,46.085,79
160,Čepovan,13.792,46.048,66
55,Straža,13.948,46.102,24
66,Kal nad Kanalom,13.741,46.084,28
28,Stopnik,13.9,46.091,24
33,Levpa,13.704,46.091,20
33,Lig,13.61,46.096,20
39,Podlanišče,14.013,46.11,20
33,Slap ob Idrijci,13.805,46.122,20
55,Ročinj,13.671,46.11,20
134,Cerkno,13.99,46.129,66
79,Ponikve,13.819,46.138,55
39,Zminec,14.283,46.149,20
46,Most na Soči,13.742,46.153,24
55,Javorje,14.178,46.159,24
33,Kotredež,14.999,46.155,20
39,Kambreško,13.649,46.128,20
46,Kneža,13.829,46.161,20
79,Hudajužna,13.915,46.175,20
24,Koritnica,13.873,46.164,20
476,Tolmin,13.732,46.183,160
24,Volče,13.709,46.176,20
55,Bukovica,14.244,46.199,39
24,Čanje,15.384,46.007,20
24,Lončarjev Dol,15.343,46.013,20
24,Pečice,15.579,46.013,20
24,Drenovec pri Bukovju,15.71,46.025,20
33,Trnovec,15.379,46.036,20
79,Bizeljsko,15.693,46.015,33
28,Mali Kamen,15.495,46.033,20
66,Gorjane,15.564,46.04,24
39,Trebče,15.623,46.041,20
24,Močilno,15.147,46.051,20
28,Mrčna sela,15.521,46.056,20
112,Bistrica ob Sotli,15.663,46.057,66
33,Podgorje ob Sevnični,15.341,46.066,20
39,Jagnjenica,15.125,46.064,33
28,Vetrnik,15.517,46.069,20
112,Radeče,15.182,46.066,55
28,Hošnica,15.585,46.33,20
33,Pečke,15.675,46.334,20
28,Dol pod Gojko,15.31,46.344,20
24,Kočno ob Ložnici,15.615,46.337,20
79,Dobrna,15.226,46.336,39
24,Andraž nad Polzelo,15.087,46.323,24
33,Polene,15.388,46.345,20
46,Krog,16.135,46.637,20
66,Radenci,16.04,46.643,28
46,Gančani,16.246,46.63,20
33,Tišina,16.086,46.654,24
79,Gornja Radgona,15.991,46.677,79
55,Moravske Toplice,16.222,46.687,28
33,Lemerje,16.101,46.709,20
46,Šulinci,16.196,46.828,20
160,Pregara,13.867,45.444,46
39,Učakovci,15.23,45.441,20
24,Trnovec,15.29,45.667,20
66,Vrbovec,14.997,45.863,33
55,Šmarješke Toplice,15.222,45.862,46
24,Rašica,14.623,45.853,20
33,Gorenje Karteljevo,15.143,45.868,20
33,Velike Lese,14.808,45.872,20
24,Žaloviče,15.214,45.876,20
46,Gradež,14.628,45.878,20
24,Čušperk,14.7,45.892,20
134,Predgrad,15.055,45.505,55
66,Lipa,13.708,45.847,24
24,Logarska Dolina,14.642,46.418,24
39,Drbetinci,15.932,46.537,20
46,Log,15.539,46.533,20
33,Hrastje,15.58,46.539,20
46,Zrkovci,15.707,46.544,20
24,Gočova,15.868,46.548,20
28,Selnica ob Dravi,15.489,46.551,20
24,Čagona,15.924,46.55,20
24,Fala,15.451,46.547,20
46,Spodnja Voličina,15.816,46.545,24
24,Malečnik,15.69,46.557,20
55,Limbuš,15.581,46.555,39
24,Hrastovec v Slov. goricah,15.786,46.565,20
24,Zgornja Orlica,15.262,46.549,20
39,Cerkvenjak,15.943,46.567,33
28,Vodole,15.696,46.572,20
55,Davča,14.035,46.18,39
55,Martinj Vrh,14.144,46.187,33
33,Livek,13.6,46.202,20
33,Gabrje,13.699,46.201,20
33,Zali Log,14.101,46.206,24
192,Podbrdo,13.973,46.214,46
66,Kamno,13.638,46.214,24
28,Idrsko,13.593,46.232,20
46,Bukovščica,14.263,46.224,20
112,Železniki,14.167,46.225,79
24,Vrsno,13.644,46.225,20
46,Zgornja Sorica,14.028,46.222,33
134,Kobarid,13.58,46.246,94
28,Staro selo,13.532,46.247,28
33,Podlonk,14.125,46.233,24
28,Drežnica,13.614,46.257,20
39,Britof,14.391,46.262,20
24,Podblica,14.21,46.259,20
24,Zgornja Besnica,14.269,46.269,24
24,Zatolmin,13.727,46.195,20
24,Bistričica,14.586,46.267,20
39,Borjana,13.476,46.255,28
134,Podlehnik,15.879,46.336,28
66,Križni Vrh,15.572,46.345,24
24,Klanc,15.226,46.347,20
39,Lipje,15.154,46.352,20
28,Vrhole pri Slov. Konjicah,15.523,46.37,20
55,Vitanje,15.296,46.381,55
79,Oplotnica,15.447,46.387,28
28,Gladomes,15.498,46.39,20
55,Markovci,15.93,46.394,20
33,Visole,15.531,46.403,20
33,Devina,15.577,46.406,20
24,Kebelj,15.455,46.411,20
46,Šmarjeta,15.25,45.885,20
160,Škocjan,15.291,45.907,39
46,Gmajna,15.37,45.906,20
28,Velika Račna,14.689,45.904,24
66,Muljava,14.799,45.902,28
46,Zbure,15.246,45.911,20
94,Trebnje,15.006,45.908,94
33,Luče,14.731,45.92,20
66,Temenica,14.895,45.98,33
112,Senovo,15.477,46.02,46
24,Šedem,15.463,46.038,20
66,Dobrova,15.436,46.052,24
33,Podgrad,14.638,46.07,20
33,Polana,15.285,46.083,24
28,Cogetinci,15.962,46.58,20
24,Bresternica,15.578,46.567,20
55,Podvelka,15.328,46.59,39
46,Sv. Anton na Pohorju,15.217,46.574,20
24,Dravče,15.129,46.589,20
28,Osek,15.918,46.583,20
134,Lenart v Slov. goricah,15.83,46.576,94
46,Spodnji Boč,15.506,46.58,24
39,Vuhred,15.231,46.594,20
28,Kunova,15.948,46.596,20
33,Vuzenica,15.166,46.595,20
24,Zgornji Slemen - del,15.501,46.598,20
46,Ožbalt,15.389,46.584,33
24,Vurmat - del,15.413,46.574,20
79,Šober,15.577,46.602,28
33,Negova,15.937,46.61,24
46,Rošpoh - del,15.629,46.588,20
46,Veliki Boč,15.498,46.61,24
33,Javnik,15.358,46.604,20
55,Pesnica pri Mariboru,15.676,46.608,39
46,Žice,15.845,46.625,20
33,Gaj nad Mariborom,15.568,46.623,20
24,Ivanjševski Vrh,15.967,46.621,20
28,Pesnica,15.568,46.636,20
79,Spodnja Kapla,15.389,46.632,39
28,Kamnje,13.919,46.272,20
94,Bohinjska Bistrica,13.953,46.272,79
39,Rovt pod Menino,14.888,46.266,20
55,Dražgoše,14.177,46.252,24
33,Adergas,14.465,46.271,20
46,Hotemaže,14.423,46.282,20
66,Trnovo ob Soči,13.553,46.28,28
46,Šmartno ob Dreti,14.89,46.284,20
230,Luče,14.745,46.355,46
24,Ribno,14.123,46.35,20
33,Spodnje Grušovje,15.5,46.351,20
33,Leše,14.256,46.356,24
24,Kal-Koritnica,13.578,46.337,20
55,Kokra,14.498,46.306,39
112,Soča,13.667,46.342,66
28,Poljane,14.897,46.338,20
331,Bovec,13.552,46.338,79
28,Lom pod Storžičem,14.337,46.368,20
66,Videm pri Ptuju,15.901,46.369,46
33,Skorno,15.014,46.35,20
28,Hraše,14.167,46.37,20
24,Koritno,15.436,46.401,20
33,Spuhlja,15.911,46.413,20
46,Planina na Pohorju,15.391,46.424,20
28,Podvinci,15.917,46.432,20
24,Zgornje Prebukovje,15.547,46.432,20
39,Morje,15.622,46.445,20
28,Kot na Pohorju,15.462,46.423,24
33,Šmartno na Pohorju,15.538,46.446,28
79,Podgorje,15.088,46.472,20
28,Raduše,15.058,46.479,20
24,Skoke,15.694,46.486,24
39,Krčevina pri Vurbergu,15.817,46.471,28
94,Frajhajm,15.529,46.49,33
24,Vurberk,15.787,46.485,20
55,Spodnji Duplek,15.755,46.501,39
46,Lovrenc na Pohorju,15.389,46.539,46
160,Ruše,15.495,46.536,79
46,Pameče,15.082,46.53,20
39,Sv. Danijel,15.097,46.579,24
28,Zgornji Kozji Vrh,15.264,46.598,20
55,Muta,15.166,46.612,28
134,Radlje ob Dravi,15.216,46.615,94
66,Benedikt,15.889,46.608,33
24,Lokavci,15.931,46.622,20
33,Gortina,15.124,46.607,24
46,Pernice,15.104,46.64,24
39,Brezni Vrh,15.324,46.639,39
33,Obrežje pri Zidanem Mostu,15.174,46.085,20
24,Kamnica,14.674,46.098,20
79,Lokavec,15.242,46.099,33
39,Lahov Graben,15.334,46.093,20
55,Planina pri Sevnici,15.405,46.104,24
28,Veliko Širje,15.194,46.101,20
39,Buče,15.575,46.109,20
24,Konjšica - del,14.971,46.097,20
39,Dragomelj,14.593,46.11,20
46,Podkraj,15.091,46.122,20
33,Gore,15.138,46.115,20
24,Dobovec,15.058,46.113,20
28,Blatni Vrh,15.358,46.118,20
46,Rimske Toplice,15.194,46.124,28
28,Vrh nad Laškim,15.287,46.129,20
28,Virštanj,15.56,46.13,20
46,Turje,15.15,46.131,24
24,Žegar,15.449,46.134,20
28,Markovci,16.235,46.845,20
24,Matjaševci,16.088,46.846,20
33,Hodoš,16.326,46.824,24
39,Trdkova,16.127,46.852,24
112,Čepinci,16.21,46.86,39
66,Dolenci,16.288,46.852,24
24,Sv. Peter,13.682,45.466,20
39,Sv. Trije Kralji,15.19,46.635,20
33,Kaniža,15.669,46.649,20
24,Grušena,15.568,46.651,20
24,Spodnja Ščavnica,15.925,46.652,24
33,Štrihovec,15.659,46.664,20
39,Zgornja Ščavnica,15.829,46.668,20
28,Police,15.96,46.665,20
112,Kočevska Reka,14.801,45.575,39
66,Draga,14.654,45.633,55
192,Babno Polje,14.549,45.646,46
28,Podpreska,14.642,45.648,20
55,Kozarišče,14.474,45.687,20
24,Pudob,14.478,45.699,20
39,Slavina,14.179,45.712,20
112,Stari trg pri Ložu,14.471,45.714,66
46,Hrib-Loški Potok,14.591,45.701,46
33,Šmarje pri Sežani,13.868,45.724,20
276,Sežana,13.873,45.709,134
24,Dol pri Vogljah,13.813,45.726,20
94,Prestranek,14.186,45.731,33
46,Mali Log,14.586,45.722,20
24,Križ,13.865,45.744,20
33,Štorje,13.928,45.738,28
24,Kreplje,13.834,45.744,20
134,Senožeče,14.039,45.721,39
33,Rakitnik,14.195,45.745,20
33,Orehek,14.154,45.75,20
28,Globel,14.602,45.763,20
46,Gabrje,15.272,45.779,28
28,Stara Fužina,13.894,46.288,28
24,Zgornje Gorje,14.069,46.381,20
28,Radegunda,14.932,46.357,20
28,Smokuč,14.167,46.388,20
46,Lepa Njiva,14.974,46.369,24
24,Breg,14.124,46.392,20
39,Ter,14.844,46.361,20
476,Celje,15.264,46.231,276
230,Velenje,15.106,46.353,94
1183,Koper,13.722,45.531,476
39,Trbovlje,15.044,46.146,28
397,Jesenice,14.052,46.432,192
476,Nova Gorica,13.646,45.958,331
397,Murska Sobota,16.164,46.658,192
79,Kamnik,14.604,46.215,66
160,Škofja Loka,14.316,46.167,66
160,Domžale,14.592,46.14,66
46,Izola,13.669,45.53,28
397,Kočevje,14.862,45.641,160
331,Postojna,14.21,45.774,160
94,Logatec,14.217,45.916,39
230,Slovenj Gradec,15.084,46.508,112
55,Ravne na Koroškem,14.961,46.542,55
192,Vrhnika,14.292,45.962,112
331,Slovenska Bistrica,15.568,46.39,134
230,Zagorje ob Savi,14.994,46.129,112
112,Brežice,15.599,45.906,66
160,Litija,14.823,46.059,94
192,Grosuplje,14.656,45.957,79
160,Ajdovščina,13.906,45.888,160
28,Hrastnik,15.083,46.139,24
160,Radovljica,14.174,46.344,79
39,Bled,14.103,46.363,20
230,Idrija,14.023,46.002,94
33,Mengeš,14.57,46.157,20
276,Črnomelj,15.186,45.573,192
397,Rogaška Slatina,15.642,46.225,134
100000,Ljubljana,14.512,46.056,100000
397,Kranj,14.358,46.243,134
476,Novo mesto,15.165,45.806,331
331,Krško,15.497,45.958,192
33,Sv. Jernej nad Muto,15.145,46.654,20
46,Plač,15.588,46.665,20
33,Birčna vas,15.147,45.752,28
39,Dolenjske Toplice,15.059,45.757,24
230,Kozje,15.556,46.072,66
46,Lastnič,15.612,46.083,28
39,Zdole,15.553,46.089,20
28,Zagorje,15.475,46.091,24
33,Lesično,15.515,46.101,24
33,Tirna,14.907,46.104,20
66,Vače,14.838,46.12,28
33,Gubno,15.513,46.119,20
39,Mlinše,14.88,46.146,24
24,Dobrina,15.482,46.148,20
94,Hrastje,15.474,46.131,46
33,Nemčavci,16.176,46.679,20
24,Bogojina,16.28,46.675,24
24,Borejci,16.1,46.678,20
33,Krajna,16.058,46.685,24
55,Lokavec,15.81,46.694,39
33,Zgornja Velka,15.76,46.682,28
33,Strunjan,13.605,45.532,20
94,Sv. Anton,13.818,45.531,46
24,Jasen,14.255,45.558,20
24,Topolc,14.216,45.584,20
276,Ilirska Bistrica,14.241,45.572,160
66,Šembije,14.236,45.604,20
55,Prem,14.183,45.605,20
46,Ručetna vas,15.165,45.621,20
33,Ostrožno Brdo,14.125,45.62,33
39,Rodik,13.981,45.625,20
39,Narin,14.194,45.644,33
39,Koritnice,14.285,45.623,20
39,Barka,14.052,45.64,20
28,Črešnjevec pri Semiču,15.232,45.653,20
24,Zagorje,14.225,45.64,20
46,Famlje,14.022,45.661,33
134,Semič,15.181,45.652,66
24,Gornje Vreme,14.05,45.653,20
39,Parje,14.218,45.663,20
39,Dolnja Košana,14.126,45.665,39
46,Drašiči,15.373,45.666,20
134,Bač,14.257,45.634,39
46,Lokev,13.928,45.661,24
94,Pivka,14.196,45.682,79
39,Orlek,13.843,45.69,20
33,Juršče,14.295,45.664,24
33,Rakitnica,14.757,45.692,20
79,Divača,13.969,45.681,55
24,Merče,13.901,45.7,20
39,Povir,13.933,45.7,20
66,Dolenja vas,14.754,45.708,24
66,Palčje,14.257,45.676,20
46,Podgrad,15.202,45.735,39
55,Hrastje,15.299,45.814,24
24,Gorenje Vrhpolje,15.327,45.815,20
24,Oštrc,15.441,45.832,20
33,Loka,15.306,45.832,20
112,Šentjernej,15.339,45.84,94
94,Velike Lašče,14.636,45.834,79
55,Kostanjevica na Krki,15.422,45.844,46
46,Pijava Gorica,14.573,45.952,20
24,Sv. Barbara,14.317,46.125,20
24,Spodnje Pirniče,14.441,46.133,20
28,Gorjuša,14.636,46.138,20
24,Janežovci,15.883,46.47,20
66,Starše,15.768,46.466,28
1183,Maribor,15.647,46.562,571
112,Ptuj,15.874,46.425,112
160,Osilnica,14.698,45.53,94
39,Zavrč,16.047,46.387,20
230,Kostel,14.908,45.509,94
