rs,name,lon,lat,r1
144,Sennwald,9.504,47.261,100
172,Buchs SG,9.478,47.167,100
511,Azmoos,9.476,47.083,100
296,Mendrisio,8.99,45.87,120
144,Splügen,9.324,46.553,100
1058,Chur,9.531,46.851,426
172,Riom,9.581,46.61,100
296,Promontogno,9.558,46.34,172
206,Bivio,9.65,46.469,100
172,Davos Monstein,9.773,46.711,100
355,Davos,9.836,46.804,144
172,Zuoz,9.96,46.6,100
144,Lavin,10.112,46.769,100
206,Zernez,10.096,46.7,100
296,Poschiavo,10.058,46.326,144
613,Scuol,10.294,46.796,247
296,Samnaun Dorf,10.36,46.944,120
144,Brusio,10.127,46.257,100
144,Tschlin,10.425,46.87,100
206,Valchava,10.404,46.602,144
100000,Zürich,8.539,47.377,100000
2191,Genève,6.154,46.197,1269
882,Basel,7.606,47.557,511
613,Lausanne,6.632,46.527,296
1269,Bern,7.443,46.943,426
613,Luzern,8.302,47.059,247
2629,Lugano,8.955,46.013,882
426,Biel/Bienne,7.253,47.134,172
296,Fribourg,7.151,46.798,172
426,Thun,7.636,46.748,172
247,Baar,8.513,47.183,120
172,Neuchâtel-Pré Louiset,6.927,46.994,172
613,Schaffhausen,8.633,47.697,172
426,Olten,7.912,47.343,172
355,Bellinzona-Monti di Padevilla,9.023,46.196,144
172,Wettingen,8.319,47.464,120
144,Aarau-Rohr,8.063,47.392,100
172,Solothurn,7.545,47.208,172
206,Wil (SG),9.048,47.464,100
144,Liestal-Talacher,7.734,47.49,100
120,Morges,6.502,46.514,100
144,Buelach,8.544,47.516,100
355,Monthey,6.948,46.264,144
120,Villmergen,8.27,47.35,100
296,Brig-Glis-Unners Nesseltal,7.989,46.319,247
120,Oensingen,7.68,47.266,100
206,Landquart-Igis,9.564,46.956,100
247,Interlaken,7.855,46.683,120
426,Altdorf (UR),8.644,46.871,120
120,Saxon,7.197,46.166,100
144,Neuenkirch,8.191,47.127,100
247,Burg,8.181,47.252,100
120,Frick,8.007,47.499,100
120,Aadorf,8.914,47.472,100
735,Celerina/Schlarigna-Alp dal Staz,9.854,46.51,247
172,Wattwil,9.087,47.31,120
206,Appenzell,9.421,47.328,100
144,Rolle,6.338,46.46,100
120,Eschenz,8.864,47.659,100
144,Oberdorf (BL),7.754,47.403,100
172,Muri,8.334,47.272,100
172,Porrentruy,7.074,47.413,144
247,Val-de-Travers,6.605,46.911,100
247,Echallens,6.633,46.643,100
172,Versoix,6.165,46.284,100
355,Nyon,6.238,46.384,144
144,Bière,6.334,46.537,100
144,Damvant,6.898,47.372,100
120,Forel FR,6.889,46.876,100
144,Avully,6.002,46.17,100
247,Le Chenit,6.23,46.607,120
120,Arzier,6.208,46.459,100
120,Vallorbe,6.379,46.712,100
144,La Brévine,6.607,46.979,100
120,Orbe,6.531,46.725,100
206,Yverdon-les-Bains,6.639,46.78,172
172,La Chaux-de-Fonds,6.82,47.095,100
120,Concise,6.72,46.852,100
172,Boncourt,7.016,47.496,100
120,Moudon,6.804,46.67,100
144,Epauvillers,7.116,47.335,100
206,Tramelan,7.098,47.223,100
426,Delémont,7.35,47.363,120
120,Wünnewil,7.28,46.875,100
120,Payerne,6.94,46.82,120
247,Langenthal,7.791,47.212,100
120,Diesse,7.116,47.113,100
120,Spiez,7.679,46.688,100
120,Leukerbad,7.626,46.38,100
120,Flühli LU,8.016,46.883,120
172,Châtel-St-Denis,6.901,46.527,100
120,Chénens,7.001,46.741,100
120,Cormérod,7.089,46.866,100
144,Murten,7.119,46.93,100
206,Chernex,6.912,46.445,144
120,Plagne,7.287,47.189,100
172,Bulle,7.057,46.617,144
144,Moutier,7.37,47.28,100
120,Val-d'Illiez,6.892,46.203,100
120,Lyss,7.306,47.074,100
120,Aigle,6.97,46.318,100
120,Le Mouret,7.173,46.745,100
120,Buech,7.269,46.95,100
120,Laufen,7.5,47.424,100
120,Therwil,7.551,47.498,100
120,Seehof,7.521,47.305,100
120,Kirchlindach,7.41,46.999,100
172,Im Fang,7.237,46.599,100
120,Schwarzenburg,7.344,46.818,100
172,Les Diablerets,7.158,46.352,100
247,Martigny,7.074,46.102,144
172,Saanen,7.259,46.489,100
144,Utzenstorf,7.558,47.128,100
120,Rheinfelden,7.787,47.552,100
120,Mümliswil,7.702,47.342,100
120,Worb,7.564,46.93,100
206,Burgdorf,7.624,47.055,100
144,Münsingen,7.563,46.875,100
120,Verbier,7.224,46.097,100
247,Liddes,7.188,45.991,100
120,Ramsei,7.71,46.998,100
1058,Sion,7.36,46.228,247
511,Adelboden,7.559,46.493,100
120,Huttwil,7.851,47.113,100
144,Laufenburg,8.061,47.561,100
172,Langnau im Emmental,7.785,46.938,100
120,Zofingen,7.947,47.286,100
172,Frutigen,7.645,46.588,100
120,Eggiwil,7.796,46.876,100
206,Sierre,7.533,46.294,100
206,Evolène,7.496,46.112,100
247,Linn,8.127,47.47,100
172,Arolla,7.48,46.026,100
206,Willisau,7.993,47.121,100
144,St-Luc,7.595,46.222,100
172,Engersch,7.711,46.329,100
206,Bad Zurzach,8.293,47.588,100
120,Wolhusen,8.074,47.062,100
120,Wiler (Lötschen),7.787,46.404,100
120,Stans,8.366,46.957,100
247,Mürren,7.892,46.56,100
120,Lengnau AG,8.329,47.52,100
120,Sins,8.396,47.192,100
120,Kloten,8.583,47.449,100
120,Simplon Dorf,8.056,46.196,100
172,Engelberg,8.407,46.82,100
144,Uster,8.717,47.349,100
120,Madetswil,8.793,47.411,100
120,Remetschwil,8.327,47.409,100
144,Hallau,8.457,47.697,100
120,Weinfelden,9.104,47.568,100
296,St. Niklaus (VS),7.801,46.172,100
426,Zermatt,7.746,46.02,206
144,Randa,7.783,46.099,100
120,Grindelwald,8.034,46.625,100
120,Visp,7.882,46.292,100
120,Eglisau,8.522,47.576,100
355,Sarnen,8.246,46.896,144
206,Meiringen,8.183,46.729,144
120,Barzheim,8.721,47.761,100
120,Küssnacht am Rigi,8.435,47.083,100
120,Fiesch,8.133,46.403,100
120,Henggart,8.684,47.564,100
144,Guttannen,8.289,46.655,100
120,Oberrickenbach,8.418,46.889,100
355,Gluringen,8.233,46.464,144
172,Horgen,8.596,47.261,100
247,Winterthur,8.725,47.5,100
120,Grüningen,8.762,47.283,100
206,Schwyz,8.652,47.022,100
144,Sisikon,8.622,46.95,100
120,Frauenfeld,8.898,47.558,100
206,Einsiedeln,8.743,47.128,100
296,Rapperswil SG,8.819,47.226,100
613,Andermatt,8.596,46.635,100
206,Amsteg,8.672,46.769,100
120,Unteriberg,8.802,47.06,100
172,Airolo,8.609,46.528,100
296,Kreuzlingen,9.174,47.651,144
172,Cavergno,8.607,46.345,100
144,Fusio,8.663,46.444,100
144,Segnas,8.829,46.695,100
120,Nassen,9.136,47.373,100
172,Càmedo,8.611,46.155,100
206,Niederurnen,9.053,47.125,120
120,Mutwil,9.219,47.454,100
247,Faido,8.801,46.478,100
206,Maggia,8.709,46.246,100
172,Glarus,9.069,47.042,100
120,Nidfurn,9.057,46.988,100
172,Nesslau,9.199,47.227,100
120,Schönau,9.253,47.311,100
144,Olivone,8.938,46.53,100
206,Breil#Brigels,9.062,46.769,120
120,Caviano,8.765,46.108,100
172,Locarno,8.799,46.167,120
735,St. Gallen,9.38,47.424,355
120,Vogorno,8.857,46.224,100
172,Arbon,9.436,47.515,100
296,Thusis,9.439,46.697,120
144,Klosters,9.879,46.878,100
735,Biasca,8.968,46.361,144
120,Maloja,9.695,46.403,100
144,Vattiz,9.159,46.706,100
120,Mezzovico-Vira,8.927,46.1,100
426,Vals,9.18,46.619,120
